$PMTK001,314,3*36
$PMTK001,220,3*30
$PMTK001,185,3*3C
$GPGGA,150452.217,,,,,0,0,,,M,,M,,*4B
$GPRMC,150452.217,V,,,,,0.00,0.00,100612,,,N*4A
$GPGGA,150453.317,4026.6603,N,07520.5729,W,1,5,2.32,31.7,M,-33.9,M,,*50
$GPRMC,150453.317,A,4026.6603,N,07520$PMTK001,314,3*36
$PMTK001,220,3*30
$PMTK001,185,3*3C
$GPGGA,150452.217,,,,,0,0,,,M,,M,,*4B
$GPRMC,150452.217,V,,,,,0.00,0.00,100612,,,N*4A
$GPGGA,150453.317,4026.6603,N,07520.5729,W,1,5,2.32,31.7,M,-33.9,M,,*50
$GPRMC,150453.317,A,4026.6603,N,07520$PMTK001,314,3*36
$PMTK001,220,3*30
$PMTK001,185,3*3C
$GPGGA,150452.217,,,,,0,0,,,M,,M,,*4B
$GPRMC,150452.217,V,,,,,0.00,0.00,100612,,,N*4A
$GPGGA,150453.317,4026.6603,N,07520.5729,W,1,5,2.32,31.7,M,-33.9,M,,*50
$GPRMC,150453.317,A,4026.6603,N,07520$PMTK001,314,3*36
$PMTK001,220,3*30
$PMTK001,185,3*3C
$GPGGA,150452.217,,,,,0,0,,,M,,M,,*4B
$GPRMC,150452.217,V,,,,,0.00,0.00,100612,,,N*4A
$GPGGA,150453.317,4026.6603,N,07520.5729,W,1,5,2.32,31.7,M,-33.9,M,,*50
$GPRMC,150453.317,A,4026.6603,N,07520$PMTK001,314,3*36
$PMTK001,220,3*30
$PMTK001,185,3*3C
$GPGGA,150452.217,,,,,0,0,,,M,,M,,*4B
$GPRMC,150452.217,V,,,,,0.00,0.00,100612,,,N*4A
$GPGGA,150453.317,4026.6603,N,07520.5729,W,1,5,2.32,31.7,M,-33.9,M,,*50
$GPRMC,150453.317,A,4026.6603,N,07520$PMTK001,314,3*36
$PMTK001,220,3*30
$PMTK001,185,3*3C
$GPGGA,150452.217,,,,,0,0,,,M,,M,,*4B
$GPRMC,150452.217,V,,,,,0.00,0.00,100612,,,N*4A
$GPGGA,150453.317,4026.6603,N,07520.5729,W,1,5,2.32,31.7,M,-33.9,M,,*50
$GPRMC,150453.317,A,4026.6603,N,07520$PMTK001,314,3*36
$PMTK001,220,3*30
$PMTK001,185,3*3C
$GPGGA,150452.217,,,,,0,0,,,M,,M,,*4B
$GPRMC,150452.217,V,,,,,0.00,0.00,100612,,,N*4A
$GPGGA,150453.317,4026.6603,N,07520.5729,W,1,5,2.32,31.7,M,-33.9,M,,*50
$GPRMC,150453.317,A,4026.6603,N,07520$PMTK001,314,3*36
$PMTK001,220,3*30
$PMTK001,185,3*3C
$GPGGA,150452.217,,,,,0,0,,,M,,M,,*4B
$GPRMC,150452.217,V,,,,,0.00,0.00,100612,,,N*4A
$GPGGA,150453.317,4026.6603,N,07520.5729,W,1,5,2.32,31.7,M,-33.9,M,,*50
$GPRMC,150453.317,A,4026.6603,N,07520$PMTK001,314,3*36
$PMTK001,220,3*30
$PMTK001,185,3*3C
$GPGGA,150452.217,,,,,0,0,,,M,,M,,*4B
$GPRMC,150452.217,V,,,,,0.00,0.00,100612,,,N*4A
$GPGGA,150453.317,4026.6603,N,07520.5729,W,1,5,2.32,31.7,M,-33.9,M,,*50
$GPRMC,150453.317,A,4026.6603,N,07520$PMTK001,314,3*36
$PMTK001,220,3*30
$PMTK001,185,3*3C
$GPGGA,150452.217,,,,,0,0,,,M,,M,,*4B
$GPRMC,150452.217,V,,,,,0.00,0.00,100612,,,N*4A
$GPGGA,150453.317,4026.6603,N,07520.5729,W,1,5,2.32,31.7,M,-33.9,M,,*50
$GPRMC,150453.317,A,4026.6603,N,07520$PMTK001,314,3*36
$PMTK001,220,3*30
$PMTK001,185,3*3C
$GPGGA,150452.217,,,,,0,0,,,M,,M,,*4B
$GPRMC,150452.217,V,,,,,0.00,0.00,100612,,,N*4A
$GPGGA,150453.317,4026.6603,N,07520.5729,W,1,5,2.32,31.7,M,-33.9,M,,*50
$GPRMC,150453.317,A,4026.6603,N,07520$PMTK001,314,3*36
$PMTK001,220,3*30
$PMTK001,185,3*3C
$GPGGA,150452.217,,,,,0,0,,,M,,M,,*4B
$GPRMC,150452.217,V,,,,,0.00,0.00,100612,,,N*4A
$GPGGA,150453.317,4026.6603,N,07520.5729,W,1,5,2.32,31.7,M,-33.9,M,,*50
$GPRMC,150453.317,A,4026.6603,N,07520$PMTK001,314,3*36
$PMTK001,220,3*30
$PMTK001,185,3*3C
$GPGGA,150452.217,,,,,0,0,,,M,,M,,*4B
$GPRMC,150452.217,V,,,,,0.00,0.00,100612,,,N*4A
$GPGGA,150453.317,4026.6603,N,07520.5729,W,1,5,2.32,31.7,M,-33.9,M,,*50
$GPRMC,150453.317,A,4026.6603,N,07520$PMTK001,314,3*36
$PMTK001,220,3*30
$PMTK001,185,3*3C
$GPGGA,150452.217,,,,,0,0,,,M,,M,,*4B
$GPRMC,150452.217,V,,,,,0.00,0.00,100612,,,N*4A
$GPGGA,150453.317,4026.6603,N,07520.5729,W,1,5,2.32,31.7,M,-33.9,M,,*50
$GPRMC,150453.317,A,4026.6603,N,07520$PMTK001,314,3*36
$PMTK001,220,3*30
$PMTK001,185,3*3C
$GPGGA,150452.217,,,,,0,0,,,M,,M,,*4B
$GPRMC,150452.217,V,,,,,0.00,0.00,100612,,,N*4A
$GPGGA,150453.317,4026.6603,N,07520.5729,W,1,5,2.32,31.7,M,-33.9,M,,*50
$GPRMC,150453.317,A,4026.6603,N,07520$PMTK001,314,3*36
$PMTK001,220,3*30
$PMTK001,185,3*3C
$GPGGA,150452.217,,,,,0,0,,,M,,M,,*4B
$GPRMC,150452.217,V,,,,,0.00,0.00,100612,,,N*4A
$GPGGA,150453.317,4026.6603,N,07520.5729,W,1,5,2.32,31.7,M,-33.9,M,,*50
$GPRMC,150453.317,A,4026.6603,N,07520$PMTK001,314,3*36
$PMTK001,220,3*30
$PMTK001,185,3*3C
$GPGGA,150452.217,,,,,0,0,,,M,,M,,*4B
$GPRMC,150452.217,V,,,,,0.00,0.00,100612,,,N*4A
$GPGGA,150453.317,4026.6603,N,07520.5729,W,1,5,2.32,31.7,M,-33.9,M,,*50
$GPRMC,150453.317,A,4026.6603,N,07520$PMTK001,314,3*36
$PMTK001,220,3*30
$PMTK001,185,3*3C
$GPGGA,150452.217,,,,,0,0,,,M,,M,,*4B
$GPRMC,150452.217,V,,,,,0.00,0.00,100612,,,N*4A
$GPGGA,150453.317,4026.6603,N,07520.5729,W,1,5,2.32,31.7,M,-33.9,M,,*50
$GPRMC,150453.317,A,4026.6603,N,07520$PMTK001,314,3*36
$PMTK001,220,3*30
$PMTK001,185,3*3C
$GPGGA,150452.217,,,,,0,0,,,M,,M,,*4B
$GPRMC,150452.217,V,,,,,0.00,0.00,100612,,,N*4A
$GPGGA,150453.317,4026.6603,N,07520.5729,W,1,5,2.32,31.7,M,-33.9,M,,*50
$GPRMC,150453.317,A,4026.6603,N,07520$PMTK001,314,3*36
$PMTK001,220,3*30
$PMTK001,185,3*3C
$GPGGA,150452.217,,,,,0,0,,,M,,M,,*4B
$GPRMC,150452.217,V,,,,,0.00,0.00,100612,,,N*4A
$GPGGA,150453.317,4026.6603,N,07520.5729,W,1,5,2.32,31.7,M,-33.9,M,,*50
$GPRMC,150453.317,A,4026.6603,N,07520$PMTK001,314,3*36
$PMTK001,220,3*30
$PMTK001,185,3*3C
$GPGGA,150452.217,,,,,0,0,,,M,,M,,*4B
$GPRMC,150452.217,V,,,,,0.00,0.00,100612,,,N*4A
$GPGGA,150453.317,4026.6603,N,07520.5729,W,1,5,2.32,31.7,M,-33.9,M,,*50
$GPRMC,150453.317,A,4026.6603,N,07520$PMTK001,314,3*36
$PMTK001,220,3*30
$PMTK001,185,3*3C
$GPGGA,150452.217,,,,,0,0,,,M,,M,,*4B
$GPRMC,150452.217,V,,,,,0.00,0.00,100612,,,N*4A
$GPGGA,150453.317,4026.6603,N,07520.5729,W,1,5,2.32,31.7,M,-33.9,M,,*50
$GPRMC,150453.317,A,4026.6603,N,07520$PMTK001,314,3*36
$PMTK001,220,3*30
$PMTK001,185,3*3C
$GPGGA,150452.217,,,,,0,0,,,M,,M,,*4B
$GPRMC,150452.217,V,,,,,0.00,0.00,100612,,,N*4A
$GPGGA,150453.317,4026.6603,N,07520.5729,W,1,5,2.32,31.7,M,-33.9,M,,*50
$GPRMC,150453.317,A,4026.6603,N,07520$PMTK001,314,3*36
$PMTK001,220,3*30
$PMTK001,185,3*3C
$GPGGA,150452.217,,,,,0,0,,,M,,M,,*4B
$GPRMC,150452.217,V,,,,,0.00,0.00,100612,,,N*4A
$GPGGA,150453.317,4026.6603,N,07520.5729,W,1,5,2.32,31.7,M,-33.9,M,,*50
$GPRMC,150453.317,A,4026.6603,N,07520$PMTK001,314,3*36
$PMTK001,220,3*30
$PMTK001,185,3*3C
$GPGGA,150452.217,,,,,0,0,,,M,,M,,*4B
$GPRMC,150452.217,V,,,,,0.00,0.00,100612,,,N*4A
$GPGGA,150453.317,4026.6603,N,07520.5729,W,1,5,2.32,31.7,M,-33.9,M,,*50
$GPRMC,150453.317,A,4026.6603,N,07520$PMTK001,314,3*36
$PMTK001,220,3*30
$PMTK001,185,3*3C
$GPGGA,150452.217,,,,,0,0,,,M,,M,,*4B
$GPRMC,150452.217,V,,,,,0.00,0.00,100612,,,N*4A
$GPGGA,150453.317,4026.6603,N,07520.5729,W,1,5,2.32,31.7,M,-33.9,M,,*50
$GPRMC,150453.317,A,4026.6603,N,07520$PMTK001,314,3*36
$PMTK001,220,3*30
$PMTK001,185,3*3C
$GPGGA,150452.217,,,,,0,0,,,M,,M,,*4B
$GPRMC,150452.217,V,,,,,0.00,0.00,100612,,,N*4A
$GPGGA,150453.317,4026.6603,N,07520.5729,W,1,5,2.32,31.7,M,-33.9,M,,*50
$GPRMC,150453.317,A,4026.6603,N,07520$PMTK001,314,3*36
$PMTK001,220,3*30
$PMTK001,185,3*3C
$GPGGA,150452.217,,,,,0,0,,,M,,M,,*4B
$GPRMC,150452.217,V,,,,,0.00,0.00,100612,,,N*4A
$GPGGA,150453.317,4026.6603,N,07520.5729,W,1,5,2.32,31.7,M,-33.9,M,,*50
$GPRMC,150453.317,A,4026.6603,N,07520$PMTK001,314,3*36
$PMTK001,220,3*30
$PMTK001,185,3*3C
$GPGGA,150452.217,,,,,0,0,,,M,,M,,*4B
$GPRMC,150452.217,V,,,,,0.00,0.00,100612,,,N*4A
$GPGGA,150453.317,4026.6603,N,07520.5729,W,1,5,2.32,31.7,M,-33.9,M,,*50
$GPRMC,150453.317,A,4026.6603,N,07520$PMTK001,314,3*36
$PMTK001,220,3*30
$PMTK001,185,3*3C
$GPGGA,150452.217,,,,,0,0,,,M,,M,,*4B
$GPRMC,150452.217,V,,,,,0.00,0.00,100612,,,N*4A
$GPGGA,150453.317,4026.6603,N,07520.5729,W,1,5,2.32,31.7,M,-33.9,M,,*50
$GPRMC,150453.317,A,4026.6603,N,07520$PMTK001,314,3*36
$PMTK001,220,3*30
$PMTK001,185,3*3C
$GPGGA,150452.217,,,,,0,0,,,M,,M,,*4B
$GPRMC,150452.217,V,,,,,0.00,0.00,100612,,,N*4A
$GPGGA,150453.317,4026.6603,N,07520.5729,W,1,5,2.32,31.7,M,-33.9,M,,*50
$GPRMC,150453.317,A,4026.6603,N,07520$PMTK001,314,3*36
$PMTK001,220,3*30
$PMTK001,185,3*3C
$GPGGA,150452.217,,,,,0,0,,,M,,M,,*4B
$GPRMC,150452.217,V,,,,,0.00,0.00,100612,,,N*4A
$GPGGA,150453.317,4026.6603,N,07520.5729,W,1,5,2.32,31.7,M,-33.9,M,,*50
$GPRMC,150453.317,A,4026.6603,N,07520$PMTK001,314,3*36
$PMTK001,220,3*30
$PMTK001,185,3*3C
$GPGGA,150452.217,,,,,0,0,,,M,,M,,*4B
$GPRMC,150452.217,V,,,,,0.00,0.00,100612,,,N*4A
$GPGGA,150453.317,4026.6603,N,07520.5729,W,1,5,2.32,31.7,M,-33.9,M,,*50
$GPRMC,150453.317,A,4026.6603,N,07520$PMTK001,314,3*36
$PMTK001,220,3*30
$PMTK001,185,3*3C
$GPGGA,150452.217,,,,,0,0,,,M,,M,,*4B
$GPRMC,150452.217,V,,,,,0.00,0.00,100612,,,N*4A
$GPGGA,150453.317,4026.6603,N,07520.5729,W,1,5,2.32,31.7,M,-33.9,M,,*50
$GPRMC,150453.317,A,4026.6603,N,07520$PMTK001,314,3*36
$PMTK001,220,3*30
$PMTK001,185,3*3C
$GPGGA,150452.217,,,,,0,0,,,M,,M,,*4B
$GPRMC,150452.217,V,,,,,0.00,0.00,100612,,,N*4A
$GPGGA,150453.317,4026.6603,N,07520.5729,W,1,5,2.32,31.7,M,-33.9,M,,*50
$GPRMC,150453.317,A,4026.6603,N,07520$PMTK001,314,3*36
$PMTK001,220,3*30
$PMTK001,185,3*3C
$GPGGA,150452.217,,,,,0,0,,,M,,M,,*4B
$GPRMC,150452.217,V,,,,,0.00,0.00,100612,,,N*4A
$GPGGA,150453.317,4026.6603,N,07520.5729,W,1,5,2.32,31.7,M,-33.9,M,,*50
$GPRMC,150453.317,A,4026.6603,N,07520$PMTK001,314,3*36
$PMTK001,220,3*30
$PMTK001,185,3*3C
$GPGGA,150452.217,,,,,0,0,,,M,,M,,*4B
$GPRMC,150452.217,V,,,,,0.00,0.00,100612,,,N*4A
$GPGGA,150453.317,4026.6603,N,07520.5729,W,1,5,2.32,31.7,M,-33.9,M,,*50
$GPRMC,150453.317,A,4026.6603,N,07520$PMTK001,314,3*36
$PMTK001,220,3*30
$PMTK001,185,3*3C
$GPGGA,150452.217,,,,,0,0,,,M,,M,,*4B
$GPRMC,150452.217,V,,,,,0.00,0.00,100612,,,N*4A
$GPGGA,150453.317,4026.6603,N,07520.5729,W,1,5,2.32,31.7,M,-33.9,M,,*50
$GPRMC,150453.317,A,4026.6603,N,07520$PMTK001,314,3*36
$PMTK001,220,3*30
$PMTK001,185,3*3C
$GPGGA,150452.217,,,,,0,0,,,M,,M,,*4B
$GPRMC,150452.217,V,,,,,0.00,0.00,100612,,,N*4A
$GPGGA,150453.317,4026.6603,N,07520.5729,W,1,5,2.32,31.7,M,-33.9,M,,*50
$GPRMC,150453.317,A,4026.6603,N,07520$PMTK001,314,3*36
$PMTK001,220,3*30
$PMTK001,185,3*3C
$GPGGA,150452.217,,,,,0,0,,,M,,M,,*4B
$GPRMC,150452.217,V,,,,,0.00,0.00,100612,,,N*4A
$GPGGA,150453.317,4026.6603,N,07520.5729,W,1,5,2.32,31.7,M,-33.9,M,,*50
$GPRMC,150453.317,A,4026.6603,N,07520$PMTK001,314,3*36
$PMTK001,220,3*30
$PMTK001,185,3*3C
$GPGGA,150452.217,,,,,0,0,,,M,,M,,*4B
$GPRMC,150452.217,V,,,,,0.00,0.00,100612,,,N*4A
$GPGGA,150453.317,4026.6603,N,07520.5729,W,1,5,2.32,31.7,M,-33.9,M,,*50
$GPRMC,150453.317,A,4026.6603,N,07520$PMTK001,314,3*36
$PMTK001,220,3*30
$PMTK001,185,3*3C
$GPGGA,150452.217,,,,,0,0,,,M,,M,,*4B
$GPRMC,150452.217,V,,,,,0.00,0.00,100612,,,N*4A
$GPGGA,150453.317,4026.6603,N,07520.5729,W,1,5,2.32,31.7,M,-33.9,M,,*50
$GPRMC,150453.317,A,4026.6603,N,07520$PMTK001,314,3*36
$PMTK001,220,3*30
$PMTK001,185,3*3C
$GPGGA,150452.217,,,,,0,0,,,M,,M,,*4B
$GPRMC,150452.217,V,,,,,0.00,0.00,100612,,,N*4A
$GPGGA,150453.317,4026.6603,N,07520.5729,W,1,5,2.32,31.7,M,-33.9,M,,*50
$GPRMC,150453.317,A,4026.6603,N,07520$PMTK001,314,3*36
$PMTK001,220,3*30
$PMTK001,185,3*3C
$GPGGA,150452.217,,,,,0,0,,,M,,M,,*4B
$GPRMC,150452.217,V,,,,,0.00,0.00,100612,,,N*4A
$GPGGA,150453.317,4026.6603,N,07520.5729,W,1,5,2.32,31.7,M,-33.9,M,,*50
$GPRMC,150453.317,A,4026.6603,N,07520$PMTK001,314,3*36
$PMTK001,220,3*30
$PMTK001,185,3*3C
$GPGGA,150452.217,,,,,0,0,,,M,,M,,*4B
$GPRMC,150452.217,V,,,,,0.00,0.00,100612,,,N*4A
$GPGGA,150453.317,4026.6603,N,07520.5729,W,1,5,2.32,31.7,M,-33.9,M,,*50
$GPRMC,150453.317,A,4026.6603,N,07520$PMTK001,314,3*36
$PMTK001,220,3*30
$PMTK001,185,3*3C
$GPGGA,150452.217,,,,,0,0,,,M,,M,,*4B
$GPRMC,150452.217,V,,,,,0.00,0.00,100612,,,N*4A
$GPGGA,150453.317,4026.6603,N,07520.5729,W,1,5,2.32,31.7,M,-33.9,M,,*50
$GPRMC,150453.317,A,4026.6603,N,07520$PMTK001,314,3*36
$PMTK001,220,3*30
$PMTK001,185,3*3C
$GPGGA,150452.217,,,,,0,0,,,M,,M,,*4B
$GPRMC,150452.217,V,,,,,0.00,0.00,100612,,,N*4A
$GPGGA,150453.317,4026.6603,N,07520.5729,W,1,5,2.32,31.7,M,-33.9,M,,*50
$GPRMC,150453.317,A,4026.6603,N,07520$PMTK001,314,3*36
$PMTK001,220,3*30
$PMTK001,185,3*3C
$GPGGA,150452.217,,,,,0,0,,,M,,M,,*4B
$GPRMC,150452.217,V,,,,,0.00,0.00,100612,,,N*4A
$GPGGA,150453.317,4026.6603,N,07520.5729,W,1,5,2.32,31.7,M,-33.9,M,,*50
$GPRMC,150453.317,A,4026.6603,N,07520$PMTK001,314,3*36
$PMTK001,220,3*30
$PMTK001,185,3*3C
$GPGGA,150452.217,,,,,0,0,,,M,,M,,*4B
$GPRMC,150452.217,V,,,,,0.00,0.00,100612,,,N*4A
$GPGGA,150453.317,4026.6603,N,07520.5729,W,1,5,2.32,31.7,M,-33.9,M,,*50
$GPRMC,150453.317,A,4026.6603,N,07520$PMTK001,314,3*36
$PMTK001,220,3*30
$PMTK001,185,3*3C
$GPGGA,150452.217,,,,,0,0,,,M,,M,,*4B
$GPRMC,150452.217,V,,,,,0.00,0.00,100612,,,N*4A
$GPGGA,150453.317,4026.6603,N,07520.5729,W,1,5,2.32,31.7,M,-33.9,M,,*50
$GPRMC,150453.317,A,4026.6603,N,07520$PMTK001,314,3*36
$PMTK001,220,3*30
$PMTK001,185,3*3C
$GPGGA,150452.217,,,,,0,0,,,M,,M,,*4B
$GPRMC,150452.217,V,,,,,0.00,0.00,100612,,,N*4A
$GPGGA,150453.317,4026.6603,N,07520.5729,W,1,5,2.32,31.7,M,-33.9,M,,*50
$GPRMC,150453.317,A,4026.6603,N,07520$PMTK001,314,3*36
$PMTK001,220,3*30
$PMTK001,185,3*3C
$GPGGA,150452.217,,,,,0,0,,,M,,M,,*4B
$GPRMC,150452.217,V,,,,,0.00,0.00,100612,,,N*4A
$GPGGA,150453.317,4026.6603,N,07520.5729,W,1,5,2.32,31.7,M,-33.9,M,,*50
$GPRMC,150453.317,A,4026.6603,N,07520$PMTK001,314,3*36
$PMTK001,220,3*30
$PMTK001,185,3*3C
$GPGGA,150452.217,,,,,0,0,,,M,,M,,*4B
$GPRMC,150452.217,V,,,,,0.00,0.00,100612,,,N*4A
$GPGGA,150453.317,4026.6603,N,07520.5729,W,1,5,2.32,31.7,M,-33.9,M,,*50
$GPRMC,150453.317,A,4026.6603,N,07520$PMTK001,314,3*36
$PMTK001,220,3*30
$PMTK001,185,3*3C
$GPGGA,150452.217,,,,,0,0,,,M,,M,,*4B
$GPRMC,150452.217,V,,,,,0.00,0.00,100612,,,N*4A
$GPGGA,150453.317,4026.6603,N,07520.5729,W,1,5,2.32,31.7,M,-33.9,M,,*50
$GPRMC,150453.317,A,4026.6603,N,07520$PMTK001,314,3*36
$PMTK001,220,3*30
$PMTK001,185,3*3C
$GPGGA,150452.217,,,,,0,0,,,M,,M,,*4B
$GPRMC,150452.217,V,,,,,0.00,0.00,100612,,,N*4A
$GPGGA,150453.317,4026.6603,N,07520.5729,W,1,5,2.32,31.7,M,-33.9,M,,*50
$GPRMC,150453.317,A,4026.6603,N,07520$PMTK001,314,3*36
$PMTK001,220,3*30
$PMTK001,185,3*3C
$GPGGA,150452.217,,,,,0,0,,,M,,M,,*4B
$GPRMC,150452.217,V,,,,,0.00,0.00,100612,,,N*4A
$GPGGA,150453.317,4026.6603,N,07520.5729,W,1,5,2.32,31.7,M,-33.9,M,,*50
$GPRMC,150453.317,A,4026.6603,N,07520$PMTK001,314,3*36
$PMTK001,220,3*30
$PMTK001,185,3*3C
$GPGGA,150452.217,,,,,0,0,,,M,,M,,*4B
$GPRMC,150452.217,V,,,,,0.00,0.00,100612,,,N*4A
$GPGGA,150453.317,4026.6603,N,07520.5729,W,1,5,2.32,31.7,M,-33.9,M,,*50
$GPRMC,150453.317,A,4026.6603,N,07520$PMTK001,314,3*36
$PMTK001,220,3*30
$PMTK001,185,3*3C
$GPGGA,150452.217,,,,,0,0,,,M,,M,,*4B
$GPRMC,150452.217,V,,,,,0.00,0.00,100612,,,N*4A
$GPGGA,150453.317,4026.6603,N,07520.5729,W,1,5,2.32,31.7,M,-33.9,M,,*50
$GPRMC,150453.317,A,4026.6603,N,07520$PMTK001,314,3*36
$PMTK001,220,3*30
$PMTK001,185,3*3C
$GPGGA,150452.217,,,,,0,0,,,M,,M,,*4B
$GPRMC,150452.217,V,,,,,0.00,0.00,100612,,,N*4A
$GPGGA,150453.317,4026.6603,N,07520.5729,W,1,5,2.32,31.7,M,-33.9,M,,*50
$GPRMC,150453.317,A,4026.6603,N,07520$PMTK001,314,3*36
$PMTK001,220,3*30
$PMTK001,185,3*3C
$GPGGA,150452.217,,,,,0,0,,,M,,M,,*4B
$GPRMC,150452.217,V,,,,,0.00,0.00,100612,,,N*4A
$GPGGA,150453.317,4026.6603,N,07520.5729,W,1,5,2.32,31.7,M,-33.9,M,,*50
$GPRMC,150453.317,A,4026.6603,N,07520$PMTK001,314,3*36
$PMTK001,220,3*30
$PMTK001,185,3*3C
$GPGGA,150452.217,,,,,0,0,,,M,,M,,*4B
$GPRMC,150452.217,V,,,,,0.00,0.00,100612,,,N*4A
$GPGGA,150453.317,4026.6603,N,07520.5729,W,1,5,2.32,31.7,M,-33.9,M,,*50
$GPRMC,150453.317,A,4026.6603,N,07520$PMTK001,314,3*36
$PMTK001,220,3*30
$PMTK001,185,3*3C
$GPGGA,150452.217,,,,,0,0,,,M,,M,,*4B
$GPRMC,150452.217,V,,,,,0.00,0.00,100612,,,N*4A
$GPGGA,150453.317,4026.6603,N,07520.5729,W,1,5,2.32,31.7,M,-33.9,M,,*50
$GPRMC,150453.317,A,4026.6603,N,07520$PMTK001,314,3*36
$PMTK001,220,3*30
$PMTK001,185,3*3C
$GPGGA,150452.217,,,,,0,0,,,M,,M,,*4B
$GPRMC,150452.217,V,,,,,0.00,0.00,100612,,,N*4A
$GPGGA,150453.317,4026.6603,N,07520.5729,W,1,5,2.32,31.7,M,-33.9,M,,*50
$GPRMC,150453.317,A,4026.6603,N,07520$PMTK001,314,3*36
$PMTK001,220,3*30
$PMTK001,185,3*3C
$GPGGA,150452.217,,,,,0,0,,,M,,M,,*4B
$GPRMC,150452.217,V,,,,,0.00,0.00,100612,,,N*4A
$GPGGA,150453.317,4026.6603,N,07520.5729,W,1,5,2.32,31.7,M,-33.9,M,,*50
$GPRMC,150453.317,A,4026.6603,N,07520$PMTK001,314,3*36
$PMTK001,220,3*30
$PMTK001,185,3*3C
$GPGGA,150452.217,,,,,0,0,,,M,,M,,*4B
$GPRMC,150452.217,V,,,,,0.00,0.00,100612,,,N*4A
$GPGGA,150453.317,4026.6603,N,07520.5729,W,1,5,2.32,31.7,M,-33.9,M,,*50
$GPRMC,150453.317,A,4026.6603,N,07520$PMTK001,314,3*36
$PMTK001,220,3*30
$PMTK001,185,3*3C
$GPGGA,150452.217,,,,,0,0,,,M,,M,,*4B
$GPRMC,150452.217,V,,,,,0.00,0.00,100612,,,N*4A
$GPGGA,150453.317,4026.6603,N,07520.5729,W,1,5,2.32,31.7,M,-33.9,M,,*50
$GPRMC,150453.317,A,4026.6603,N,07520$PMTK001,314,3*36
$PMTK001,220,3*30
$PMTK001,185,3*3C
$GPGGA,150452.217,,,,,0,0,,,M,,M,,*4B
$GPRMC,150452.217,V,,,,,0.00,0.00,100612,,,N*4A
$GPGGA,150453.317,4026.6603,N,07520.5729,W,1,5,2.32,31.7,M,-33.9,M,,*50
$GPRMC,150453.317,A,4026.6603,N,07520$PMTK001,314,3*36
$PMTK001,220,3*30
$PMTK001,185,3*3C
$GPGGA,150452.217,,,,,0,0,,,M,,M,,*4B
$GPRMC,150452.217,V,,,,,0.00,0.00,100612,,,N*4A
$GPGGA,150453.317,4026.6603,N,07520.5729,W,1,5,2.32,31.7,M,-33.9,M,,*50
$GPRMC,150453.317,A,4026.6603,N,07520$PMTK001,314,3*36
$PMTK001,220,3*30
$PMTK001,185,3*3C
$GPGGA,150452.217,,,,,0,0,,,M,,M,,*4B
$GPRMC,150452.217,V,,,,,0.00,0.00,100612,,,N*4A
$GPGGA,150453.317,4026.6603,N,07520.5729,W,1,5,2.32,31.7,M,-33.9,M,,*50
$GPRMC,150453.317,A,4026.6603,N,07520$PMTK001,314,3*36
$PMTK001,220,3*30
$PMTK001,185,3*3C
$GPGGA,150452.217,,,,,0,0,,,M,,M,,*4B
$GPRMC,150452.217,V,,,,,0.00,0.00,100612,,,N*4A
$GPGGA,150453.317,4026.6603,N,07520.5729,W,1,5,2.32,31.7,M,-33.9,M,,*50
$GPRMC,150453.317,A,4026.6603,N,07520$PMTK001,314,3*36
$PMTK001,220,3*30
$PMTK001,185,3*3C
$GPGGA,150452.217,,,,,0,0,,,M,,M,,*4B
$GPRMC,150452.217,V,,,,,0.00,0.00,100612,,,N*4A
$GPGGA,150453.317,4026.6603,N,07520.5729,W,1,5,2.32,31.7,M,-33.9,M,,*50
$GPRMC,150453.317,A,4026.6603,N,07520$PMTK001,314,3*36
$PMTK001,220,3*30
$PMTK001,185,3*3C
$GPGGA,150452.217,,,,,0,0,,,M,,M,,*4B
$GPRMC,150452.217,V,,,,,0.00,0.00,100612,,,N*4A
$GPGGA,150453.317,4026.6603,N,07520.5729,W,1,5,2.32,31.7,M,-33.9,M,,*50
$GPRMC,150453.317,A,4026.6603,N,07520$PMTK001,314,3*36
$PMTK001,220,3*30
$PMTK001,185,3*3C
$GPGGA,150452.217,,,,,0,0,,,M,,M,,*4B
$GPRMC,150452.217,V,,,,,0.00,0.00,100612,,,N*4A
$GPGGA,150453.317,4026.6603,N,07520.5729,W,1,5,2.32,31.7,M,-33.9,M,,*50
$GPRMC,150453.317,A,4026.6603,N,07520$PMTK001,314,3*36
$PMTK001,220,3*30
$PMTK001,185,3*3C
$GPGGA,150452.217,,,,,0,0,,,M,,M,,*4B
$GPRMC,150452.217,V,,,,,0.00,0.00,100612,,,N*4A
$GPGGA,150453.317,4026.6603,N,07520.5729,W,1,5,2.32,31.7,M,-33.9,M,,*50
$GPRMC,150453.317,A,4026.6603,N,07520$PMTK001,314,3*36
$PMTK001,220,3*30
$PMTK001,185,3*3C
$GPGGA,150452.217,,,,,0,0,,,M,,M,,*4B
$GPRMC,150452.217,V,,,,,0.00,0.00,100612,,,N*4A
$GPGGA,150453.317,4026.6603,N,07520.5729,W,1,5,2.32,31.7,M,-33.9,M,,*50
$GPRMC,150453.317,A,4026.6603,N,07520$PMTK001,314,3*36
$PMTK001,220,3*30
$PMTK001,185,3*3C
$GPGGA,150452.217,,,,,0,0,,,M,,M,,*4B
$GPRMC,150452.217,V,,,,,0.00,0.00,100612,,,N*4A
$GPGGA,150453.317,4026.6603,N,07520.5729,W,1,5,2.32,31.7,M,-33.9,M,,*50
$GPRMC,150453.317,A,4026.6603,N,07520$PMTK001,314,3*36
$PMTK001,220,3*30
$PMTK001,185,3*3C
$GPGGA,150452.217,,,,,0,0,,,M,,M,,*4B
$GPRMC,150452.217,V,,,,,0.00,0.00,100612,,,N*4A
$GPGGA,150453.317,4026.6603,N,07520.5729,W,1,5,2.32,31.7,M,-33.9,M,,*50
$GPRMC,150453.317,A,4026.6603,N,07520$PMTK001,314,3*36
$PMTK001,220,3*30
$PMTK001,185,3*3C
$GPGGA,150452.217,,,,,0,0,,,M,,M,,*4B
$GPRMC,150452.217,V,,,,,0.00,0.00,100612,,,N*4A
$GPGGA,150453.317,4026.6603,N,07520.5729,W,1,5,2.32,31.7,M,-33.9,M,,*50
$GPRMC,150453.317,A,4026.6603,N,07520$PMTK001,314,3*36
$PMTK001,220,3*30
$PMTK001,185,3*3C
$GPGGA,150452.217,,,,,0,0,,,M,,M,,*4B
$GPRMC,150452.217,V,,,,,0.00,0.00,100612,,,N*4A
$GPGGA,150453.317,4026.6603,N,07520.5729,W,1,5,2.32,31.7,M,-33.9,M,,*50
$GPRMC,150453.317,A,4026.6603,N,07520$PMTK001,314,3*36
$PMTK001,220,3*30
$PMTK001,185,3*3C
$GPGGA,150452.217,,,,,0,0,,,M,,M,,*4B
$GPRMC,150452.217,V,,,,,0.00,0.00,100612,,,N*4A
$GPGGA,150453.317,4026.6603,N,07520.5729,W,1,5,2.32,31.7,M,-33.9,M,,*50
$GPRMC,150453.317,A,4026.6603,N,07520$PMTK001,314,3*36
$PMTK001,220,3*30
$PMTK001,185,3*3C
$GPGGA,150452.217,,,,,0,0,,,M,,M,,*4B
$GPRMC,150452.217,V,,,,,0.00,0.00,100612,,,N*4A
$GPGGA,150453.317,4026.6603,N,07520.5729,W,1,5,2.32,31.7,M,-33.9,M,,*50
$GPRMC,150453.317,A,4026.6603,N,07520$PMTK001,314,3*36
$PMTK001,220,3*30
$PMTK001,185,3*3C
$GPGGA,150452.217,,,,,0,0,,,M,,M,,*4B
$GPRMC,150452.217,V,,,,,0.00,0.00,100612,,,N*4A
$GPGGA,150453.317,4026.6603,N,07520.5729,W,1,5,2.32,31.7,M,-33.9,M,,*50
$GPRMC,150453.317,A,4026.6603,N,07520$PMTK001,314,3*36
$PMTK001,220,3*30
$PMTK001,185,3*3C
$GPGGA,150452.217,,,,,0,0,,,M,,M,,*4B
$GPRMC,150452.217,V,,,,,0.00,0.00,100612,,,N*4A
$GPGGA,150453.317,4026.6603,N,07520.5729,W,1,5,2.32,31.7,M,-33.9,M,,*50
$GPRMC,150453.317,A,4026.6603,N,07520$PMTK001,314,3*36
$PMTK001,220,3*30
$PMTK001,185,3*3C
$GPGGA,150452.217,,,,,0,0,,,M,,M,,*4B
$GPRMC,150452.217,V,,,,,0.00,0.00,100612,,,N*4A
$GPGGA,150453.317,4026.6603,N,07520.5729,W,1,5,2.32,31.7,M,-33.9,M,,*50
$GPRMC,150453.317,A,4026.6603,N,07520$PMTK001,314,3*36
$PMTK001,220,3*30
$PMTK001,185,3*3C
$GPGGA,150452.217,,,,,0,0,,,M,,M,,*4B
$GPRMC,150452.217,V,,,,,0.00,0.00,100612,,,N*4A
$GPGGA,150453.317,4026.6603,N,07520.5729,W,1,5,2.32,31.7,M,-33.9,M,,*50
$GPRMC,150453.317,A,4026.6603,N,07520$PMTK001,314,3*36
$PMTK001,220,3*30
$PMTK001,185,3*3C
$GPGGA,150452.217,,,,,0,0,,,M,,M,,*4B
$GPRMC,150452.217,V,,,,,0.00,0.00,100612,,,N*4A
$GPGGA,150453.317,4026.6603,N,07520.5729,W,1,5,2.32,31.7,M,-33.9,M,,*50
$GPRMC,150453.317,A,4026.6603,N,07520$PMTK001,314,3*36
$PMTK001,220,3*30
$PMTK001,185,3*3C
$GPGGA,150452.217,,,,,0,0,,,M,,M,,*4B
$GPRMC,150452.217,V,,,,,0.00,0.00,100612,,,N*4A
$GPGGA,150453.317,4026.6603,N,07520.5729,W,1,5,2.32,31.7,M,-33.9,M,,*50
$GPRMC,150453.317,A,4026.6603,N,07520$PMTK001,314,3*36
$PMTK001,220,3*30
$PMTK001,185,3*3C
$GPGGA,150452.217,,,,,0,0,,,M,,M,,*4B
$GPRMC,150452.217,V,,,,,0.00,0.00,100612,,,N*4A
$GPGGA,150453.317,4026.6603,N,07520.5729,W,1,5,2.32,31.7,M,-33.9,M,,*50
$GPRMC,150453.317,A,4026.6603,N,07520$PMTK001,314,3*36
$PMTK001,220,3*30
$PMTK001,185,3*3C
$GPGGA,150452.217,,,,,0,0,,,M,,M,,*4B
$GPRMC,150452.217,V,,,,,0.00,0.00,100612,,,N*4A
$GPGGA,150453.317,4026.6603,N,07520.5729,W,1,5,2.32,31.7,M,-33.9,M,,*50
$GPRMC,150453.317,A,4026.6603,N,07520$PMTK001,314,3*36
$PMTK001,220,3*30
$PMTK001,185,3*3C
$GPGGA,150452.217,,,,,0,0,,,M,,M,,*4B
$GPRMC,150452.217,V,,,,,0.00,0.00,100612,,,N*4A
$GPGGA,150453.317,4026.6603,N,07520.5729,W,1,5,2.32,31.7,M,-33.9,M,,*50
$GPRMC,150453.317,A,4026.6603,N,07520$PMTK001,314,3*36
$PMTK001,220,3*30
$PMTK001,185,3*3C
$GPGGA,150452.217,,,,,0,0,,,M,,M,,*4B
$GPRMC,150452.217,V,,,,,0.00,0.00,100612,,,N*4A
$GPGGA,150453.317,4026.6603,N,07520.5729,W,1,5,2.32,31.7,M,-33.9,M,,*50
$GPRMC,150453.317,A,4026.6603,N,07520$PMTK001,314,3*36
$PMTK001,220,3*30
$PMTK001,185,3*3C
$GPGGA,150452.217,,,,,0,0,,,M,,M,,*4B
$GPRMC,150452.217,V,,,,,0.00,0.00,100612,,,N*4A
$GPGGA,150453.317,4026.6603,N,07520.5729,W,1,5,2.32,31.7,M,-33.9,M,,*50
$GPRMC,150453.317,A,4026.6603,N,07520$PMTK001,314,3*36
$PMTK001,220,3*30
$PMTK001,185,3*3C
$GPGGA,150452.217,,,,,0,0,,,M,,M,,*4B
$GPRMC,150452.217,V,,,,,0.00,0.00,100612,,,N*4A
$GPGGA,150453.317,4026.6603,N,07520.5729,W,1,5,2.32,31.7,M,-33.9,M,,*50
$GPRMC,150453.317,A,4026.6603,N,07520$PMTK001,314,3*36
$PMTK001,220,3*30
$PMTK001,185,3*3C
$GPGGA,150452.217,,,,,0,0,,,M,,M,,*4B
$GPRMC,150452.217,V,,,,,0.00,0.00,100612,,,N*4A
$GPGGA,150453.317,4026.6603,N,07520.5729,W,1,5,2.32,31.7,M,-33.9,M,,*50
$GPRMC,150453.317,A,4026.6603,N,07520$PMTK001,314,3*36
$PMTK001,220,3*30
$PMTK001,185,3*3C
$GPGGA,150452.217,,,,,0,0,,,M,,M,,*4B
$GPRMC,150452.217,V,,,,,0.00,0.00,100612,,,N*4A
$GPGGA,150453.317,4026.6603,N,07520.5729,W,1,5,2.32,31.7,M,-33.9,M,,*50
$GPRMC,150453.317,A,4026.6603,N,07520$PMTK001,314,3*36
$PMTK001,220,3*30
$PMTK001,185,3*3C
$GPGGA,150452.217,,,,,0,0,,,M,,M,,*4B
$GPRMC,150452.217,V,,,,,0.00,0.00,100612,,,N*4A
$GPGGA,150453.317,4026.6603,N,07520.5729,W,1,5,2.32,31.7,M,-33.9,M,,*50
$GPRMC,150453.317,A,4026.6603,N,07520$PMTK001,314,3*36
$PMTK001,220,3*30
$PMTK001,185,3*3C
$GPGGA,150452.217,,,,,0,0,,,M,,M,,*4B
$GPRMC,150452.217,V,,,,,0.00,0.00,100612,,,N*4A
$GPGGA,150453.317,4026.6603,N,07520.5729,W,1,5,2.32,31.7,M,-33.9,M,,*50
$GPRMC,150453.317,A,4026.6603,N,07520$PMTK001,314,3*36
$PMTK001,220,3*30
$PMTK001,185,3*3C
$GPGGA,150452.217,,,,,0,0,,,M,,M,,*4B
$GPRMC,150452.217,V,,,,,0.00,0.00,100612,,,N*4A
$GPGGA,150453.317,4026.6603,N,07520.5729,W,1,5,2.32,31.7,M,-33.9,M,,*50
$GPRMC,150453.317,A,4026.6603,N,07520$PMTK001,314,3*36
$PMTK001,220,3*30
$PMTK001,185,3*3C
$GPGGA,150452.217,,,,,0,0,,,M,,M,,*4B
$GPRMC,150452.217,V,,,,,0.00,0.00,100612,,,N*4A
$GPGGA,150453.317,4026.6603,N,07520.5729,W,1,5,2.32,31.7,M,-33.9,M,,*50
$GPRMC,150453.317,A,4026.6603,N,07520$PMTK001,314,3*36
$PMTK001,220,3*30
$PMTK001,185,3*3C
$GPGGA,150452.217,,,,,0,0,,,M,,M,,*4B
$GPRMC,150452.217,V,,,,,0.00,0.00,100612,,,N*4A
$GPGGA,150453.317,4026.6603,N,07520.5729,W,1,5,2.32,31.7,M,-33.9,M,,*50
$GPRMC,150453.317,A,4026.6603,N,07520$PMTK001,314,3*36
$PMTK001,220,3*30
$PMTK001,185,3*3C
$GPGGA,150452.217,,,,,0,0,,,M,,M,,*4B
$GPRMC,150452.217,V,,,,,0.00,0.00,100612,,,N*4A
$GPGGA,150453.317,4026.6603,N,07520.5729,W,1,5,2.32,31.7,M,-33.9,M,,*50
$GPRMC,150453.317,A,4026.6603,N,07520$PMTK001,314,3*36
$PMTK001,220,3*30
$PMTK001,185,3*3C
$GPGGA,150452.217,,,,,0,0,,,M,,M,,*4B
$GPRMC,150452.217,V,,,,,0.00,0.00,100612,,,N*4A
$GPGGA,150453.317,4026.6603,N,07520.5729,W,1,5,2.32,31.7,M,-33.9,M,,*50
$GPRMC,150453.317,A,4026.6603,N,07520$PMTK001,314,3*36
$PMTK001,220,3*30
$PMTK001,185,3*3C
$GPGGA,150452.217,,,,,0,0,,,M,,M,,*4B
$GPRMC,150452.217,V,,,,,0.00,0.00,100612,,,N*4A
$GPGGA,150453.317,4026.6603,N,07520.5729,W,1,5,2.32,31.7,M,-33.9,M,,*50
$GPRMC,150453.317,A,4026.6603,N,07520$PMTK001,314,3*36
$PMTK001,220,3*30
$PMTK001,185,3*3C
$GPGGA,150452.217,,,,,0,0,,,M,,M,,*4B
$GPRMC,150452.217,V,,,,,0.00,0.00,100612,,,N*4A
$GPGGA,150453.317,4026.6603,N,07520.5729,W,1,5,2.32,31.7,M,-33.9,M,,*50
$GPRMC,150453.317,A,4026.6603,N,07520$PMTK001,314,3*36
$PMTK001,220,3*30
$PMTK001,185,3*3C
$GPGGA,150452.217,,,,,0,0,,,M,,M,,*4B
$GPRMC,150452.217,V,,,,,0.00,0.00,100612,,,N*4A
$GPGGA,150453.317,4026.6603,N,07520.5729,W,1,5,2.32,31.7,M,-33.9,M,,*50
$GPRMC,150453.317,A,4026.6603,N,07520$PMTK001,314,3*36
$PMTK001,220,3*30
$PMTK001,185,3*3C
$GPGGA,150452.217,,,,,0,0,,,M,,M,,*4B
$GPRMC,150452.217,V,,,,,0.00,0.00,100612,,,N*4A
$GPGGA,150453.317,4026.6603,N,07520.5729,W,1,5,2.32,31.7,M,-33.9,M,,*50
$GPRMC,150453.317,A,4026.6603,N,07520$PMTK001,314,3*36
$PMTK001,220,3*30
$PMTK001,185,3*3C
$GPGGA,150452.217,,,,,0,0,,,M,,M,,*4B
$GPRMC,150452.217,V,,,,,0.00,0.00,100612,,,N*4A
$GPGGA,150453.317,4026.6603,N,07520.5729,W,1,5,2.32,31.7,M,-33.9,M,,*50
$GPRMC,150453.317,A,4026.6603,N,07520$PMTK001,314,3*36
$PMTK001,220,3*30
$PMTK001,185,3*3C
$GPGGA,150452.217,,,,,0,0,,,M,,M,,*4B
$GPRMC,150452.217,V,,,,,0.00,0.00,100612,,,N*4A
$GPGGA,150453.317,4026.6603,N,07520.5729,W,1,5,2.32,31.7,M,-33.9,M,,*50
$GPRMC,150453.317,A,4026.6603,N,07520$PMTK001,314,3*36
$PMTK001,220,3*30
$PMTK001,185,3*3C
$GPGGA,150452.217,,,,,0,0,,,M,,M,,*4B
$GPRMC,150452.217,V,,,,,0.00,0.00,100612,,,N*4A
$GPGGA,150453.317,4026.6603,N,07520.5729,W,1,5,2.32,31.7,M,-33.9,M,,*50
$GPRMC,150453.317,A,4026.6603,N,07520$PMTK001,314,3*36
$PMTK001,220,3*30
$PMTK001,185,3*3C
$GPGGA,150452.217,,,,,0,0,,,M,,M,,*4B
$GPRMC,150452.217,V,,,,,0.00,0.00,100612,,,N*4A
$GPGGA,150453.317,4026.6603,N,07520.5729,W,1,5,2.32,31.7,M,-33.9,M,,*50
$GPRMC,150453.317,A,4026.6603,N,07520$PMTK001,314,3*36
$PMTK001,220,3*30
$PMTK001,185,3*3C
$GPGGA,150452.217,,,,,0,0,,,M,,M,,*4B
$GPRMC,150452.217,V,,,,,0.00,0.00,100612,,,N*4A
$GPGGA,150453.317,4026.6603,N,07520.5729,W,1,5,2.32,31.7,M,-33.9,M,,*50
$GPRMC,150453.317,A,4026.6603,N,07520$PMTK001,314,3*36
$PMTK001,220,3*30
$PMTK001,185,3*3C
$GPGGA,150452.217,,,,,0,0,,,M,,M,,*4B
$GPRMC,150452.217,V,,,,,0.00,0.00,100612,,,N*4A
$GPGGA,150453.317,4026.6603,N,07520.5729,W,1,5,2.32,31.7,M,-33.9,M,,*50
$GPRMC,150453.317,A,4026.6603,N,07520$PMTK001,314,3*36
$PMTK001,220,3*30
$PMTK001,185,3*3C
$GPGGA,150452.217,,,,,0,0,,,M,,M,,*4B
$GPRMC,150452.217,V,,,,,0.00,0.00,100612,,,N*4A
$GPGGA,150453.317,4026.6603,N,07520.5729,W,1,5,2.32,31.7,M,-33.9,M,,*50
$GPRMC,150453.317,A,4026.6603,N,07520$PMTK001,314,3*36
$PMTK001,220,3*30
$PMTK001,185,3*3C
$GPGGA,150452.217,,,,,0,0,,,M,,M,,*4B
$GPRMC,150452.217,V,,,,,0.00,0.00,100612,,,N*4A
$GPGGA,150453.317,4026.6603,N,07520.5729,W,1,5,2.32,31.7,M,-33.9,M,,*50
$GPRMC,150453.317,A,4026.6603,N,07520$PMTK001,314,3*36
$PMTK001,220,3*30
$PMTK001,185,3*3C
$GPGGA,150452.217,,,,,0,0,,,M,,M,,*4B
$GPRMC,150452.217,V,,,,,0.00,0.00,100612,,,N*4A
$GPGGA,150453.317,4026.6603,N,07520.5729,W,1,5,2.32,31.7,M,-33.9,M,,*50
$GPRMC,150453.317,A,4026.6603,N,07520$PMTK001,314,3*36
$PMTK001,220,3*30
$PMTK001,185,3*3C
$GPGGA,150452.217,,,,,0,0,,,M,,M,,*4B
$GPRMC,150452.217,V,,,,,0.00,0.00,100612,,,N*4A
$GPGGA,150453.317,4026.6603,N,07520.5729,W,1,5,2.32,31.7,M,-33.9,M,,*50
$GPRMC,150453.317,A,4026.6603,N,07520$PMTK001,314,3*36
$PMTK001,220,3*30
$PMTK001,185,3*3C
$GPGGA,150452.217,,,,,0,0,,,M,,M,,*4B
$GPRMC,150452.217,V,,,,,0.00,0.00,100612,,,N*4A
$GPGGA,150453.317,4026.6603,N,07520.5729,W,1,5,2.32,31.7,M,-33.9,M,,*50
$GPRMC,150453.317,A,4026.6603,N,07520$PMTK001,314,3*36
$PMTK001,220,3*30
$PMTK001,185,3*3C
$GPGGA,150452.217,,,,,0,0,,,M,,M,,*4B
$GPRMC,150452.217,V,,,,,0.00,0.00,100612,,,N*4A
$GPGGA,150453.317,4026.6603,N,07520.5729,W,1,5,2.32,31.7,M,-33.9,M,,*50
$GPRMC,150453.317,A,4026.6603,N,07520$PMTK001,314,3*36
$PMTK001,220,3*30
$PMTK001,185,3*3C
$GPGGA,150452.217,,,,,0,0,,,M,,M,,*4B
$GPRMC,150452.217,V,,,,,0.00,0.00,100612,,,N*4A
$GPGGA,150453.317,4026.6603,N,07520.5729,W,1,5,2.32,31.7,M,-33.9,M,,*50
$GPRMC,150453.317,A,4026.6603,N,07520$PMTK001,314,3*36
$PMTK001,220,3*30
$PMTK001,185,3*3C
$GPGGA,150452.217,,,,,0,0,,,M,,M,,*4B
$GPRMC,150452.217,V,,,,,0.00,0.00,100612,,,N*4A
$GPGGA,150453.317,4026.6603,N,07520.5729,W,1,5,2.32,31.7,M,-33.9,M,,*50
$GPRMC,150453.317,A,4026.6603,N,07520$PMTK001,314,3*36
$PMTK001,220,3*30
$PMTK001,185,3*3C
$GPGGA,150452.217,,,,,0,0,,,M,,M,,*4B
$GPRMC,150452.217,V,,,,,0.00,0.00,100612,,,N*4A
$GPGGA,150453.317,4026.6603,N,07520.5729,W,1,5,2.32,31.7,M,-33.9,M,,*50
$GPRMC,150453.317,A,4026.6603,N,07520