$PMTK001,314,3*36
$PMTK001,220,3*30
$PMTK001,185,3*3C
$GPGGA,025506.000,4002.2686,N,07503.6167,W,1,6,1.16,39.4,M,-34.0,M,,*55
$GPRMC,025506.000,A,4002.2686,N,07503.6167,W,0.06,0.00,100612,,,A*71
$GPGGA,025507.000,4002.2685,N,07503.6164,W,1,6,1.16,40.$PMTK001,314,3*36
$PMTK001,220,3*30
$PMTK001,185,3*3C
$GPGGA,025506.000,4002.2686,N,07503.6167,W,1,6,1.16,39.4,M,-34.0,M,,*55
$GPRMC,025506.000,A,4002.2686,N,07503.6167,W,0.06,0.00,100612,,,A*71
$GPGGA,025507.000,4002.2685,N,07503.6164,W,1,6,1.16,40.$PMTK001,314,3*36
$PMTK001,220,3*30
$PMTK001,185,3*3C
$GPGGA,025506.000,4002.2686,N,07503.6167,W,1,6,1.16,39.4,M,-34.0,M,,*55
$GPRMC,025506.000,A,4002.2686,N,07503.6167,W,0.06,0.00,100612,,,A*71
$GPGGA,025507.000,4002.2685,N,07503.6164,W,1,6,1.16,40.$PMTK001,314,3*36
$PMTK001,220,3*30
$PMTK001,185,3*3C
$GPGGA,025506.000,4002.2686,N,07503.6167,W,1,6,1.16,39.4,M,-34.0,M,,*55
$GPRMC,025506.000,A,4002.2686,N,07503.6167,W,0.06,0.00,100612,,,A*71
$GPGGA,025507.000,4002.2685,N,07503.6164,W,1,6,1.16,40.$PMTK001,314,3*36
$PMTK001,220,3*30
$PMTK001,185,3*3C
$GPGGA,025506.000,4002.2686,N,07503.6167,W,1,6,1.16,39.4,M,-34.0,M,,*55
$GPRMC,025506.000,A,4002.2686,N,07503.6167,W,0.06,0.00,100612,,,A*71
$GPGGA,025507.000,4002.2685,N,07503.6164,W,1,6,1.16,40.$PMTK001,314,3*36
$PMTK001,220,3*30
$PMTK001,185,3*3C
$GPGGA,025506.000,4002.2686,N,07503.6167,W,1,6,1.16,39.4,M,-34.0,M,,*55
$GPRMC,025506.000,A,4002.2686,N,07503.6167,W,0.06,0.00,100612,,,A*71
$GPGGA,025507.000,4002.2685,N,07503.6164,W,1,6,1.16,40.$PMTK001,314,3*36
$PMTK001,220,3*30
$PMTK001,185,3*3C
$GPGGA,025506.000,4002.2686,N,07503.6167,W,1,6,1.16,39.4,M,-34.0,M,,*55
$GPRMC,025506.000,A,4002.2686,N,07503.6167,W,0.06,0.00,100612,,,A*71
$GPGGA,025507.000,4002.2685,N,07503.6164,W,1,6,1.16,40.$PMTK001,314,3*36
$PMTK001,220,3*30
$PMTK001,185,3*3C
$GPGGA,025506.000,4002.2686,N,07503.6167,W,1,6,1.16,39.4,M,-34.0,M,,*55
$GPRMC,025506.000,A,4002.2686,N,07503.6167,W,0.06,0.00,100612,,,A*71
$GPGGA,025507.000,4002.2685,N,07503.6164,W,1,6,1.16,40.$PMTK001,314,3*36
$PMTK001,220,3*30
$PMTK001,185,3*3C
$GPGGA,025506.000,4002.2686,N,07503.6167,W,1,6,1.16,39.4,M,-34.0,M,,*55
$GPRMC,025506.000,A,4002.2686,N,07503.6167,W,0.06,0.00,100612,,,A*71
$GPGGA,025507.000,4002.2685,N,07503.6164,W,1,6,1.16,40.$PMTK001,314,3*36
$PMTK001,220,3*30
$PMTK001,185,3*3C
$GPGGA,025506.000,4002.2686,N,07503.6167,W,1,6,1.16,39.4,M,-34.0,M,,*55
$GPRMC,025506.000,A,4002.2686,N,07503.6167,W,0.06,0.00,100612,,,A*71
$GPGGA,025507.000,4002.2685,N,07503.6164,W,1,6,1.16,40.$PMTK001,314,3*36
$PMTK001,220,3*30
$PMTK001,185,3*3C
$GPGGA,025506.000,4002.2686,N,07503.6167,W,1,6,1.16,39.4,M,-34.0,M,,*55
$GPRMC,025506.000,A,4002.2686,N,07503.6167,W,0.06,0.00,100612,,,A*71
$GPGGA,025507.000,4002.2685,N,07503.6164,W,1,6,1.16,40.$PMTK001,314,3*36
$PMTK001,220,3*30
$PMTK001,185,3*3C
$GPGGA,025506.000,4002.2686,N,07503.6167,W,1,6,1.16,39.4,M,-34.0,M,,*55
$GPRMC,025506.000,A,4002.2686,N,07503.6167,W,0.06,0.00,100612,,,A*71
$GPGGA,025507.000,4002.2685,N,07503.6164,W,1,6,1.16,40.$PMTK001,314,3*36
$PMTK001,220,3*30
$PMTK001,185,3*3C
$GPGGA,025506.000,4002.2686,N,07503.6167,W,1,6,1.16,39.4,M,-34.0,M,,*55
$GPRMC,025506.000,A,4002.2686,N,07503.6167,W,0.06,0.00,100612,,,A*71
$GPGGA,025507.000,4002.2685,N,07503.6164,W,1,6,1.16,40.$PMTK001,314,3*36
$PMTK001,220,3*30
$PMTK001,185,3*3C
$GPGGA,025506.000,4002.2686,N,07503.6167,W,1,6,1.16,39.4,M,-34.0,M,,*55
$GPRMC,025506.000,A,4002.2686,N,07503.6167,W,0.06,0.00,100612,,,A*71
$GPGGA,025507.000,4002.2685,N,07503.6164,W,1,6,1.16,40.$PMTK001,314,3*36
$PMTK001,220,3*30
$PMTK001,185,3*3C
$GPGGA,025506.000,4002.2686,N,07503.6167,W,1,6,1.16,39.4,M,-34.0,M,,*55
$GPRMC,025506.000,A,4002.2686,N,07503.6167,W,0.06,0.00,100612,,,A*71
$GPGGA,025507.000,4002.2685,N,07503.6164,W,1,6,1.16,40.$PMTK001,314,3*36
$PMTK001,220,3*30
$PMTK001,185,3*3C
$GPGGA,025506.000,4002.2686,N,07503.6167,W,1,6,1.16,39.4,M,-34.0,M,,*55
$GPRMC,025506.000,A,4002.2686,N,07503.6167,W,0.06,0.00,100612,,,A*71
$GPGGA,025507.000,4002.2685,N,07503.6164,W,1,6,1.16,40.$PMTK001,314,3*36
$PMTK001,220,3*30
$PMTK001,185,3*3C
$GPGGA,025506.000,4002.2686,N,07503.6167,W,1,6,1.16,39.4,M,-34.0,M,,*55
$GPRMC,025506.000,A,4002.2686,N,07503.6167,W,0.06,0.00,100612,,,A*71
$GPGGA,025507.000,4002.2685,N,07503.6164,W,1,6,1.16,40.$PMTK001,314,3*36
$PMTK001,220,3*30
$PMTK001,185,3*3C
$GPGGA,025506.000,4002.2686,N,07503.6167,W,1,6,1.16,39.4,M,-34.0,M,,*55
$GPRMC,025506.000,A,4002.2686,N,07503.6167,W,0.06,0.00,100612,,,A*71
$GPGGA,025507.000,4002.2685,N,07503.6164,W,1,6,1.16,40.$PMTK001,314,3*36
$PMTK001,220,3*30
$PMTK001,185,3*3C
$GPGGA,025506.000,4002.2686,N,07503.6167,W,1,6,1.16,39.4,M,-34.0,M,,*55
$GPRMC,025506.000,A,4002.2686,N,07503.6167,W,0.06,0.00,100612,,,A*71
$GPGGA,025507.000,4002.2685,N,07503.6164,W,1,6,1.16,40.$PMTK001,314,3*36
$PMTK001,220,3*30
$PMTK001,185,3*3C
$GPGGA,025506.000,4002.2686,N,07503.6167,W,1,6,1.16,39.4,M,-34.0,M,,*55
$GPRMC,025506.000,A,4002.2686,N,07503.6167,W,0.06,0.00,100612,,,A*71
$GPGGA,025507.000,4002.2685,N,07503.6164,W,1,6,1.16,40.$PMTK001,314,3*36
$PMTK001,220,3*30
$PMTK001,185,3*3C
$GPGGA,025506.000,4002.2686,N,07503.6167,W,1,6,1.16,39.4,M,-34.0,M,,*55
$GPRMC,025506.000,A,4002.2686,N,07503.6167,W,0.06,0.00,100612,,,A*71
$GPGGA,025507.000,4002.2685,N,07503.6164,W,1,6,1.16,40.$PMTK001,314,3*36
$PMTK001,220,3*30
$PMTK001,185,3*3C
$GPGGA,025506.000,4002.2686,N,07503.6167,W,1,6,1.16,39.4,M,-34.0,M,,*55
$GPRMC,025506.000,A,4002.2686,N,07503.6167,W,0.06,0.00,100612,,,A*71
$GPGGA,025507.000,4002.2685,N,07503.6164,W,1,6,1.16,40.$PMTK001,314,3*36
$PMTK001,220,3*30
$PMTK001,185,3*3C
$GPGGA,025506.000,4002.2686,N,07503.6167,W,1,6,1.16,39.4,M,-34.0,M,,*55
$GPRMC,025506.000,A,4002.2686,N,07503.6167,W,0.06,0.00,100612,,,A*71
$GPGGA,025507.000,4002.2685,N,07503.6164,W,1,6,1.16,40.$PMTK001,314,3*36
$PMTK001,220,3*30
$PMTK001,185,3*3C
$GPGGA,025506.000,4002.2686,N,07503.6167,W,1,6,1.16,39.4,M,-34.0,M,,*55
$GPRMC,025506.000,A,4002.2686,N,07503.6167,W,0.06,0.00,100612,,,A*71
$GPGGA,025507.000,4002.2685,N,07503.6164,W,1,6,1.16,40.$PMTK001,314,3*36
$PMTK001,220,3*30
$PMTK001,185,3*3C
$GPGGA,025506.000,4002.2686,N,07503.6167,W,1,6,1.16,39.4,M,-34.0,M,,*55
$GPRMC,025506.000,A,4002.2686,N,07503.6167,W,0.06,0.00,100612,,,A*71
$GPGGA,025507.000,4002.2685,N,07503.6164,W,1,6,1.16,40.$PMTK001,314,3*36
$PMTK001,220,3*30
$PMTK001,185,3*3C
$GPGGA,025506.000,4002.2686,N,07503.6167,W,1,6,1.16,39.4,M,-34.0,M,,*55
$GPRMC,025506.000,A,4002.2686,N,07503.6167,W,0.06,0.00,100612,,,A*71
$GPGGA,025507.000,4002.2685,N,07503.6164,W,1,6,1.16,40.$PMTK001,314,3*36
$PMTK001,220,3*30
$PMTK001,185,3*3C
$GPGGA,025506.000,4002.2686,N,07503.6167,W,1,6,1.16,39.4,M,-34.0,M,,*55
$GPRMC,025506.000,A,4002.2686,N,07503.6167,W,0.06,0.00,100612,,,A*71
$GPGGA,025507.000,4002.2685,N,07503.6164,W,1,6,1.16,40.$PMTK001,314,3*36
$PMTK001,220,3*30
$PMTK001,185,3*3C
$GPGGA,025506.000,4002.2686,N,07503.6167,W,1,6,1.16,39.4,M,-34.0,M,,*55
$GPRMC,025506.000,A,4002.2686,N,07503.6167,W,0.06,0.00,100612,,,A*71
$GPGGA,025507.000,4002.2685,N,07503.6164,W,1,6,1.16,40.$PMTK001,314,3*36
$PMTK001,220,3*30
$PMTK001,185,3*3C
$GPGGA,025506.000,4002.2686,N,07503.6167,W,1,6,1.16,39.4,M,-34.0,M,,*55
$GPRMC,025506.000,A,4002.2686,N,07503.6167,W,0.06,0.00,100612,,,A*71
$GPGGA,025507.000,4002.2685,N,07503.6164,W,1,6,1.16,40.$PMTK001,314,3*36
$PMTK001,220,3*30
$PMTK001,185,3*3C
$GPGGA,025506.000,4002.2686,N,07503.6167,W,1,6,1.16,39.4,M,-34.0,M,,*55
$GPRMC,025506.000,A,4002.2686,N,07503.6167,W,0.06,0.00,100612,,,A*71
$GPGGA,025507.000,4002.2685,N,07503.6164,W,1,6,1.16,40.$PMTK001,314,3*36
$PMTK001,220,3*30
$PMTK001,185,3*3C
$GPGGA,025506.000,4002.2686,N,07503.6167,W,1,6,1.16,39.4,M,-34.0,M,,*55
$GPRMC,025506.000,A,4002.2686,N,07503.6167,W,0.06,0.00,100612,,,A*71
$GPGGA,025507.000,4002.2685,N,07503.6164,W,1,6,1.16,40.$PMTK001,314,3*36
$PMTK001,220,3*30
$PMTK001,185,3*3C
$GPGGA,025506.000,4002.2686,N,07503.6167,W,1,6,1.16,39.4,M,-34.0,M,,*55
$GPRMC,025506.000,A,4002.2686,N,07503.6167,W,0.06,0.00,100612,,,A*71
$GPGGA,025507.000,4002.2685,N,07503.6164,W,1,6,1.16,40.$PMTK001,314,3*36
$PMTK001,220,3*30
$PMTK001,185,3*3C
$GPGGA,025506.000,4002.2686,N,07503.6167,W,1,6,1.16,39.4,M,-34.0,M,,*55
$GPRMC,025506.000,A,4002.2686,N,07503.6167,W,0.06,0.00,100612,,,A*71
$GPGGA,025507.000,4002.2685,N,07503.6164,W,1,6,1.16,40.$PMTK001,314,3*36
$PMTK001,220,3*30
$PMTK001,185,3*3C
$GPGGA,025506.000,4002.2686,N,07503.6167,W,1,6,1.16,39.4,M,-34.0,M,,*55
$GPRMC,025506.000,A,4002.2686,N,07503.6167,W,0.06,0.00,100612,,,A*71
$GPGGA,025507.000,4002.2685,N,07503.6164,W,1,6,1.16,40.$PMTK001,314,3*36
$PMTK001,220,3*30
$PMTK001,185,3*3C
$GPGGA,025506.000,4002.2686,N,07503.6167,W,1,6,1.16,39.4,M,-34.0,M,,*55
$GPRMC,025506.000,A,4002.2686,N,07503.6167,W,0.06,0.00,100612,,,A*71
$GPGGA,025507.000,4002.2685,N,07503.6164,W,1,6,1.16,40.$PMTK001,314,3*36
$PMTK001,220,3*30
$PMTK001,185,3*3C
$GPGGA,025506.000,4002.2686,N,07503.6167,W,1,6,1.16,39.4,M,-34.0,M,,*55
$GPRMC,025506.000,A,4002.2686,N,07503.6167,W,0.06,0.00,100612,,,A*71
$GPGGA,025507.000,4002.2685,N,07503.6164,W,1,6,1.16,40.$PMTK001,314,3*36
$PMTK001,220,3*30
$PMTK001,185,3*3C
$GPGGA,025506.000,4002.2686,N,07503.6167,W,1,6,1.16,39.4,M,-34.0,M,,*55
$GPRMC,025506.000,A,4002.2686,N,07503.6167,W,0.06,0.00,100612,,,A*71
$GPGGA,025507.000,4002.2685,N,07503.6164,W,1,6,1.16,40.$PMTK001,314,3*36
$PMTK001,220,3*30
$PMTK001,185,3*3C
$GPGGA,025506.000,4002.2686,N,07503.6167,W,1,6,1.16,39.4,M,-34.0,M,,*55
$GPRMC,025506.000,A,4002.2686,N,07503.6167,W,0.06,0.00,100612,,,A*71
$GPGGA,025507.000,4002.2685,N,07503.6164,W,1,6,1.16,40.$PMTK001,314,3*36
$PMTK001,220,3*30
$PMTK001,185,3*3C
$GPGGA,025506.000,4002.2686,N,07503.6167,W,1,6,1.16,39.4,M,-34.0,M,,*55
$GPRMC,025506.000,A,4002.2686,N,07503.6167,W,0.06,0.00,100612,,,A*71
$GPGGA,025507.000,4002.2685,N,07503.6164,W,1,6,1.16,40.$PMTK001,314,3*36
$PMTK001,220,3*30
$PMTK001,185,3*3C
$GPGGA,025506.000,4002.2686,N,07503.6167,W,1,6,1.16,39.4,M,-34.0,M,,*55
$GPRMC,025506.000,A,4002.2686,N,07503.6167,W,0.06,0.00,100612,,,A*71
$GPGGA,025507.000,4002.2685,N,07503.6164,W,1,6,1.16,40.$PMTK001,314,3*36
$PMTK001,220,3*30
$PMTK001,185,3*3C
$GPGGA,025506.000,4002.2686,N,07503.6167,W,1,6,1.16,39.4,M,-34.0,M,,*55
$GPRMC,025506.000,A,4002.2686,N,07503.6167,W,0.06,0.00,100612,,,A*71
$GPGGA,025507.000,4002.2685,N,07503.6164,W,1,6,1.16,40.$PMTK001,314,3*36
$PMTK001,220,3*30
$PMTK001,185,3*3C
$GPGGA,025506.000,4002.2686,N,07503.6167,W,1,6,1.16,39.4,M,-34.0,M,,*55
$GPRMC,025506.000,A,4002.2686,N,07503.6167,W,0.06,0.00,100612,,,A*71
$GPGGA,025507.000,4002.2685,N,07503.6164,W,1,6,1.16,40.$PMTK001,314,3*36
$PMTK001,220,3*30
$PMTK001,185,3*3C
$GPGGA,025506.000,4002.2686,N,07503.6167,W,1,6,1.16,39.4,M,-34.0,M,,*55
$GPRMC,025506.000,A,4002.2686,N,07503.6167,W,0.06,0.00,100612,,,A*71
$GPGGA,025507.000,4002.2685,N,07503.6164,W,1,6,1.16,40.$PMTK001,314,3*36
$PMTK001,220,3*30
$PMTK001,185,3*3C
$GPGGA,025506.000,4002.2686,N,07503.6167,W,1,6,1.16,39.4,M,-34.0,M,,*55
$GPRMC,025506.000,A,4002.2686,N,07503.6167,W,0.06,0.00,100612,,,A*71
$GPGGA,025507.000,4002.2685,N,07503.6164,W,1,6,1.16,40.$PMTK001,314,3*36
$PMTK001,220,3*30
$PMTK001,185,3*3C
$GPGGA,025506.000,4002.2686,N,07503.6167,W,1,6,1.16,39.4,M,-34.0,M,,*55
$GPRMC,025506.000,A,4002.2686,N,07503.6167,W,0.06,0.00,100612,,,A*71
$GPGGA,025507.000,4002.2685,N,07503.6164,W,1,6,1.16,40.$PMTK001,314,3*36
$PMTK001,220,3*30
$PMTK001,185,3*3C
$GPGGA,025506.000,4002.2686,N,07503.6167,W,1,6,1.16,39.4,M,-34.0,M,,*55
$GPRMC,025506.000,A,4002.2686,N,07503.6167,W,0.06,0.00,100612,,,A*71
$GPGGA,025507.000,4002.2685,N,07503.6164,W,1,6,1.16,40.$PMTK001,314,3*36
$PMTK001,220,3*30
$PMTK001,185,3*3C
$GPGGA,025506.000,4002.2686,N,07503.6167,W,1,6,1.16,39.4,M,-34.0,M,,*55
$GPRMC,025506.000,A,4002.2686,N,07503.6167,W,0.06,0.00,100612,,,A*71
$GPGGA,025507.000,4002.2685,N,07503.6164,W,1,6,1.16,40.$PMTK001,314,3*36
$PMTK001,220,3*30
$PMTK001,185,3*3C
$GPGGA,025506.000,4002.2686,N,07503.6167,W,1,6,1.16,39.4,M,-34.0,M,,*55
$GPRMC,025506.000,A,4002.2686,N,07503.6167,W,0.06,0.00,100612,,,A*71
$GPGGA,025507.000,4002.2685,N,07503.6164,W,1,6,1.16,40.$PMTK001,314,3*36
$PMTK001,220,3*30
$PMTK001,185,3*3C
$GPGGA,025506.000,4002.2686,N,07503.6167,W,1,6,1.16,39.4,M,-34.0,M,,*55
$GPRMC,025506.000,A,4002.2686,N,07503.6167,W,0.06,0.00,100612,,,A*71
$GPGGA,025507.000,4002.2685,N,07503.6164,W,1,6,1.16,40.$PMTK001,314,3*36
$PMTK001,220,3*30
$PMTK001,185,3*3C
$GPGGA,025506.000,4002.2686,N,07503.6167,W,1,6,1.16,39.4,M,-34.0,M,,*55
$GPRMC,025506.000,A,4002.2686,N,07503.6167,W,0.06,0.00,100612,,,A*71
$GPGGA,025507.000,4002.2685,N,07503.6164,W,1,6,1.16,40.$PMTK001,314,3*36
$PMTK001,220,3*30
$PMTK001,185,3*3C
$GPGGA,025506.000,4002.2686,N,07503.6167,W,1,6,1.16,39.4,M,-34.0,M,,*55
$GPRMC,025506.000,A,4002.2686,N,07503.6167,W,0.06,0.00,100612,,,A*71
$GPGGA,025507.000,4002.2685,N,07503.6164,W,1,6,1.16,40.$PMTK001,314,3*36
$PMTK001,220,3*30
$PMTK001,185,3*3C
$GPGGA,025506.000,4002.2686,N,07503.6167,W,1,6,1.16,39.4,M,-34.0,M,,*55
$GPRMC,025506.000,A,4002.2686,N,07503.6167,W,0.06,0.00,100612,,,A*71
$GPGGA,025507.000,4002.2685,N,07503.6164,W,1,6,1.16,40.$PMTK001,314,3*36
$PMTK001,220,3*30
$PMTK001,185,3*3C
$GPGGA,025506.000,4002.2686,N,07503.6167,W,1,6,1.16,39.4,M,-34.0,M,,*55
$GPRMC,025506.000,A,4002.2686,N,07503.6167,W,0.06,0.00,100612,,,A*71
$GPGGA,025507.000,4002.2685,N,07503.6164,W,1,6,1.16,40.$PMTK001,314,3*36
$PMTK001,220,3*30
$PMTK001,185,3*3C
$GPGGA,025506.000,4002.2686,N,07503.6167,W,1,6,1.16,39.4,M,-34.0,M,,*55
$GPRMC,025506.000,A,4002.2686,N,07503.6167,W,0.06,0.00,100612,,,A*71
$GPGGA,025507.000,4002.2685,N,07503.6164,W,1,6,1.16,40.$PMTK001,314,3*36
$PMTK001,220,3*30
$PMTK001,185,3*3C
$GPGGA,025506.000,4002.2686,N,07503.6167,W,1,6,1.16,39.4,M,-34.0,M,,*55
$GPRMC,025506.000,A,4002.2686,N,07503.6167,W,0.06,0.00,100612,,,A*71
$GPGGA,025507.000,4002.2685,N,07503.6164,W,1,6,1.16,40.$PMTK001,314,3*36
$PMTK001,220,3*30
$PMTK001,185,3*3C
$GPGGA,025506.000,4002.2686,N,07503.6167,W,1,6,1.16,39.4,M,-34.0,M,,*55
$GPRMC,025506.000,A,4002.2686,N,07503.6167,W,0.06,0.00,100612,,,A*71
$GPGGA,025507.000,4002.2685,N,07503.6164,W,1,6,1.16,40.$PMTK001,314,3*36
$PMTK001,220,3*30
$PMTK001,185,3*3C
$GPGGA,025506.000,4002.2686,N,07503.6167,W,1,6,1.16,39.4,M,-34.0,M,,*55
$GPRMC,025506.000,A,4002.2686,N,07503.6167,W,0.06,0.00,100612,,,A*71
$GPGGA,025507.000,4002.2685,N,07503.6164,W,1,6,1.16,40.$PMTK001,314,3*36
$PMTK001,220,3*30
$PMTK001,185,3*3C
$GPGGA,025506.000,4002.2686,N,07503.6167,W,1,6,1.16,39.4,M,-34.0,M,,*55
$GPRMC,025506.000,A,4002.2686,N,07503.6167,W,0.06,0.00,100612,,,A*71
$GPGGA,025507.000,4002.2685,N,07503.6164,W,1,6,1.16,40.