$PMTK001,314,3*36
$PMTK001,220,3*30
$PMTK001,185,3*3C
$GPGGA,025906.000,4002.2682,N,07503.6138,W,2,9,0.88,38.8,M,-34.0,M,0000,0000*50
$GPRMC,025906.000,A,4002.2682,N,07503.6138,W,0.05,0.00,100612,,,D*75
$GPGGA,025907.000,4002.2682,N,07503.6138,W,2,9,$PMTK001,314,3*36
$PMTK001,220,3*30
$PMTK001,185,3*3C
$GPGGA,025906.000,4002.2682,N,07503.6138,W,2,9,0.88,38.8,M,-34.0,M,0000,0000*50
$GPRMC,025906.000,A,4002.2682,N,07503.6138,W,0.05,0.00,100612,,,D*75
$GPGGA,025907.000,4002.2682,N,07503.6138,W,2,9,$PMTK001,314,3*36
$PMTK001,220,3*30
$PMTK001,185,3*3C
$GPGGA,025906.000,4002.2682,N,07503.6138,W,2,9,0.88,38.8,M,-34.0,M,0000,0000*50
$GPRMC,025906.000,A,4002.2682,N,07503.6138,W,0.05,0.00,100612,,,D*75
$GPGGA,025907.000,4002.2682,N,07503.6138,W,2,9,$PMTK001,314,3*36
$PMTK001,220,3*30
$PMTK001,185,3*3C
$GPGGA,025906.000,4002.2682,N,07503.6138,W,2,9,0.88,38.8,M,-34.0,M,0000,0000*50
$GPRMC,025906.000,A,4002.2682,N,07503.6138,W,0.05,0.00,100612,,,D*75
$GPGGA,025907.000,4002.2682,N,07503.6138,W,2,9,$PMTK001,314,3*36
$PMTK001,220,3*30
$PMTK001,185,3*3C
$GPGGA,025906.000,4002.2682,N,07503.6138,W,2,9,0.88,38.8,M,-34.0,M,0000,0000*50
$GPRMC,025906.000,A,4002.2682,N,07503.6138,W,0.05,0.00,100612,,,D*75
$GPGGA,025907.000,4002.2682,N,07503.6138,W,2,9,$PMTK001,314,3*36
$PMTK001,220,3*30
$PMTK001,185,3*3C
$GPGGA,025906.000,4002.2682,N,07503.6138,W,2,9,0.88,38.8,M,-34.0,M,0000,0000*50
$GPRMC,025906.000,A,4002.2682,N,07503.6138,W,0.05,0.00,100612,,,D*75
$GPGGA,025907.000,4002.2682,N,07503.6138,W,2,9,$PMTK001,314,3*36
$PMTK001,220,3*30
$PMTK001,185,3*3C
$GPGGA,025906.000,4002.2682,N,07503.6138,W,2,9,0.88,38.8,M,-34.0,M,0000,0000*50
$GPRMC,025906.000,A,4002.2682,N,07503.6138,W,0.05,0.00,100612,,,D*75
$GPGGA,025907.000,4002.2682,N,07503.6138,W,2,9,$PMTK001,314,3*36
$PMTK001,220,3*30
$PMTK001,185,3*3C
$GPGGA,025906.000,4002.2682,N,07503.6138,W,2,9,0.88,38.8,M,-34.0,M,0000,0000*50
$GPRMC,025906.000,A,4002.2682,N,07503.6138,W,0.05,0.00,100612,,,D*75
$GPGGA,025907.000,4002.2682,N,07503.6138,W,2,9,$PMTK001,314,3*36
$PMTK001,220,3*30
$PMTK001,185,3*3C
$GPGGA,025906.000,4002.2682,N,07503.6138,W,2,9,0.88,38.8,M,-34.0,M,0000,0000*50
$GPRMC,025906.000,A,4002.2682,N,07503.6138,W,0.05,0.00,100612,,,D*75
$GPGGA,025907.000,4002.2682,N,07503.6138,W,2,9,$PMTK001,314,3*36
$PMTK001,220,3*30
$PMTK001,185,3*3C
$GPGGA,025906.000,4002.2682,N,07503.6138,W,2,9,0.88,38.8,M,-34.0,M,0000,0000*50
$GPRMC,025906.000,A,4002.2682,N,07503.6138,W,0.05,0.00,100612,,,D*75
$GPGGA,025907.000,4002.2682,N,07503.6138,W,2,9,$PMTK001,314,3*36
$PMTK001,220,3*30
$PMTK001,185,3*3C
$GPGGA,025906.000,4002.2682,N,07503.6138,W,2,9,0.88,38.8,M,-34.0,M,0000,0000*50
$GPRMC,025906.000,A,4002.2682,N,07503.6138,W,0.05,0.00,100612,,,D*75
$GPGGA,025907.000,4002.2682,N,07503.6138,W,2,9,$PMTK001,314,3*36
$PMTK001,220,3*30
$PMTK001,185,3*3C
$GPGGA,025906.000,4002.2682,N,07503.6138,W,2,9,0.88,38.8,M,-34.0,M,0000,0000*50
$GPRMC,025906.000,A,4002.2682,N,07503.6138,W,0.05,0.00,100612,,,D*75
$GPGGA,025907.000,4002.2682,N,07503.6138,W,2,9,$PMTK001,314,3*36
$PMTK001,220,3*30
$PMTK001,185,3*3C
$GPGGA,025906.000,4002.2682,N,07503.6138,W,2,9,0.88,38.8,M,-34.0,M,0000,0000*50
$GPRMC,025906.000,A,4002.2682,N,07503.6138,W,0.05,0.00,100612,,,D*75
$GPGGA,025907.000,4002.2682,N,07503.6138,W,2,9,$PMTK001,314,3*36
$PMTK001,220,3*30
$PMTK001,185,3*3C
$GPGGA,025906.000,4002.2682,N,07503.6138,W,2,9,0.88,38.8,M,-34.0,M,0000,0000*50
$GPRMC,025906.000,A,4002.2682,N,07503.6138,W,0.05,0.00,100612,,,D*75
$GPGGA,025907.000,4002.2682,N,07503.6138,W,2,9,$PMTK001,314,3*36
$PMTK001,220,3*30
$PMTK001,185,3*3C
$GPGGA,025906.000,4002.2682,N,07503.6138,W,2,9,0.88,38.8,M,-34.0,M,0000,0000*50
$GPRMC,025906.000,A,4002.2682,N,07503.6138,W,0.05,0.00,100612,,,D*75
$GPGGA,025907.000,4002.2682,N,07503.6138,W,2,9,$PMTK001,314,3*36
$PMTK001,220,3*30
$PMTK001,185,3*3C
$GPGGA,025906.000,4002.2682,N,07503.6138,W,2,9,0.88,38.8,M,-34.0,M,0000,0000*50
$GPRMC,025906.000,A,4002.2682,N,07503.6138,W,0.05,0.00,100612,,,D*75
$GPGGA,025907.000,4002.2682,N,07503.6138,W,2,9,$PMTK001,314,3*36
$PMTK001,220,3*30
$PMTK001,185,3*3C
$GPGGA,025906.000,4002.2682,N,07503.6138,W,2,9,0.88,38.8,M,-34.0,M,0000,0000*50
$GPRMC,025906.000,A,4002.2682,N,07503.6138,W,0.05,0.00,100612,,,D*75
$GPGGA,025907.000,4002.2682,N,07503.6138,W,2,9,$PMTK001,314,3*36
$PMTK001,220,3*30
$PMTK001,185,3*3C
$GPGGA,025906.000,4002.2682,N,07503.6138,W,2,9,0.88,38.8,M,-34.0,M,0000,0000*50
$GPRMC,025906.000,A,4002.2682,N,07503.6138,W,0.05,0.00,100612,,,D*75
$GPGGA,025907.000,4002.2682,N,07503.6138,W,2,9,$PMTK001,314,3*36
$PMTK001,220,3*30
$PMTK001,185,3*3C
$GPGGA,025906.000,4002.2682,N,07503.6138,W,2,9,0.88,38.8,M,-34.0,M,0000,0000*50
$GPRMC,025906.000,A,4002.2682,N,07503.6138,W,0.05,0.00,100612,,,D*75
$GPGGA,025907.000,4002.2682,N,07503.6138,W,2,9,$PMTK001,314,3*36
$PMTK001,220,3*30
$PMTK001,185,3*3C
$GPGGA,025906.000,4002.2682,N,07503.6138,W,2,9,0.88,38.8,M,-34.0,M,0000,0000*50
$GPRMC,025906.000,A,4002.2682,N,07503.6138,W,0.05,0.00,100612,,,D*75
$GPGGA,025907.000,4002.2682,N,07503.6138,W,2,9,$PMTK001,314,3*36
$PMTK001,220,3*30
$PMTK001,185,3*3C
$GPGGA,025906.000,4002.2682,N,07503.6138,W,2,9,0.88,38.8,M,-34.0,M,0000,0000*50
$GPRMC,025906.000,A,4002.2682,N,07503.6138,W,0.05,0.00,100612,,,D*75
$GPGGA,025907.000,4002.2682,N,07503.6138,W,2,9,$PMTK001,314,3*36
$PMTK001,220,3*30
$PMTK001,185,3*3C
$GPGGA,025906.000,4002.2682,N,07503.6138,W,2,9,0.88,38.8,M,-34.0,M,0000,0000*50
$GPRMC,025906.000,A,4002.2682,N,07503.6138,W,0.05,0.00,100612,,,D*75
$GPGGA,025907.000,4002.2682,N,07503.6138,W,2,9,$PMTK001,314,3*36
$PMTK001,220,3*30
$PMTK001,185,3*3C
$GPGGA,025906.000,4002.2682,N,07503.6138,W,2,9,0.88,38.8,M,-34.0,M,0000,0000*50
$GPRMC,025906.000,A,4002.2682,N,07503.6138,W,0.05,0.00,100612,,,D*75
$GPGGA,025907.000,4002.2682,N,07503.6138,W,2,9,$PMTK001,314,3*36
$PMTK001,220,3*30
$PMTK001,185,3*3C
$GPGGA,025906.000,4002.2682,N,07503.6138,W,2,9,0.88,38.8,M,-34.0,M,0000,0000*50
$GPRMC,025906.000,A,4002.2682,N,07503.6138,W,0.05,0.00,100612,,,D*75
$GPGGA,025907.000,4002.2682,N,07503.6138,W,2,9,$PMTK001,314,3*36
$PMTK001,220,3*30
$PMTK001,185,3*3C
$GPGGA,025906.000,4002.2682,N,07503.6138,W,2,9,0.88,38.8,M,-34.0,M,0000,0000*50
$GPRMC,025906.000,A,4002.2682,N,07503.6138,W,0.05,0.00,100612,,,D*75
$GPGGA,025907.000,4002.2682,N,07503.6138,W,2,9,$PMTK001,314,3*36
$PMTK001,220,3*30
$PMTK001,185,3*3C
$GPGGA,025906.000,4002.2682,N,07503.6138,W,2,9,0.88,38.8,M,-34.0,M,0000,0000*50
$GPRMC,025906.000,A,4002.2682,N,07503.6138,W,0.05,0.00,100612,,,D*75
$GPGGA,025907.000,4002.2682,N,07503.6138,W,2,9,$PMTK001,314,3*36
$PMTK001,220,3*30
$PMTK001,185,3*3C
$GPGGA,025906.000,4002.2682,N,07503.6138,W,2,9,0.88,38.8,M,-34.0,M,0000,0000*50
$GPRMC,025906.000,A,4002.2682,N,07503.6138,W,0.05,0.00,100612,,,D*75
$GPGGA,025907.000,4002.2682,N,07503.6138,W,2,9,$PMTK001,314,3*36
$PMTK001,220,3*30
$PMTK001,185,3*3C
$GPGGA,025906.000,4002.2682,N,07503.6138,W,2,9,0.88,38.8,M,-34.0,M,0000,0000*50
$GPRMC,025906.000,A,4002.2682,N,07503.6138,W,0.05,0.00,100612,,,D*75
$GPGGA,025907.000,4002.2682,N,07503.6138,W,2,9,$PMTK001,314,3*36
$PMTK001,220,3*30
$PMTK001,185,3*3C
$GPGGA,025906.000,4002.2682,N,07503.6138,W,2,9,0.88,38.8,M,-34.0,M,0000,0000*50
$GPRMC,025906.000,A,4002.2682,N,07503.6138,W,0.05,0.00,100612,,,D*75
$GPGGA,025907.000,4002.2682,N,07503.6138,W,2,9,$PMTK001,314,3*36
$PMTK001,220,3*30
$PMTK001,185,3*3C
$GPGGA,025906.000,4002.2682,N,07503.6138,W,2,9,0.88,38.8,M,-34.0,M,0000,0000*50
$GPRMC,025906.000,A,4002.2682,N,07503.6138,W,0.05,0.00,100612,,,D*75
$GPGGA,025907.000,4002.2682,N,07503.6138,W,2,9,$PMTK001,314,3*36
$PMTK001,220,3*30
$PMTK001,185,3*3C
$GPGGA,025906.000,4002.2682,N,07503.6138,W,2,9,0.88,38.8,M,-34.0,M,0000,0000*50
$GPRMC,025906.000,A,4002.2682,N,07503.6138,W,0.05,0.00,100612,,,D*75
$GPGGA,025907.000,4002.2682,N,07503.6138,W,2,9,$PMTK001,314,3*36
$PMTK001,220,3*30
$PMTK001,185,3*3C
$GPGGA,025906.000,4002.2682,N,07503.6138,W,2,9,0.88,38.8,M,-34.0,M,0000,0000*50
$GPRMC,025906.000,A,4002.2682,N,07503.6138,W,0.05,0.00,100612,,,D*75
$GPGGA,025907.000,4002.2682,N,07503.6138,W,2,9,$PMTK001,314,3*36
$PMTK001,220,3*30
$PMTK001,185,3*3C
$GPGGA,025906.000,4002.2682,N,07503.6138,W,2,9,0.88,38.8,M,-34.0,M,0000,0000*50
$GPRMC,025906.000,A,4002.2682,N,07503.6138,W,0.05,0.00,100612,,,D*75
$GPGGA,025907.000,4002.2682,N,07503.6138,W,2,9,$PMTK001,314,3*36
$PMTK001,220,3*30
$PMTK001,185,3*3C
$GPGGA,025906.000,4002.2682,N,07503.6138,W,2,9,0.88,38.8,M,-34.0,M,0000,0000*50
$GPRMC,025906.000,A,4002.2682,N,07503.6138,W,0.05,0.00,100612,,,D*75
$GPGGA,025907.000,4002.2682,N,07503.6138,W,2,9,$PMTK001,314,3*36
$PMTK001,220,3*30
$PMTK001,185,3*3C
$GPGGA,025906.000,4002.2682,N,07503.6138,W,2,9,0.88,38.8,M,-34.0,M,0000,0000*50
$GPRMC,025906.000,A,4002.2682,N,07503.6138,W,0.05,0.00,100612,,,D*75
$GPGGA,025907.000,4002.2682,N,07503.6138,W,2,9,$PMTK001,314,3*36
$PMTK001,220,3*30
$PMTK001,185,3*3C
$GPGGA,025906.000,4002.2682,N,07503.6138,W,2,9,0.88,38.8,M,-34.0,M,0000,0000*50
$GPRMC,025906.000,A,4002.2682,N,07503.6138,W,0.05,0.00,100612,,,D*75
$GPGGA,025907.000,4002.2682,N,07503.6138,W,2,9,$PMTK001,314,3*36
$PMTK001,220,3*30
$PMTK001,185,3*3C
$GPGGA,025906.000,4002.2682,N,07503.6138,W,2,9,0.88,38.8,M,-34.0,M,0000,0000*50
$GPRMC,025906.000,A,4002.2682,N,07503.6138,W,0.05,0.00,100612,,,D*75
$GPGGA,025907.000,4002.2682,N,07503.6138,W,2,9,$PMTK001,314,3*36
$PMTK001,220,3*30
$PMTK001,185,3*3C
$GPGGA,025906.000,4002.2682,N,07503.6138,W,2,9,0.88,38.8,M,-34.0,M,0000,0000*50
$GPRMC,025906.000,A,4002.2682,N,07503.6138,W,0.05,0.00,100612,,,D*75
$GPGGA,025907.000,4002.2682,N,07503.6138,W,2,9,$PMTK001,314,3*36
$PMTK001,220,3*30
$PMTK001,185,3*3C
$GPGGA,025906.000,4002.2682,N,07503.6138,W,2,9,0.88,38.8,M,-34.0,M,0000,0000*50
$GPRMC,025906.000,A,4002.2682,N,07503.6138,W,0.05,0.00,100612,,,D*75
$GPGGA,025907.000,4002.2682,N,07503.6138,W,2,9,$PMTK001,314,3*36
$PMTK001,220,3*30
$PMTK001,185,3*3C
$GPGGA,025906.000,4002.2682,N,07503.6138,W,2,9,0.88,38.8,M,-34.0,M,0000,0000*50
$GPRMC,025906.000,A,4002.2682,N,07503.6138,W,0.05,0.00,100612,,,D*75
$GPGGA,025907.000,4002.2682,N,07503.6138,W,2,9,$PMTK001,314,3*36
$PMTK001,220,3*30
$PMTK001,185,3*3C
$GPGGA,025906.000,4002.2682,N,07503.6138,W,2,9,0.88,38.8,M,-34.0,M,0000,0000*50
$GPRMC,025906.000,A,4002.2682,N,07503.6138,W,0.05,0.00,100612,,,D*75
$GPGGA,025907.000,4002.2682,N,07503.6138,W,2,9,$PMTK001,314,3*36
$PMTK001,220,3*30
$PMTK001,185,3*3C
$GPGGA,025906.000,4002.2682,N,07503.6138,W,2,9,0.88,38.8,M,-34.0,M,0000,0000*50
$GPRMC,025906.000,A,4002.2682,N,07503.6138,W,0.05,0.00,100612,,,D*75
$GPGGA,025907.000,4002.2682,N,07503.6138,W,2,9,