$GPGGA,025706.000,4002.2701,N,07503.6184,W,1,9,0.85,39.9,M,-34.0,M,,*5D
$GPRMC,025706.000,A,4002.2701,N,07503.6184,W,0.04,0.00,100612,,,A*72
$PMTK001,314,3*36
$PMTK001,220,3*30
$PMTK001,185,3*3C
$GPGGA,025707.000,4002.2701,N,07503.6184,W,1,9,0.85,39.$GPGGA,025706.000,4002.2701,N,07503.6184,W,1,9,0.85,39.9,M,-34.0,M,,*5D
$GPRMC,025706.000,A,4002.2701,N,07503.6184,W,0.04,0.00,100612,,,A*72
$PMTK001,314,3*36
$PMTK001,220,3*30
$PMTK001,185,3*3C
$GPGGA,025707.000,4002.2701,N,07503.6184,W,1,9,0.85,39.$GPGGA,025706.000,4002.2701,N,07503.6184,W,1,9,0.85,39.9,M,-34.0,M,,*5D
$GPRMC,025706.000,A,4002.2701,N,07503.6184,W,0.04,0.00,100612,,,A*72
$PMTK001,314,3*36
$PMTK001,220,3*30
$PMTK001,185,3*3C
$GPGGA,025707.000,4002.2701,N,07503.6184,W,1,9,0.85,39.$GPGGA,025706.000,4002.2701,N,07503.6184,W,1,9,0.85,39.9,M,-34.0,M,,*5D
$GPRMC,025706.000,A,4002.2701,N,07503.6184,W,0.04,0.00,100612,,,A*72
$PMTK001,314,3*36
$PMTK001,220,3*30
$PMTK001,185,3*3C
$GPGGA,025707.000,4002.2701,N,07503.6184,W,1,9,0.85,39.$GPGGA,025706.000,4002.2701,N,07503.6184,W,1,9,0.85,39.9,M,-34.0,M,,*5D
$GPRMC,025706.000,A,4002.2701,N,07503.6184,W,0.04,0.00,100612,,,A*72
$PMTK001,314,3*36
$PMTK001,220,3*30
$PMTK001,185,3*3C
$GPGGA,025707.000,4002.2701,N,07503.6184,W,1,9,0.85,39.$GPGGA,025706.000,4002.2701,N,07503.6184,W,1,9,0.85,39.9,M,-34.0,M,,*5D
$GPRMC,025706.000,A,4002.2701,N,07503.6184,W,0.04,0.00,100612,,,A*72
$PMTK001,314,3*36
$PMTK001,220,3*30
$PMTK001,185,3*3C
$GPGGA,025707.000,4002.2701,N,07503.6184,W,1,9,0.85,39.$GPGGA,025706.000,4002.2701,N,07503.6184,W,1,9,0.85,39.9,M,-34.0,M,,*5D
$GPRMC,025706.000,A,4002.2701,N,07503.6184,W,0.04,0.00,100612,,,A*72
$PMTK001,314,3*36
$PMTK001,220,3*30
$PMTK001,185,3*3C
$GPGGA,025707.000,4002.2701,N,07503.6184,W,1,9,0.85,39.$GPGGA,025706.000,4002.2701,N,07503.6184,W,1,9,0.85,39.9,M,-34.0,M,,*5D
$GPRMC,025706.000,A,4002.2701,N,07503.6184,W,0.04,0.00,100612,,,A*72
$PMTK001,314,3*36
$PMTK001,220,3*30
$PMTK001,185,3*3C
$GPGGA,025707.000,4002.2701,N,07503.6184,W,1,9,0.85,39.$GPGGA,025706.000,4002.2701,N,07503.6184,W,1,9,0.85,39.9,M,-34.0,M,,*5D
$GPRMC,025706.000,A,4002.2701,N,07503.6184,W,0.04,0.00,100612,,,A*72
$PMTK001,314,3*36
$PMTK001,220,3*30
$PMTK001,185,3*3C
$GPGGA,025707.000,4002.2701,N,07503.6184,W,1,9,0.85,39.$GPGGA,025706.000,4002.2701,N,07503.6184,W,1,9,0.85,39.9,M,-34.0,M,,*5D
$GPRMC,025706.000,A,4002.2701,N,07503.6184,W,0.04,0.00,100612,,,A*72
$PMTK001,314,3*36
$PMTK001,220,3*30
$PMTK001,185,3*3C
$GPGGA,025707.000,4002.2701,N,07503.6184,W,1,9,0.85,39.$GPGGA,025706.000,4002.2701,N,07503.6184,W,1,9,0.85,39.9,M,-34.0,M,,*5D
$GPRMC,025706.000,A,4002.2701,N,07503.6184,W,0.04,0.00,100612,,,A*72
$PMTK001,314,3*36
$PMTK001,220,3*30
$PMTK001,185,3*3C
$GPGGA,025707.000,4002.2701,N,07503.6184,W,1,9,0.85,39.$GPGGA,025706.000,4002.2701,N,07503.6184,W,1,9,0.85,39.9,M,-34.0,M,,*5D
$GPRMC,025706.000,A,4002.2701,N,07503.6184,W,0.04,0.00,100612,,,A*72
$PMTK001,314,3*36
$PMTK001,220,3*30
$PMTK001,185,3*3C
$GPGGA,025707.000,4002.2701,N,07503.6184,W,1,9,0.85,39.$GPGGA,025706.000,4002.2701,N,07503.6184,W,1,9,0.85,39.9,M,-34.0,M,,*5D
$GPRMC,025706.000,A,4002.2701,N,07503.6184,W,0.04,0.00,100612,,,A*72
$PMTK001,314,3*36
$PMTK001,220,3*30
$PMTK001,185,3*3C
$GPGGA,025707.000,4002.2701,N,07503.6184,W,1,9,0.85,39.$GPGGA,025706.000,4002.2701,N,07503.6184,W,1,9,0.85,39.9,M,-34.0,M,,*5D
$GPRMC,025706.000,A,4002.2701,N,07503.6184,W,0.04,0.00,100612,,,A*72
$PMTK001,314,3*36
$PMTK001,220,3*30
$PMTK001,185,3*3C
$GPGGA,025707.000,4002.2701,N,07503.6184,W,1,9,0.85,39.$GPGGA,025706.000,4002.2701,N,07503.6184,W,1,9,0.85,39.9,M,-34.0,M,,*5D
$GPRMC,025706.000,A,4002.2701,N,07503.6184,W,0.04,0.00,100612,,,A*72
$PMTK001,314,3*36
$PMTK001,220,3*30
$PMTK001,185,3*3C
$GPGGA,025707.000,4002.2701,N,07503.6184,W,1,9,0.85,39.$GPGGA,025706.000,4002.2701,N,07503.6184,W,1,9,0.85,39.9,M,-34.0,M,,*5D
$GPRMC,025706.000,A,4002.2701,N,07503.6184,W,0.04,0.00,100612,,,A*72
$PMTK001,314,3*36
$PMTK001,220,3*30
$PMTK001,185,3*3C
$GPGGA,025707.000,4002.2701,N,07503.6184,W,1,9,0.85,39.$GPGGA,025706.000,4002.2701,N,07503.6184,W,1,9,0.85,39.9,M,-34.0,M,,*5D
$GPRMC,025706.000,A,4002.2701,N,07503.6184,W,0.04,0.00,100612,,,A*72
$PMTK001,314,3*36
$PMTK001,220,3*30
$PMTK001,185,3*3C
$GPGGA,025707.000,4002.2701,N,07503.6184,W,1,9,0.85,39.$GPGGA,025706.000,4002.2701,N,07503.6184,W,1,9,0.85,39.9,M,-34.0,M,,*5D
$GPRMC,025706.000,A,4002.2701,N,07503.6184,W,0.04,0.00,100612,,,A*72
$PMTK001,314,3*36
$PMTK001,220,3*30
$PMTK001,185,3*3C
$GPGGA,025707.000,4002.2701,N,07503.6184,W,1,9,0.85,39.$GPGGA,025706.000,4002.2701,N,07503.6184,W,1,9,0.85,39.9,M,-34.0,M,,*5D
$GPRMC,025706.000,A,4002.2701,N,07503.6184,W,0.04,0.00,100612,,,A*72
$PMTK001,314,3*36
$PMTK001,220,3*30
$PMTK001,185,3*3C
$GPGGA,025707.000,4002.2701,N,07503.6184,W,1,9,0.85,39.$GPGGA,025706.000,4002.2701,N,07503.6184,W,1,9,0.85,39.9,M,-34.0,M,,*5D
$GPRMC,025706.000,A,4002.2701,N,07503.6184,W,0.04,0.00,100612,,,A*72
$PMTK001,314,3*36
$PMTK001,220,3*30
$PMTK001,185,3*3C
$GPGGA,025707.000,4002.2701,N,07503.6184,W,1,9,0.85,39.$GPGGA,025706.000,4002.2701,N,07503.6184,W,1,9,0.85,39.9,M,-34.0,M,,*5D
$GPRMC,025706.000,A,4002.2701,N,07503.6184,W,0.04,0.00,100612,,,A*72
$PMTK001,314,3*36
$PMTK001,220,3*30
$PMTK001,185,3*3C
$GPGGA,025707.000,4002.2701,N,07503.6184,W,1,9,0.85,39.$GPGGA,025706.000,4002.2701,N,07503.6184,W,1,9,0.85,39.9,M,-34.0,M,,*5D
$GPRMC,025706.000,A,4002.2701,N,07503.6184,W,0.04,0.00,100612,,,A*72
$PMTK001,314,3*36
$PMTK001,220,3*30
$PMTK001,185,3*3C
$GPGGA,025707.000,4002.2701,N,07503.6184,W,1,9,0.85,39.$GPGGA,025706.000,4002.2701,N,07503.6184,W,1,9,0.85,39.9,M,-34.0,M,,*5D
$GPRMC,025706.000,A,4002.2701,N,07503.6184,W,0.04,0.00,100612,,,A*72
$PMTK001,314,3*36
$PMTK001,220,3*30
$PMTK001,185,3*3C
$GPGGA,025707.000,4002.2701,N,07503.6184,W,1,9,0.85,39.$GPGGA,025706.000,4002.2701,N,07503.6184,W,1,9,0.85,39.9,M,-34.0,M,,*5D
$GPRMC,025706.000,A,4002.2701,N,07503.6184,W,0.04,0.00,100612,,,A*72
$PMTK001,314,3*36
$PMTK001,220,3*30
$PMTK001,185,3*3C
$GPGGA,025707.000,4002.2701,N,07503.6184,W,1,9,0.85,39.$GPGGA,025706.000,4002.2701,N,07503.6184,W,1,9,0.85,39.9,M,-34.0,M,,*5D
$GPRMC,025706.000,A,4002.2701,N,07503.6184,W,0.04,0.00,100612,,,A*72
$PMTK001,314,3*36
$PMTK001,220,3*30
$PMTK001,185,3*3C
$GPGGA,025707.000,4002.2701,N,07503.6184,W,1,9,0.85,39.$GPGGA,025706.000,4002.2701,N,07503.6184,W,1,9,0.85,39.9,M,-34.0,M,,*5D
$GPRMC,025706.000,A,4002.2701,N,07503.6184,W,0.04,0.00,100612,,,A*72
$PMTK001,314,3*36
$PMTK001,220,3*30
$PMTK001,185,3*3C
$GPGGA,025707.000,4002.2701,N,07503.6184,W,1,9,0.85,39.$GPGGA,025706.000,4002.2701,N,07503.6184,W,1,9,0.85,39.9,M,-34.0,M,,*5D
$GPRMC,025706.000,A,4002.2701,N,07503.6184,W,0.04,0.00,100612,,,A*72
$PMTK001,314,3*36
$PMTK001,220,3*30
$PMTK001,185,3*3C
$GPGGA,025707.000,4002.2701,N,07503.6184,W,1,9,0.85,39.$GPGGA,025706.000,4002.2701,N,07503.6184,W,1,9,0.85,39.9,M,-34.0,M,,*5D
$GPRMC,025706.000,A,4002.2701,N,07503.6184,W,0.04,0.00,100612,,,A*72
$PMTK001,314,3*36
$PMTK001,220,3*30
$PMTK001,185,3*3C
$GPGGA,025707.000,4002.2701,N,07503.6184,W,1,9,0.85,39.$GPGGA,025706.000,4002.2701,N,07503.6184,W,1,9,0.85,39.9,M,-34.0,M,,*5D
$GPRMC,025706.000,A,4002.2701,N,07503.6184,W,0.04,0.00,100612,,,A*72
$PMTK001,314,3*36
$PMTK001,220,3*30
$PMTK001,185,3*3C
$GPGGA,025707.000,4002.2701,N,07503.6184,W,1,9,0.85,39.$GPGGA,025706.000,4002.2701,N,07503.6184,W,1,9,0.85,39.9,M,-34.0,M,,*5D
$GPRMC,025706.000,A,4002.2701,N,07503.6184,W,0.04,0.00,100612,,,A*72
$PMTK001,314,3*36
$PMTK001,220,3*30
$PMTK001,185,3*3C
$GPGGA,025707.000,4002.2701,N,07503.6184,W,1,9,0.85,39.$GPGGA,025706.000,4002.2701,N,07503.6184,W,1,9,0.85,39.9,M,-34.0,M,,*5D
$GPRMC,025706.000,A,4002.2701,N,07503.6184,W,0.04,0.00,100612,,,A*72
$PMTK001,314,3*36
$PMTK001,220,3*30
$PMTK001,185,3*3C
$GPGGA,025707.000,4002.2701,N,07503.6184,W,1,9,0.85,39.$GPGGA,025706.000,4002.2701,N,07503.6184,W,1,9,0.85,39.9,M,-34.0,M,,*5D
$GPRMC,025706.000,A,4002.2701,N,07503.6184,W,0.04,0.00,100612,,,A*72
$PMTK001,314,3*36
$PMTK001,220,3*30
$PMTK001,185,3*3C
$GPGGA,025707.000,4002.2701,N,07503.6184,W,1,9,0.85,39.$GPGGA,025706.000,4002.2701,N,07503.6184,W,1,9,0.85,39.9,M,-34.0,M,,*5D
$GPRMC,025706.000,A,4002.2701,N,07503.6184,W,0.04,0.00,100612,,,A*72
$PMTK001,314,3*36
$PMTK001,220,3*30
$PMTK001,185,3*3C
$GPGGA,025707.000,4002.2701,N,07503.6184,W,1,9,0.85,39.$GPGGA,025706.000,4002.2701,N,07503.6184,W,1,9,0.85,39.9,M,-34.0,M,,*5D
$GPRMC,025706.000,A,4002.2701,N,07503.6184,W,0.04,0.00,100612,,,A*72
$PMTK001,314,3*36
$PMTK001,220,3*30
$PMTK001,185,3*3C
$GPGGA,025707.000,4002.2701,N,07503.6184,W,1,9,0.85,39.$GPGGA,025706.000,4002.2701,N,07503.6184,W,1,9,0.85,39.9,M,-34.0,M,,*5D
$GPRMC,025706.000,A,4002.2701,N,07503.6184,W,0.04,0.00,100612,,,A*72
$PMTK001,314,3*36
$PMTK001,220,3*30
$PMTK001,185,3*3C
$GPGGA,025707.000,4002.2701,N,07503.6184,W,1,9,0.85,39.$GPGGA,025706.000,4002.2701,N,07503.6184,W,1,9,0.85,39.9,M,-34.0,M,,*5D
$GPRMC,025706.000,A,4002.2701,N,07503.6184,W,0.04,0.00,100612,,,A*72
$PMTK001,314,3*36
$PMTK001,220,3*30
$PMTK001,185,3*3C
$GPGGA,025707.000,4002.2701,N,07503.6184,W,1,9,0.85,39.$GPGGA,025706.000,4002.2701,N,07503.6184,W,1,9,0.85,39.9,M,-34.0,M,,*5D
$GPRMC,025706.000,A,4002.2701,N,07503.6184,W,0.04,0.00,100612,,,A*72
$PMTK001,314,3*36
$PMTK001,220,3*30
$PMTK001,185,3*3C
$GPGGA,025707.000,4002.2701,N,07503.6184,W,1,9,0.85,39.$GPGGA,025706.000,4002.2701,N,07503.6184,W,1,9,0.85,39.9,M,-34.0,M,,*5D
$GPRMC,025706.000,A,4002.2701,N,07503.6184,W,0.04,0.00,100612,,,A*72
$PMTK001,314,3*36
$PMTK001,220,3*30
$PMTK001,185,3*3C
$GPGGA,025707.000,4002.2701,N,07503.6184,W,1,9,0.85,39.$GPGGA,025706.000,4002.2701,N,07503.6184,W,1,9,0.85,39.9,M,-34.0,M,,*5D
$GPRMC,025706.000,A,4002.2701,N,07503.6184,W,0.04,0.00,100612,,,A*72
$PMTK001,314,3*36
$PMTK001,220,3*30
$PMTK001,185,3*3C
$GPGGA,025707.000,4002.2701,N,07503.6184,W,1,9,0.85,39.$GPGGA,025706.000,4002.2701,N,07503.6184,W,1,9,0.85,39.9,M,-34.0,M,,*5D
$GPRMC,025706.000,A,4002.2701,N,07503.6184,W,0.04,0.00,100612,,,A*72
$PMTK001,314,3*36
$PMTK001,220,3*30
$PMTK001,185,3*3C
$GPGGA,025707.000,4002.2701,N,07503.6184,W,1,9,0.85,39.$GPGGA,025706.000,4002.2701,N,07503.6184,W,1,9,0.85,39.9,M,-34.0,M,,*5D
$GPRMC,025706.000,A,4002.2701,N,07503.6184,W,0.04,0.00,100612,,,A*72
$PMTK001,314,3*36
$PMTK001,220,3*30
$PMTK001,185,3*3C
$GPGGA,025707.000,4002.2701,N,07503.6184,W,1,9,0.85,39.$GPGGA,025706.000,4002.2701,N,07503.6184,W,1,9,0.85,39.9,M,-34.0,M,,*5D
$GPRMC,025706.000,A,4002.2701,N,07503.6184,W,0.04,0.00,100612,,,A*72
$PMTK001,314,3*36
$PMTK001,220,3*30
$PMTK001,185,3*3C
$GPGGA,025707.000,4002.2701,N,07503.6184,W,1,9,0.85,39.$GPGGA,025706.000,4002.2701,N,07503.6184,W,1,9,0.85,39.9,M,-34.0,M,,*5D
$GPRMC,025706.000,A,4002.2701,N,07503.6184,W,0.04,0.00,100612,,,A*72
$PMTK001,314,3*36
$PMTK001,220,3*30
$PMTK001,185,3*3C
$GPGGA,025707.000,4002.2701,N,07503.6184,W,1,9,0.85,39.$GPGGA,025706.000,4002.2701,N,07503.6184,W,1,9,0.85,39.9,M,-34.0,M,,*5D
$GPRMC,025706.000,A,4002.2701,N,07503.6184,W,0.04,0.00,100612,,,A*72
$PMTK001,314,3*36
$PMTK001,220,3*30
$PMTK001,185,3*3C
$GPGGA,025707.000,4002.2701,N,07503.6184,W,1,9,0.85,39.$GPGGA,025706.000,4002.2701,N,07503.6184,W,1,9,0.85,39.9,M,-34.0,M,,*5D
$GPRMC,025706.000,A,4002.2701,N,07503.6184,W,0.04,0.00,100612,,,A*72
$PMTK001,314,3*36
$PMTK001,220,3*30
$PMTK001,185,3*3C
$GPGGA,025707.000,4002.2701,N,07503.6184,W,1,9,0.85,39.$GPGGA,025706.000,4002.2701,N,07503.6184,W,1,9,0.85,39.9,M,-34.0,M,,*5D
$GPRMC,025706.000,A,4002.2701,N,07503.6184,W,0.04,0.00,100612,,,A*72
$PMTK001,314,3*36
$PMTK001,220,3*30
$PMTK001,185,3*3C
$GPGGA,025707.000,4002.2701,N,07503.6184,W,1,9,0.85,39.$GPGGA,025706.000,4002.2701,N,07503.6184,W,1,9,0.85,39.9,M,-34.0,M,,*5D
$GPRMC,025706.000,A,4002.2701,N,07503.6184,W,0.04,0.00,100612,,,A*72
$PMTK001,314,3*36
$PMTK001,220,3*30
$PMTK001,185,3*3C
$GPGGA,025707.000,4002.2701,N,07503.6184,W,1,9,0.85,39.$GPGGA,025706.000,4002.2701,N,07503.6184,W,1,9,0.85,39.9,M,-34.0,M,,*5D
$GPRMC,025706.000,A,4002.2701,N,07503.6184,W,0.04,0.00,100612,,,A*72
$PMTK001,314,3*36
$PMTK001,220,3*30
$PMTK001,185,3*3C
$GPGGA,025707.000,4002.2701,N,07503.6184,W,1,9,0.85,39.$GPGGA,025706.000,4002.2701,N,07503.6184,W,1,9,0.85,39.9,M,-34.0,M,,*5D
$GPRMC,025706.000,A,4002.2701,N,07503.6184,W,0.04,0.00,100612,,,A*72
$PMTK001,314,3*36
$PMTK001,220,3*30
$PMTK001,185,3*3C
$GPGGA,025707.000,4002.2701,N,07503.6184,W,1,9,0.85,39.$GPGGA,025706.000,4002.2701,N,07503.6184,W,1,9,0.85,39.9,M,-34.0,M,,*5D
$GPRMC,025706.000,A,4002.2701,N,07503.6184,W,0.04,0.00,100612,,,A*72
$PMTK001,314,3*36
$PMTK001,220,3*30
$PMTK001,185,3*3C
$GPGGA,025707.000,4002.2701,N,07503.6184,W,1,9,0.85,39.$GPGGA,025706.000,4002.2701,N,07503.6184,W,1,9,0.85,39.9,M,-34.0,M,,*5D
$GPRMC,025706.000,A,4002.2701,N,07503.6184,W,0.04,0.00,100612,,,A*72
$PMTK001,314,3*36
$PMTK001,220,3*30
$PMTK001,185,3*3C
$GPGGA,025707.000,4002.2701,N,07503.6184,W,1,9,0.85,39.$GPGGA,025706.000,4002.2701,N,07503.6184,W,1,9,0.85,39.9,M,-34.0,M,,*5D
$GPRMC,025706.000,A,4002.2701,N,07503.6184,W,0.04,0.00,100612,,,A*72
$PMTK001,314,3*36
$PMTK001,220,3*30
$PMTK001,185,3*3C
$GPGGA,025707.000,4002.2701,N,07503.6184,W,1,9,0.85,39.$GPGGA,025706.000,4002.2701,N,07503.6184,W,1,9,0.85,39.9,M,-34.0,M,,*5D
$GPRMC,025706.000,A,4002.2701,N,07503.6184,W,0.04,0.00,100612,,,A*72
$PMTK001,314,3*36
$PMTK001,220,3*30
$PMTK001,185,3*3C
$GPGGA,025707.000,4002.2701,N,07503.6184,W,1,9,0.85,39.$GPGGA,025706.000,4002.2701,N,07503.6184,W,1,9,0.85,39.9,M,-34.0,M,,*5D
$GPRMC,025706.000,A,4002.2701,N,07503.6184,W,0.04,0.00,100612,,,A*72
$PMTK001,314,3*36
$PMTK001,220,3*30
$PMTK001,185,3*3C
$GPGGA,025707.000,4002.2701,N,07503.6184,W,1,9,0.85,39.$GPGGA,025706.000,4002.2701,N,07503.6184,W,1,9,0.85,39.9,M,-34.0,M,,*5D
$GPRMC,025706.000,A,4002.2701,N,07503.6184,W,0.04,0.00,100612,,,A*72
$PMTK001,314,3*36
$PMTK001,220,3*30
$PMTK001,185,3*3C
$GPGGA,025707.000,4002.2701,N,07503.6184,W,1,9,0.85,39.$GPGGA,025706.000,4002.2701,N,07503.6184,W,1,9,0.85,39.9,M,-34.0,M,,*5D
$GPRMC,025706.000,A,4002.2701,N,07503.6184,W,0.04,0.00,100612,,,A*72
$PMTK001,314,3*36
$PMTK001,220,3*30
$PMTK001,185,3*3C
$GPGGA,025707.000,4002.2701,N,07503.6184,W,1,9,0.85,39.$GPGGA,025706.000,4002.2701,N,07503.6184,W,1,9,0.85,39.9,M,-34.0,M,,*5D
$GPRMC,025706.000,A,4002.2701,N,07503.6184,W,0.04,0.00,100612,,,A*72
$PMTK001,314,3*36
$PMTK001,220,3*30
$PMTK001,185,3*3C
$GPGGA,025707.000,4002.2701,N,07503.6184,W,1,9,0.85,39.$GPGGA,025706.000,4002.2701,N,07503.6184,W,1,9,0.85,39.9,M,-34.0,M,,*5D
$GPRMC,025706.000,A,4002.2701,N,07503.6184,W,0.04,0.00,100612,,,A*72
$PMTK001,314,3*36
$PMTK001,220,3*30
$PMTK001,185,3*3C
$GPGGA,025707.000,4002.2701,N,07503.6184,W,1,9,0.85,39.