744,N,07503.6301,W,0.13,208.73,090612,,,A*7E
$PMTK001,314,3*36
$PMTK001,220,3*30
$PMTK001,185,3*3C
$GPGGA,130656.000,4002.2744,N,07503.6301,W,1,7,1.17,9.7,M,-34.0,M,,*6B
$GPRMC,130656.000,A,4002.2744,N,07503.6301,W,0.43,208.73,090612,,,A*78
$GPGGA,1744,N,07503.6301,W,0.13,208.73,090612,,,A*7E
$PMTK001,314,3*36
$PMTK001,220,3*30
$PMTK001,185,3*3C
$GPGGA,130656.000,4002.2744,N,07503.6301,W,1,7,1.17,9.7,M,-34.0,M,,*6B
$GPRMC,130656.000,A,4002.2744,N,07503.6301,W,0.43,208.73,090612,,,A*78
$GPGGA,1744,N,07503.6301,W,0.13,208.73,090612,,,A*7E
$PMTK001,314,3*36
$PMTK001,220,3*30
$PMTK001,185,3*3C
$GPGGA,130656.000,4002.2744,N,07503.6301,W,1,7,1.17,9.7,M,-34.0,M,,*6B
$GPRMC,130656.000,A,4002.2744,N,07503.6301,W,0.43,208.73,090612,,,A*78
$GPGGA,1744,N,07503.6301,W,0.13,208.73,090612,,,A*7E
$PMTK001,314,3*36
$PMTK001,220,3*30
$PMTK001,185,3*3C
$GPGGA,130656.000,4002.2744,N,07503.6301,W,1,7,1.17,9.7,M,-34.0,M,,*6B
$GPRMC,130656.000,A,4002.2744,N,07503.6301,W,0.43,208.73,090612,,,A*78
$GPGGA,1744,N,07503.6301,W,0.13,208.73,090612,,,A*7E
$PMTK001,314,3*36
$PMTK001,220,3*30
$PMTK001,185,3*3C
$GPGGA,130656.000,4002.2744,N,07503.6301,W,1,7,1.17,9.7,M,-34.0,M,,*6B
$GPRMC,130656.000,A,4002.2744,N,07503.6301,W,0.43,208.73,090612,,,A*78
$GPGGA,1744,N,07503.6301,W,0.13,208.73,090612,,,A*7E
$PMTK001,314,3*36
$PMTK001,220,3*30
$PMTK001,185,3*3C
$GPGGA,130656.000,4002.2744,N,07503.6301,W,1,7,1.17,9.7,M,-34.0,M,,*6B
$GPRMC,130656.000,A,4002.2744,N,07503.6301,W,0.43,208.73,090612,,,A*78
$GPGGA,1744,N,07503.6301,W,0.13,208.73,090612,,,A*7E
$PMTK001,314,3*36
$PMTK001,220,3*30
$PMTK001,185,3*3C
$GPGGA,130656.000,4002.2744,N,07503.6301,W,1,7,1.17,9.7,M,-34.0,M,,*6B
$GPRMC,130656.000,A,4002.2744,N,07503.6301,W,0.43,208.73,090612,,,A*78
$GPGGA,1744,N,07503.6301,W,0.13,208.73,090612,,,A*7E
$PMTK001,314,3*36
$PMTK001,220,3*30
$PMTK001,185,3*3C
$GPGGA,130656.000,4002.2744,N,07503.6301,W,1,7,1.17,9.7,M,-34.0,M,,*6B
$GPRMC,130656.000,A,4002.2744,N,07503.6301,W,0.43,208.73,090612,,,A*78
$GPGGA,1744,N,07503.6301,W,0.13,208.73,090612,,,A*7E
$PMTK001,314,3*36
$PMTK001,220,3*30
$PMTK001,185,3*3C
$GPGGA,130656.000,4002.2744,N,07503.6301,W,1,7,1.17,9.7,M,-34.0,M,,*6B
$GPRMC,130656.000,A,4002.2744,N,07503.6301,W,0.43,208.73,090612,,,A*78
$GPGGA,1744,N,07503.6301,W,0.13,208.73,090612,,,A*7E
$PMTK001,314,3*36
$PMTK001,220,3*30
$PMTK001,185,3*3C
$GPGGA,130656.000,4002.2744,N,07503.6301,W,1,7,1.17,9.7,M,-34.0,M,,*6B
$GPRMC,130656.000,A,4002.2744,N,07503.6301,W,0.43,208.73,090612,,,A*78
$GPGGA,1744,N,07503.6301,W,0.13,208.73,090612,,,A*7E
$PMTK001,314,3*36
$PMTK001,220,3*30
$PMTK001,185,3*3C
$GPGGA,130656.000,4002.2744,N,07503.6301,W,1,7,1.17,9.7,M,-34.0,M,,*6B
$GPRMC,130656.000,A,4002.2744,N,07503.6301,W,0.43,208.73,090612,,,A*78
$GPGGA,1744,N,07503.6301,W,0.13,208.73,090612,,,A*7E
$PMTK001,314,3*36
$PMTK001,220,3*30
$PMTK001,185,3*3C
$GPGGA,130656.000,4002.2744,N,07503.6301,W,1,7,1.17,9.7,M,-34.0,M,,*6B
$GPRMC,130656.000,A,4002.2744,N,07503.6301,W,0.43,208.73,090612,,,A*78
$GPGGA,1744,N,07503.6301,W,0.13,208.73,090612,,,A*7E
$PMTK001,314,3*36
$PMTK001,220,3*30
$PMTK001,185,3*3C
$GPGGA,130656.000,4002.2744,N,07503.6301,W,1,7,1.17,9.7,M,-34.0,M,,*6B
$GPRMC,130656.000,A,4002.2744,N,07503.6301,W,0.43,208.73,090612,,,A*78
$GPGGA,1744,N,07503.6301,W,0.13,208.73,090612,,,A*7E
$PMTK001,314,3*36
$PMTK001,220,3*30
$PMTK001,185,3*3C
$GPGGA,130656.000,4002.2744,N,07503.6301,W,1,7,1.17,9.7,M,-34.0,M,,*6B
$GPRMC,130656.000,A,4002.2744,N,07503.6301,W,0.43,208.73,090612,,,A*78
$GPGGA,1744,N,07503.6301,W,0.13,208.73,090612,,,A*7E
$PMTK001,314,3*36
$PMTK001,220,3*30
$PMTK001,185,3*3C
$GPGGA,130656.000,4002.2744,N,07503.6301,W,1,7,1.17,9.7,M,-34.0,M,,*6B
$GPRMC,130656.000,A,4002.2744,N,07503.6301,W,0.43,208.73,090612,,,A*78
$GPGGA,1744,N,07503.6301,W,0.13,208.73,090612,,,A*7E
$PMTK001,314,3*36
$PMTK001,220,3*30
$PMTK001,185,3*3C
$GPGGA,130656.000,4002.2744,N,07503.6301,W,1,7,1.17,9.7,M,-34.0,M,,*6B
$GPRMC,130656.000,A,4002.2744,N,07503.6301,W,0.43,208.73,090612,,,A*78
$GPGGA,1744,N,07503.6301,W,0.13,208.73,090612,,,A*7E
$PMTK001,314,3*36
$PMTK001,220,3*30
$PMTK001,185,3*3C
$GPGGA,130656.000,4002.2744,N,07503.6301,W,1,7,1.17,9.7,M,-34.0,M,,*6B
$GPRMC,130656.000,A,4002.2744,N,07503.6301,W,0.43,208.73,090612,,,A*78
$GPGGA,1744,N,07503.6301,W,0.13,208.73,090612,,,A*7E
$PMTK001,314,3*36
$PMTK001,220,3*30
$PMTK001,185,3*3C
$GPGGA,130656.000,4002.2744,N,07503.6301,W,1,7,1.17,9.7,M,-34.0,M,,*6B
$GPRMC,130656.000,A,4002.2744,N,07503.6301,W,0.43,208.73,090612,,,A*78
$GPGGA,1744,N,07503.6301,W,0.13,208.73,090612,,,A*7E
$PMTK001,314,3*36
$PMTK001,220,3*30
$PMTK001,185,3*3C
$GPGGA,130656.000,4002.2744,N,07503.6301,W,1,7,1.17,9.7,M,-34.0,M,,*6B
$GPRMC,130656.000,A,4002.2744,N,07503.6301,W,0.43,208.73,090612,,,A*78
$GPGGA,1744,N,07503.6301,W,0.13,208.73,090612,,,A*7E
$PMTK001,314,3*36
$PMTK001,220,3*30
$PMTK001,185,3*3C
$GPGGA,130656.000,4002.2744,N,07503.6301,W,1,7,1.17,9.7,M,-34.0,M,,*6B
$GPRMC,130656.000,A,4002.2744,N,07503.6301,W,0.43,208.73,090612,,,A*78
$GPGGA,1744,N,07503.6301,W,0.13,208.73,090612,,,A*7E
$PMTK001,314,3*36
$PMTK001,220,3*30
$PMTK001,185,3*3C
$GPGGA,130656.000,4002.2744,N,07503.6301,W,1,7,1.17,9.7,M,-34.0,M,,*6B
$GPRMC,130656.000,A,4002.2744,N,07503.6301,W,0.43,208.73,090612,,,A*78
$GPGGA,1744,N,07503.6301,W,0.13,208.73,090612,,,A*7E
$PMTK001,314,3*36
$PMTK001,220,3*30
$PMTK001,185,3*3C
$GPGGA,130656.000,4002.2744,N,07503.6301,W,1,7,1.17,9.7,M,-34.0,M,,*6B
$GPRMC,130656.000,A,4002.2744,N,07503.6301,W,0.43,208.73,090612,,,A*78
$GPGGA,1744,N,07503.6301,W,0.13,208.73,090612,,,A*7E
$PMTK001,314,3*36
$PMTK001,220,3*30
$PMTK001,185,3*3C
$GPGGA,130656.000,4002.2744,N,07503.6301,W,1,7,1.17,9.7,M,-34.0,M,,*6B
$GPRMC,130656.000,A,4002.2744,N,07503.6301,W,0.43,208.73,090612,,,A*78
$GPGGA,1744,N,07503.6301,W,0.13,208.73,090612,,,A*7E
$PMTK001,314,3*36
$PMTK001,220,3*30
$PMTK001,185,3*3C
$GPGGA,130656.000,4002.2744,N,07503.6301,W,1,7,1.17,9.7,M,-34.0,M,,*6B
$GPRMC,130656.000,A,4002.2744,N,07503.6301,W,0.43,208.73,090612,,,A*78
$GPGGA,1744,N,07503.6301,W,0.13,208.73,090612,,,A*7E
$PMTK001,314,3*36
$PMTK001,220,3*30
$PMTK001,185,3*3C
$GPGGA,130656.000,4002.2744,N,07503.6301,W,1,7,1.17,9.7,M,-34.0,M,,*6B
$GPRMC,130656.000,A,4002.2744,N,07503.6301,W,0.43,208.73,090612,,,A*78
$GPGGA,1744,N,07503.6301,W,0.13,208.73,090612,,,A*7E
$PMTK001,314,3*36
$PMTK001,220,3*30
$PMTK001,185,3*3C
$GPGGA,130656.000,4002.2744,N,07503.6301,W,1,7,1.17,9.7,M,-34.0,M,,*6B
$GPRMC,130656.000,A,4002.2744,N,07503.6301,W,0.43,208.73,090612,,,A*78
$GPGGA,1744,N,07503.6301,W,0.13,208.73,090612,,,A*7E
$PMTK001,314,3*36
$PMTK001,220,3*30
$PMTK001,185,3*3C
$GPGGA,130656.000,4002.2744,N,07503.6301,W,1,7,1.17,9.7,M,-34.0,M,,*6B
$GPRMC,130656.000,A,4002.2744,N,07503.6301,W,0.43,208.73,090612,,,A*78
$GPGGA,1744,N,07503.6301,W,0.13,208.73,090612,,,A*7E
$PMTK001,314,3*36
$PMTK001,220,3*30
$PMTK001,185,3*3C
$GPGGA,130656.000,4002.2744,N,07503.6301,W,1,7,1.17,9.7,M,-34.0,M,,*6B
$GPRMC,130656.000,A,4002.2744,N,07503.6301,W,0.43,208.73,090612,,,A*78
$GPGGA,1744,N,07503.6301,W,0.13,208.73,090612,,,A*7E
$PMTK001,314,3*36
$PMTK001,220,3*30
$PMTK001,185,3*3C
$GPGGA,130656.000,4002.2744,N,07503.6301,W,1,7,1.17,9.7,M,-34.0,M,,*6B
$GPRMC,130656.000,A,4002.2744,N,07503.6301,W,0.43,208.73,090612,,,A*78
$GPGGA,1744,N,07503.6301,W,0.13,208.73,090612,,,A*7E
$PMTK001,314,3*36
$PMTK001,220,3*30
$PMTK001,185,3*3C
$GPGGA,130656.000,4002.2744,N,07503.6301,W,1,7,1.17,9.7,M,-34.0,M,,*6B
$GPRMC,130656.000,A,4002.2744,N,07503.6301,W,0.43,208.73,090612,,,A*78
$GPGGA,1744,N,07503.6301,W,0.13,208.73,090612,,,A*7E
$PMTK001,314,3*36
$PMTK001,220,3*30
$PMTK001,185,3*3C
$GPGGA,130656.000,4002.2744,N,07503.6301,W,1,7,1.17,9.7,M,-34.0,M,,*6B
$GPRMC,130656.000,A,4002.2744,N,07503.6301,W,0.43,208.73,090612,,,A*78
$GPGGA,1744,N,07503.6301,W,0.13,208.73,090612,,,A*7E
$PMTK001,314,3*36
$PMTK001,220,3*30
$PMTK001,185,3*3C
$GPGGA,130656.000,4002.2744,N,07503.6301,W,1,7,1.17,9.7,M,-34.0,M,,*6B
$GPRMC,130656.000,A,4002.2744,N,07503.6301,W,0.43,208.73,090612,,,A*78
$GPGGA,1744,N,07503.6301,W,0.13,208.73,090612,,,A*7E
$PMTK001,314,3*36
$PMTK001,220,3*30
$PMTK001,185,3*3C
$GPGGA,130656.000,4002.2744,N,07503.6301,W,1,7,1.17,9.7,M,-34.0,M,,*6B
$GPRMC,130656.000,A,4002.2744,N,07503.6301,W,0.43,208.73,090612,,,A*78
$GPGGA,1744,N,07503.6301,W,0.13,208.73,090612,,,A*7E
$PMTK001,314,3*36
$PMTK001,220,3*30
$PMTK001,185,3*3C
$GPGGA,130656.000,4002.2744,N,07503.6301,W,1,7,1.17,9.7,M,-34.0,M,,*6B
$GPRMC,130656.000,A,4002.2744,N,07503.6301,W,0.43,208.73,090612,,,A*78
$GPGGA,1744,N,07503.6301,W,0.13,208.73,090612,,,A*7E
$PMTK001,314,3*36
$PMTK001,220,3*30
$PMTK001,185,3*3C
$GPGGA,130656.000,4002.2744,N,07503.6301,W,1,7,1.17,9.7,M,-34.0,M,,*6B
$GPRMC,130656.000,A,4002.2744,N,07503.6301,W,0.43,208.73,090612,,,A*78
$GPGGA,1744,N,07503.6301,W,0.13,208.73,090612,,,A*7E
$PMTK001,314,3*36
$PMTK001,220,3*30
$PMTK001,185,3*3C
$GPGGA,130656.000,4002.2744,N,07503.6301,W,1,7,1.17,9.7,M,-34.0,M,,*6B
$GPRMC,130656.000,A,4002.2744,N,07503.6301,W,0.43,208.73,090612,,,A*78
$GPGGA,1744,N,07503.6301,W,0.13,208.73,090612,,,A*7E
$PMTK001,314,3*36
$PMTK001,220,3*30
$PMTK001,185,3*3C
$GPGGA,130656.000,4002.2744,N,07503.6301,W,1,7,1.17,9.7,M,-34.0,M,,*6B
$GPRMC,130656.000,A,4002.2744,N,07503.6301,W,0.43,208.73,090612,,,A*78
$GPGGA,1744,N,07503.6301,W,0.13,208.73,090612,,,A*7E
$PMTK001,314,3*36
$PMTK001,220,3*30
$PMTK001,185,3*3C
$GPGGA,130656.000,4002.2744,N,07503.6301,W,1,7,1.17,9.7,M,-34.0,M,,*6B
$GPRMC,130656.000,A,4002.2744,N,07503.6301,W,0.43,208.73,090612,,,A*78
$GPGGA,1744,N,07503.6301,W,0.13,208.73,090612,,,A*7E
$PMTK001,314,3*36
$PMTK001,220,3*30
$PMTK001,185,3*3C
$GPGGA,130656.000,4002.2744,N,07503.6301,W,1,7,1.17,9.7,M,-34.0,M,,*6B
$GPRMC,130656.000,A,4002.2744,N,07503.6301,W,0.43,208.73,090612,,,A*78
$GPGGA,1744,N,07503.6301,W,0.13,208.73,090612,,,A*7E
$PMTK001,314,3*36
$PMTK001,220,3*30
$PMTK001,185,3*3C
$GPGGA,130656.000,4002.2744,N,07503.6301,W,1,7,1.17,9.7,M,-34.0,M,,*6B
$GPRMC,130656.000,A,4002.2744,N,07503.6301,W,0.43,208.73,090612,,,A*78
$GPGGA,1744,N,07503.6301,W,0.13,208.73,090612,,,A*7E
$PMTK001,314,3*36
$PMTK001,220,3*30
$PMTK001,185,3*3C
$GPGGA,130656.000,4002.2744,N,07503.6301,W,1,7,1.17,9.7,M,-34.0,M,,*6B
$GPRMC,130656.000,A,4002.2744,N,07503.6301,W,0.43,208.73,090612,,,A*78
$GPGGA,1744,N,07503.6301,W,0.13,208.73,090612,,,A*7E
$PMTK001,314,3*36
$PMTK001,220,3*30
$PMTK001,185,3*3C
$GPGGA,130656.000,4002.2744,N,07503.6301,W,1,7,1.17,9.7,M,-34.0,M,,*6B
$GPRMC,130656.000,A,4002.2744,N,07503.6301,W,0.43,208.73,090612,,,A*78
$GPGGA,1744,N,07503.6301,W,0.13,208.73,090612,,,A*7E
$PMTK001,314,3*36
$PMTK001,220,3*30
$PMTK001,185,3*3C
$GPGGA,130656.000,4002.2744,N,07503.6301,W,1,7,1.17,9.7,M,-34.0,M,,*6B
$GPRMC,130656.000,A,4002.2744,N,07503.6301,W,0.43,208.73,090612,,,A*78
$GPGGA,1744,N,07503.6301,W,0.13,208.73,090612,,,A*7E
$PMTK001,314,3*36
$PMTK001,220,3*30
$PMTK001,185,3*3C
$GPGGA,130656.000,4002.2744,N,07503.6301,W,1,7,1.17,9.7,M,-34.0,M,,*6B
$GPRMC,130656.000,A,4002.2744,N,07503.6301,W,0.43,208.73,090612,,,A*78
$GPGGA,1744,N,07503.6301,W,0.13,208.73,090612,,,A*7E
$PMTK001,314,3*36
$PMTK001,220,3*30
$PMTK001,185,3*3C
$GPGGA,130656.000,4002.2744,N,07503.6301,W,1,7,1.17,9.7,M,-34.0,M,,*6B
$GPRMC,130656.000,A,4002.2744,N,07503.6301,W,0.43,208.73,090612,,,A*78
$GPGGA,1744,N,07503.6301,W,0.13,208.73,090612,,,A*7E
$PMTK001,314,3*36
$PMTK001,220,3*30
$PMTK001,185,3*3C
$GPGGA,130656.000,4002.2744,N,07503.6301,W,1,7,1.17,9.7,M,-34.0,M,,*6B
$GPRMC,130656.000,A,4002.2744,N,07503.6301,W,0.43,208.73,090612,,,A*78
$GPGGA,1744,N,07503.6301,W,0.13,208.73,090612,,,A*7E
$PMTK001,314,3*36
$PMTK001,220,3*30
$PMTK001,185,3*3C
$GPGGA,130656.000,4002.2744,N,07503.6301,W,1,7,1.17,9.7,M,-34.0,M,,*6B
$GPRMC,130656.000,A,4002.2744,N,07503.6301,W,0.43,208.73,090612,,,A*78
$GPGGA,1744,N,07503.6301,W,0.13,208.73,090612,,,A*7E
$PMTK001,314,3*36
$PMTK001,220,3*30
$PMTK001,185,3*3C
$GPGGA,130656.000,4002.2744,N,07503.6301,W,1,7,1.17,9.7,M,-34.0,M,,*6B
$GPRMC,130656.000,A,4002.2744,N,07503.6301,W,0.43,208.73,090612,,,A*78
$GPGGA,1744,N,07503.6301,W,0.13,208.73,090612,,,A*7E
$PMTK001,314,3*36
$PMTK001,220,3*30
$PMTK001,185,3*3C
$GPGGA,130656.000,4002.2744,N,07503.6301,W,1,7,1.17,9.7,M,-34.0,M,,*6B
$GPRMC,130656.000,A,4002.2744,N,07503.6301,W,0.43,208.73,090612,,,A*78
$GPGGA,1744,N,07503.6301,W,0.13,208.73,090612,,,A*7E
$PMTK001,314,3*36
$PMTK001,220,3*30
$PMTK001,185,3*3C
$GPGGA,130656.000,4002.2744,N,07503.6301,W,1,7,1.17,9.7,M,-34.0,M,,*6B
$GPRMC,130656.000,A,4002.2744,N,07503.6301,W,0.43,208.73,090612,,,A*78
$GPGGA,1744,N,07503.6301,W,0.13,208.73,090612,,,A*7E
$PMTK001,314,3*36
$PMTK001,220,3*30
$PMTK001,185,3*3C
$GPGGA,130656.000,4002.2744,N,07503.6301,W,1,7,1.17,9.7,M,-34.0,M,,*6B
$GPRMC,130656.000,A,4002.2744,N,07503.6301,W,0.43,208.73,090612,,,A*78
$GPGGA,1744,N,07503.6301,W,0.13,208.73,090612,,,A*7E
$PMTK001,314,3*36
$PMTK001,220,3*30
$PMTK001,185,3*3C
$GPGGA,130656.000,4002.2744,N,07503.6301,W,1,7,1.17,9.7,M,-34.0,M,,*6B
$GPRMC,130656.000,A,4002.2744,N,07503.6301,W,0.43,208.73,090612,,,A*78
$GPGGA,1744,N,07503.6301,W,0.13,208.73,090612,,,A*7E
$PMTK001,314,3*36
$PMTK001,220,3*30
$PMTK001,185,3*3C
$GPGGA,130656.000,4002.2744,N,07503.6301,W,1,7,1.17,9.7,M,-34.0,M,,*6B
$GPRMC,130656.000,A,4002.2744,N,07503.6301,W,0.43,208.73,090612,,,A*78
$GPGGA,1744,N,07503.6301,W,0.13,208.73,090612,,,A*7E
$PMTK001,314,3*36
$PMTK001,220,3*30
$PMTK001,185,3*3C
$GPGGA,130656.000,4002.2744,N,07503.6301,W,1,7,1.17,9.7,M,-34.0,M,,*6B
$GPRMC,130656.000,A,4002.2744,N,07503.6301,W,0.43,208.73,090612,,,A*78
$GPGGA,1744,N,07503.6301,W,0.13,208.73,090612,,,A*7E
$PMTK001,314,3*36
$PMTK001,220,3*30
$PMTK001,185,3*3C
$GPGGA,130656.000,4002.2744,N,07503.6301,W,1,7,1.17,9.7,M,-34.0,M,,*6B
$GPRMC,130656.000,A,4002.2744,N,07503.6301,W,0.43,208.73,090612,,,A*78
$GPGGA,1744,N,07503.6301,W,0.13,208.73,090612,,,A*7E
$PMTK001,314,3*36
$PMTK001,220,3*30
$PMTK001,185,3*3C
$GPGGA,130656.000,4002.2744,N,07503.6301,W,1,7,1.17,9.7,M,-34.0,M,,*6B
$GPRMC,130656.000,A,4002.2744,N,07503.6301,W,0.43,208.73,090612,,,A*78
$GPGGA,1744,N,07503.6301,W,0.13,208.73,090612,,,A*7E
$PMTK001,314,3*36
$PMTK001,220,3*30
$PMTK001,185,3*3C
$GPGGA,130656.000,4002.2744,N,07503.6301,W,1,7,1.17,9.7,M,-34.0,M,,*6B
$GPRMC,130656.000,A,4002.2744,N,07503.6301,W,0.43,208.73,090612,,,A*78
$GPGGA,1744,N,07503.6301,W,0.13,208.73,090612,,,A*7E
$PMTK001,314,3*36
$PMTK001,220,3*30
$PMTK001,185,3*3C
$GPGGA,130656.000,4002.2744,N,07503.6301,W,1,7,1.17,9.7,M,-34.0,M,,*6B
$GPRMC,130656.000,A,4002.2744,N,07503.6301,W,0.43,208.73,090612,,,A*78
$GPGGA,1744,N,07503.6301,W,0.13,208.73,090612,,,A*7E
$PMTK001,314,3*36
$PMTK001,220,3*30
$PMTK001,185,3*3C
$GPGGA,130656.000,4002.2744,N,07503.6301,W,1,7,1.17,9.7,M,-34.0,M,,*6B
$GPRMC,130656.000,A,4002.2744,N,07503.6301,W,0.43,208.73,090612,,,A*78
$GPGGA,1744,N,07503.6301,W,0.13,208.73,090612,,,A*7E
$PMTK001,314,3*36
$PMTK001,220,3*30
$PMTK001,185,3*3C
$GPGGA,130656.000,4002.2744,N,07503.6301,W,1,7,1.17,9.7,M,-34.0,M,,*6B
$GPRMC,130656.000,A,4002.2744,N,07503.6301,W,0.43,208.73,090612,,,A*78
$GPGGA,1744,N,07503.6301,W,0.13,208.73,090612,,,A*7E
$PMTK001,314,3*36
$PMTK001,220,3*30
$PMTK001,185,3*3C
$GPGGA,130656.000,4002.2744,N,07503.6301,W,1,7,1.17,9.7,M,-34.0,M,,*6B
$GPRMC,130656.000,A,4002.2744,N,07503.6301,W,0.43,208.73,090612,,,A*78
$GPGGA,1744,N,07503.6301,W,0.13,208.73,090612,,,A*7E
$PMTK001,314,3*36
$PMTK001,220,3*30
$PMTK001,185,3*3C
$GPGGA,130656.000,4002.2744,N,07503.6301,W,1,7,1.17,9.7,M,-34.0,M,,*6B
$GPRMC,130656.000,A,4002.2744,N,07503.6301,W,0.43,208.73,090612,,,A*78
$GPGGA,1744,N,07503.6301,W,0.13,208.73,090612,,,A*7E
$PMTK001,314,3*36
$PMTK001,220,3*30
$PMTK001,185,3*3C
$GPGGA,130656.000,4002.2744,N,07503.6301,W,1,7,1.17,9.7,M,-34.0,M,,*6B
$GPRMC,130656.000,A,4002.2744,N,07503.6301,W,0.43,208.73,090612,,,A*78
$GPGGA,1744,N,07503.6301,W,0.13,208.73,090612,,,A*7E
$PMTK001,314,3*36
$PMTK001,220,3*30
$PMTK001,185,3*3C
$GPGGA,130656.000,4002.2744,N,07503.6301,W,1,7,1.17,9.7,M,-34.0,M,,*6B
$GPRMC,130656.000,A,4002.2744,N,07503.6301,W,0.43,208.73,090612,,,A*78
$GPGGA,1744,N,07503.6301,W,0.13,208.73,090612,,,A*7E
$PMTK001,314,3*36
$PMTK001,220,3*30
$PMTK001,185,3*3C
$GPGGA,130656.000,4002.2744,N,07503.6301,W,1,7,1.17,9.7,M,-34.0,M,,*6B
$GPRMC,130656.000,A,4002.2744,N,07503.6301,W,0.43,208.73,090612,,,A*78
$GPGGA,1744,N,07503.6301,W,0.13,208.73,090612,,,A*7E
$PMTK001,314,3*36
$PMTK001,220,3*30
$PMTK001,185,3*3C
$GPGGA,130656.000,4002.2744,N,07503.6301,W,1,7,1.17,9.7,M,-34.0,M,,*6B
$GPRMC,130656.000,A,4002.2744,N,07503.6301,W,0.43,208.73,090612,,,A*78
$GPGGA,1744,N,07503.6301,W,0.13,208.73,090612,,,A*7E
$PMTK001,314,3*36
$PMTK001,220,3*30
$PMTK001,185,3*3C
$GPGGA,130656.000,4002.2744,N,07503.6301,W,1,7,1.17,9.7,M,-34.0,M,,*6B
$GPRMC,130656.000,A,4002.2744,N,07503.6301,W,0.43,208.73,090612,,,A*78
$GPGGA,1744,N,07503.6301,W,0.13,208.73,090612,,,A*7E
$PMTK001,314,3*36
$PMTK001,220,3*30
$PMTK001,185,3*3C
$GPGGA,130656.000,4002.2744,N,07503.6301,W,1,7,1.17,9.7,M,-34.0,M,,*6B
$GPRMC,130656.000,A,4002.2744,N,07503.6301,W,0.43,208.73,090612,,,A*78
$GPGGA,1744,N,07503.6301,W,0.13,208.73,090612,,,A*7E
$PMTK001,314,3*36
$PMTK001,220,3*30
$PMTK001,185,3*3C
$GPGGA,130656.000,4002.2744,N,07503.6301,W,1,7,1.17,9.7,M,-34.0,M,,*6B
$GPRMC,130656.000,A,4002.2744,N,07503.6301,W,0.43,208.73,090612,,,A*78
$GPGGA,1744,N,07503.6301,W,0.13,208.73,090612,,,A*7E
$PMTK001,314,3*36
$PMTK001,220,3*30
$PMTK001,185,3*3C
$GPGGA,130656.000,4002.2744,N,07503.6301,W,1,7,1.17,9.7,M,-34.0,M,,*6B
$GPRMC,130656.000,A,4002.2744,N,07503.6301,W,0.43,208.73,090612,,,A*78
$GPGGA,1744,N,07503.6301,W,0.13,208.73,090612,,,A*7E
$PMTK001,314,3*36
$PMTK001,220,3*30
$PMTK001,185,3*3C
$GPGGA,130656.000,4002.2744,N,07503.6301,W,1,7,1.17,9.7,M,-34.0,M,,*6B
$GPRMC,130656.000,A,4002.2744,N,07503.6301,W,0.43,208.73,090612,,,A*78
$GPGGA,1744,N,07503.6301,W,0.13,208.73,090612,,,A*7E
$PMTK001,314,3*36
$PMTK001,220,3*30
$PMTK001,185,3*3C
$GPGGA,130656.000,4002.2744,N,07503.6301,W,1,7,1.17,9.7,M,-34.0,M,,*6B
$GPRMC,130656.000,A,4002.2744,N,07503.6301,W,0.43,208.73,090612,,,A*78
$GPGGA,1744,N,07503.6301,W,0.13,208.73,090612,,,A*7E
$PMTK001,314,3*36
$PMTK001,220,3*30
$PMTK001,185,3*3C
$GPGGA,130656.000,4002.2744,N,07503.6301,W,1,7,1.17,9.7,M,-34.0,M,,*6B
$GPRMC,130656.000,A,4002.2744,N,07503.6301,W,0.43,208.73,090612,,,A*78
$GPGGA,1