$GPGGA,165327.000,4026.7011,N,07520.5964,W,2,9,0.93,154.0,M,-33.9,M,0000,0000*67
$GPRMC,165327.000,A,4026.7011,N,07520.5964,W,0.21,325.09,100612,,,D*7E
$PMTK001,314,3*36
$PMTK001,220,3*30
$PMTK001,185,3*3C
$GPGGA,165328.000,4026.7011,N,07520.5964,W,2$GPGGA,165327.000,4026.7011,N,07520.5964,W,2,9,0.93,154.0,M,-33.9,M,0000,0000*67
$GPRMC,165327.000,A,4026.7011,N,07520.5964,W,0.21,325.09,100612,,,D*7E
$PMTK001,314,3*36
$PMTK001,220,3*30
$PMTK001,185,3*3C
$GPGGA,165328.000,4026.7011,N,07520.5964,W,2$GPGGA,165327.000,4026.7011,N,07520.5964,W,2,9,0.93,154.0,M,-33.9,M,0000,0000*67
$GPRMC,165327.000,A,4026.7011,N,07520.5964,W,0.21,325.09,100612,,,D*7E
$PMTK001,314,3*36
$PMTK001,220,3*30
$PMTK001,185,3*3C
$GPGGA,165328.000,4026.7011,N,07520.5964,W,2$GPGGA,165327.000,4026.7011,N,07520.5964,W,2,9,0.93,154.0,M,-33.9,M,0000,0000*67
$GPRMC,165327.000,A,4026.7011,N,07520.5964,W,0.21,325.09,100612,,,D*7E
$PMTK001,314,3*36
$PMTK001,220,3*30
$PMTK001,185,3*3C
$GPGGA,165328.000,4026.7011,N,07520.5964,W,2$GPGGA,165327.000,4026.7011,N,07520.5964,W,2,9,0.93,154.0,M,-33.9,M,0000,0000*67
$GPRMC,165327.000,A,4026.7011,N,07520.5964,W,0.21,325.09,100612,,,D*7E
$PMTK001,314,3*36
$PMTK001,220,3*30
$PMTK001,185,3*3C
$GPGGA,165328.000,4026.7011,N,07520.5964,W,2$GPGGA,165327.000,4026.7011,N,07520.5964,W,2,9,0.93,154.0,M,-33.9,M,0000,0000*67
$GPRMC,165327.000,A,4026.7011,N,07520.5964,W,0.21,325.09,100612,,,D*7E
$PMTK001,314,3*36
$PMTK001,220,3*30
$PMTK001,185,3*3C
$GPGGA,165328.000,4026.7011,N,07520.5964,W,2$GPGGA,165327.000,4026.7011,N,07520.5964,W,2,9,0.93,154.0,M,-33.9,M,0000,0000*67
$GPRMC,165327.000,A,4026.7011,N,07520.5964,W,0.21,325.09,100612,,,D*7E
$PMTK001,314,3*36
$PMTK001,220,3*30
$PMTK001,185,3*3C
$GPGGA,165328.000,4026.7011,N,07520.5964,W,2$GPGGA,165327.000,4026.7011,N,07520.5964,W,2,9,0.93,154.0,M,-33.9,M,0000,0000*67
$GPRMC,165327.000,A,4026.7011,N,07520.5964,W,0.21,325.09,100612,,,D*7E
$PMTK001,314,3*36
$PMTK001,220,3*30
$PMTK001,185,3*3C
$GPGGA,165328.000,4026.7011,N,07520.5964,W,2$GPGGA,165327.000,4026.7011,N,07520.5964,W,2,9,0.93,154.0,M,-33.9,M,0000,0000*67
$GPRMC,165327.000,A,4026.7011,N,07520.5964,W,0.21,325.09,100612,,,D*7E
$PMTK001,314,3*36
$PMTK001,220,3*30
$PMTK001,185,3*3C
$GPGGA,165328.000,4026.7011,N,07520.5964,W,2$GPGGA,165327.000,4026.7011,N,07520.5964,W,2,9,0.93,154.0,M,-33.9,M,0000,0000*67
$GPRMC,165327.000,A,4026.7011,N,07520.5964,W,0.21,325.09,100612,,,D*7E
$PMTK001,314,3*36
$PMTK001,220,3*30
$PMTK001,185,3*3C
$GPGGA,165328.000,4026.7011,N,07520.5964,W,2$GPGGA,165327.000,4026.7011,N,07520.5964,W,2,9,0.93,154.0,M,-33.9,M,0000,0000*67
$GPRMC,165327.000,A,4026.7011,N,07520.5964,W,0.21,325.09,100612,,,D*7E
$PMTK001,314,3*36
$PMTK001,220,3*30
$PMTK001,185,3*3C
$GPGGA,165328.000,4026.7011,N,07520.5964,W,2$GPGGA,165327.000,4026.7011,N,07520.5964,W,2,9,0.93,154.0,M,-33.9,M,0000,0000*67
$GPRMC,165327.000,A,4026.7011,N,07520.5964,W,0.21,325.09,100612,,,D*7E
$PMTK001,314,3*36
$PMTK001,220,3*30
$PMTK001,185,3*3C
$GPGGA,165328.000,4026.7011,N,07520.5964,W,2$GPGGA,165327.000,4026.7011,N,07520.5964,W,2,9,0.93,154.0,M,-33.9,M,0000,0000*67
$GPRMC,165327.000,A,4026.7011,N,07520.5964,W,0.21,325.09,100612,,,D*7E
$PMTK001,314,3*36
$PMTK001,220,3*30
$PMTK001,185,3*3C
$GPGGA,165328.000,4026.7011,N,07520.5964,W,2$GPGGA,165327.000,4026.7011,N,07520.5964,W,2,9,0.93,154.0,M,-33.9,M,0000,0000*67
$GPRMC,165327.000,A,4026.7011,N,07520.5964,W,0.21,325.09,100612,,,D*7E
$PMTK001,314,3*36
$PMTK001,220,3*30
$PMTK001,185,3*3C
$GPGGA,165328.000,4026.7011,N,07520.5964,W,2$GPGGA,165327.000,4026.7011,N,07520.5964,W,2,9,0.93,154.0,M,-33.9,M,0000,0000*67
$GPRMC,165327.000,A,4026.7011,N,07520.5964,W,0.21,325.09,100612,,,D*7E
$PMTK001,314,3*36
$PMTK001,220,3*30
$PMTK001,185,3*3C
$GPGGA,165328.000,4026.7011,N,07520.5964,W,2$GPGGA,165327.000,4026.7011,N,07520.5964,W,2,9,0.93,154.0,M,-33.9,M,0000,0000*67
$GPRMC,165327.000,A,4026.7011,N,07520.5964,W,0.21,325.09,100612,,,D*7E
$PMTK001,314,3*36
$PMTK001,220,3*30
$PMTK001,185,3*3C
$GPGGA,165328.000,4026.7011,N,07520.5964,W,2$GPGGA,165327.000,4026.7011,N,07520.5964,W,2,9,0.93,154.0,M,-33.9,M,0000,0000*67
$GPRMC,165327.000,A,4026.7011,N,07520.5964,W,0.21,325.09,100612,,,D*7E
$PMTK001,314,3*36
$PMTK001,220,3*30
$PMTK001,185,3*3C
$GPGGA,165328.000,4026.7011,N,07520.5964,W,2$GPGGA,165327.000,4026.7011,N,07520.5964,W,2,9,0.93,154.0,M,-33.9,M,0000,0000*67
$GPRMC,165327.000,A,4026.7011,N,07520.5964,W,0.21,325.09,100612,,,D*7E
$PMTK001,314,3*36
$PMTK001,220,3*30
$PMTK001,185,3*3C
$GPGGA,165328.000,4026.7011,N,07520.5964,W,2$GPGGA,165327.000,4026.7011,N,07520.5964,W,2,9,0.93,154.0,M,-33.9,M,0000,0000*67
$GPRMC,165327.000,A,4026.7011,N,07520.5964,W,0.21,325.09,100612,,,D*7E
$PMTK001,314,3*36
$PMTK001,220,3*30
$PMTK001,185,3*3C
$GPGGA,165328.000,4026.7011,N,07520.5964,W,2$GPGGA,165327.000,4026.7011,N,07520.5964,W,2,9,0.93,154.0,M,-33.9,M,0000,0000*67
$GPRMC,165327.000,A,4026.7011,N,07520.5964,W,0.21,325.09,100612,,,D*7E
$PMTK001,314,3*36
$PMTK001,220,3*30
$PMTK001,185,3*3C
$GPGGA,165328.000,4026.7011,N,07520.5964,W,2$GPGGA,165327.000,4026.7011,N,07520.5964,W,2,9,0.93,154.0,M,-33.9,M,0000,0000*67
$GPRMC,165327.000,A,4026.7011,N,07520.5964,W,0.21,325.09,100612,,,D*7E
$PMTK001,314,3*36
$PMTK001,220,3*30
$PMTK001,185,3*3C
$GPGGA,165328.000,4026.7011,N,07520.5964,W,2$GPGGA,165327.000,4026.7011,N,07520.5964,W,2,9,0.93,154.0,M,-33.9,M,0000,0000*67
$GPRMC,165327.000,A,4026.7011,N,07520.5964,W,0.21,325.09,100612,,,D*7E
$PMTK001,314,3*36
$PMTK001,220,3*30
$PMTK001,185,3*3C
$GPGGA,165328.000,4026.7011,N,07520.5964,W,2$GPGGA,165327.000,4026.7011,N,07520.5964,W,2,9,0.93,154.0,M,-33.9,M,0000,0000*67
$GPRMC,165327.000,A,4026.7011,N,07520.5964,W,0.21,325.09,100612,,,D*7E
$PMTK001,314,3*36
$PMTK001,220,3*30
$PMTK001,185,3*3C
$GPGGA,165328.000,4026.7011,N,07520.5964,W,2$GPGGA,165327.000,4026.7011,N,07520.5964,W,2,9,0.93,154.0,M,-33.9,M,0000,0000*67
$GPRMC,165327.000,A,4026.7011,N,07520.5964,W,0.21,325.09,100612,,,D*7E
$PMTK001,314,3*36
$PMTK001,220,3*30
$PMTK001,185,3*3C
$GPGGA,165328.000,4026.7011,N,07520.5964,W,2$GPGGA,165327.000,4026.7011,N,07520.5964,W,2,9,0.93,154.0,M,-33.9,M,0000,0000*67
$GPRMC,165327.000,A,4026.7011,N,07520.5964,W,0.21,325.09,100612,,,D*7E
$PMTK001,314,3*36
$PMTK001,220,3*30
$PMTK001,185,3*3C
$GPGGA,165328.000,4026.7011,N,07520.5964,W,2$GPGGA,165327.000,4026.7011,N,07520.5964,W,2,9,0.93,154.0,M,-33.9,M,0000,0000*67
$GPRMC,165327.000,A,4026.7011,N,07520.5964,W,0.21,325.09,100612,,,D*7E
$PMTK001,314,3*36
$PMTK001,220,3*30
$PMTK001,185,3*3C
$GPGGA,165328.000,4026.7011,N,07520.5964,W,2$GPGGA,165327.000,4026.7011,N,07520.5964,W,2,9,0.93,154.0,M,-33.9,M,0000,0000*67
$GPRMC,165327.000,A,4026.7011,N,07520.5964,W,0.21,325.09,100612,,,D*7E
$PMTK001,314,3*36
$PMTK001,220,3*30
$PMTK001,185,3*3C
$GPGGA,165328.000,4026.7011,N,07520.5964,W,2$GPGGA,165327.000,4026.7011,N,07520.5964,W,2,9,0.93,154.0,M,-33.9,M,0000,0000*67
$GPRMC,165327.000,A,4026.7011,N,07520.5964,W,0.21,325.09,100612,,,D*7E
$PMTK001,314,3*36
$PMTK001,220,3*30
$PMTK001,185,3*3C
$GPGGA,165328.000,4026.7011,N,07520.5964,W,2$GPGGA,165327.000,4026.7011,N,07520.5964,W,2,9,0.93,154.0,M,-33.9,M,0000,0000*67
$GPRMC,165327.000,A,4026.7011,N,07520.5964,W,0.21,325.09,100612,,,D*7E
$PMTK001,314,3*36
$PMTK001,220,3*30
$PMTK001,185,3*3C
$GPGGA,165328.000,4026.7011,N,07520.5964,W,2$GPGGA,165327.000,4026.7011,N,07520.5964,W,2,9,0.93,154.0,M,-33.9,M,0000,0000*67
$GPRMC,165327.000,A,4026.7011,N,07520.5964,W,0.21,325.09,100612,,,D*7E
$PMTK001,314,3*36
$PMTK001,220,3*30
$PMTK001,185,3*3C
$GPGGA,165328.000,4026.7011,N,07520.5964,W,2$GPGGA,165327.000,4026.7011,N,07520.5964,W,2,9,0.93,154.0,M,-33.9,M,0000,0000*67
$GPRMC,165327.000,A,4026.7011,N,07520.5964,W,0.21,325.09,100612,,,D*7E
$PMTK001,314,3*36
$PMTK001,220,3*30
$PMTK001,185,3*3C
$GPGGA,165328.000,4026.7011,N,07520.5964,W,2$GPGGA,165327.000,4026.7011,N,07520.5964,W,2,9,0.93,154.0,M,-33.9,M,0000,0000*67
$GPRMC,165327.000,A,4026.7011,N,07520.5964,W,0.21,325.09,100612,,,D*7E
$PMTK001,314,3*36
$PMTK001,220,3*30
$PMTK001,185,3*3C
$GPGGA,165328.000,4026.7011,N,07520.5964,W,2$GPGGA,165327.000,4026.7011,N,07520.5964,W,2,9,0.93,154.0,M,-33.9,M,0000,0000*67
$GPRMC,165327.000,A,4026.7011,N,07520.5964,W,0.21,325.09,100612,,,D*7E
$PMTK001,314,3*36
$PMTK001,220,3*30
$PMTK001,185,3*3C
$GPGGA,165328.000,4026.7011,N,07520.5964,W,2$GPGGA,165327.000,4026.7011,N,07520.5964,W,2,9,0.93,154.0,M,-33.9,M,0000,0000*67
$GPRMC,165327.000,A,4026.7011,N,07520.5964,W,0.21,325.09,100612,,,D*7E
$PMTK001,314,3*36
$PMTK001,220,3*30
$PMTK001,185,3*3C
$GPGGA,165328.000,4026.7011,N,07520.5964,W,2$GPGGA,165327.000,4026.7011,N,07520.5964,W,2,9,0.93,154.0,M,-33.9,M,0000,0000*67
$GPRMC,165327.000,A,4026.7011,N,07520.5964,W,0.21,325.09,100612,,,D*7E
$PMTK001,314,3*36
$PMTK001,220,3*30
$PMTK001,185,3*3C
$GPGGA,165328.000,4026.7011,N,07520.5964,W,2$GPGGA,165327.000,4026.7011,N,07520.5964,W,2,9,0.93,154.0,M,-33.9,M,0000,0000*67
$GPRMC,165327.000,A,4026.7011,N,07520.5964,W,0.21,325.09,100612,,,D*7E
$PMTK001,314,3*36
$PMTK001,220,3*30
$PMTK001,185,3*3C
$GPGGA,165328.000,4026.7011,N,07520.5964,W,2$GPGGA,165327.000,4026.7011,N,07520.5964,W,2,9,0.93,154.0,M,-33.9,M,0000,0000*67
$GPRMC,165327.000,A,4026.7011,N,07520.5964,W,0.21,325.09,100612,,,D*7E
$PMTK001,314,3*36
$PMTK001,220,3*30
$PMTK001,185,3*3C
$GPGGA,165328.000,4026.7011,N,07520.5964,W,2$GPGGA,165327.000,4026.7011,N,07520.5964,W,2,9,0.93,154.0,M,-33.9,M,0000,0000*67
$GPRMC,165327.000,A,4026.7011,N,07520.5964,W,0.21,325.09,100612,,,D*7E
$PMTK001,314,3*36
$PMTK001,220,3*30
$PMTK001,185,3*3C
$GPGGA,165328.000,4026.7011,N,07520.5964,W,2$GPGGA,165327.000,4026.7011,N,07520.5964,W,2,9,0.93,154.0,M,-33.9,M,0000,0000*67
$GPRMC,165327.000,A,4026.7011,N,07520.5964,W,0.21,325.09,100612,,,D*7E
$PMTK001,314,3*36
$PMTK001,220,3*30
$PMTK001,185,3*3C
$GPGGA,165328.000,4026.7011,N,07520.5964,W,2$GPGGA,165327.000,4026.7011,N,07520.5964,W,2,9,0.93,154.0,M,-33.9,M,0000,0000*67
$GPRMC,165327.000,A,4026.7011,N,07520.5964,W,0.21,325.09,100612,,,D*7E
$PMTK001,314,3*36
$PMTK001,220,3*30
$PMTK001,185,3*3C
$GPGGA,165328.000,4026.7011,N,07520.5964,W,2$GPGGA,165327.000,4026.7011,N,07520.5964,W,2,9,0.93,154.0,M,-33.9,M,0000,0000*67
$GPRMC,165327.000,A,4026.7011,N,07520.5964,W,0.21,325.09,100612,,,D*7E
$PMTK001,314,3*36
$PMTK001,220,3*30
$PMTK001,185,3*3C
$GPGGA,165328.000,4026.7011,N,07520.5964,W,2$GPGGA,165327.000,4026.7011,N,07520.5964,W,2,9,0.93,154.0,M,-33.9,M,0000,0000*67
$GPRMC,165327.000,A,4026.7011,N,07520.5964,W,0.21,325.09,100612,,,D*7E
$PMTK001,314,3*36
$PMTK001,220,3*30
$PMTK001,185,3*3C
$GPGGA,165328.000,4026.7011,N,07520.5964,W,2$GPGGA,165327.000,4026.7011,N,07520.5964,W,2,9,0.93,154.0,M,-33.9,M,0000,0000*67
$GPRMC,165327.000,A,4026.7011,N,07520.5964,W,0.21,325.09,100612,,,D*7E
$PMTK001,314,3*36
$PMTK001,220,3*30
$PMTK001,185,3*3C
$GPGGA,165328.000,4026.7011,N,07520.5964,W,2$GPGGA,165327.000,4026.7011,N,07520.5964,W,2,9,0.93,154.0,M,-33.9,M,0000,0000*67
$GPRMC,165327.000,A,4026.7011,N,07520.5964,W,0.21,325.09,100612,,,D*7E
$PMTK001,314,3*36
$PMTK001,220,3*30
$PMTK001,185,3*3C
$GPGGA,165328.000,4026.7011,N,07520.5964,W,2$GPGGA,165327.000,4026.7011,N,07520.5964,W,2,9,0.93,154.0,M,-33.9,M,0000,0000*67
$GPRMC,165327.000,A,4026.7011,N,07520.5964,W,0.21,325.09,100612,,,D*7E
$PMTK001,314,3*36
$PMTK001,220,3*30
$PMTK001,185,3*3C
$GPGGA,165328.000,4026.7011,N,07520.5964,W,2$GPGGA,165327.000,4026.7011,N,07520.5964,W,2,9,0.93,154.0,M,-33.9,M,0000,0000*67
$GPRMC,165327.000,A,4026.7011,N,07520.5964,W,0.21,325.09,100612,,,D*7E
$PMTK001,314,3*36
$PMTK001,220,3*30
$PMTK001,185,3*3C
$GPGGA,165328.000,4026.7011,N,07520.5964,W,2$GPGGA,165327.000,4026.7011,N,07520.5964,W,2,9,0.93,154.0,M,-33.9,M,0000,0000*67
$GPRMC,165327.000,A,4026.7011,N,07520.5964,W,0.21,325.09,100612,,,D*7E
$PMTK001,314,3*36
$PMTK001,220,3*30
$PMTK001,185,3*3C
$GPGGA,165328.000,4026.7011,N,07520.5964,W,2$GPGGA,165327.000,4026.7011,N,07520.5964,W,2,9,0.93,154.0,M,-33.9,M,0000,0000*67
$GPRMC,165327.000,A,4026.7011,N,07520.5964,W,0.21,325.09,100612,,,D*7E
$PMTK001,314,3*36
$PMTK001,220,3*30
$PMTK001,185,3*3C
$GPGGA,165328.000,4026.7011,N,07520.5964,W,2$GPGGA,165327.000,4026.7011,N,07520.5964,W,2,9,0.93,154.0,M,-33.9,M,0000,0000*67
$GPRMC,165327.000,A,4026.7011,N,07520.5964,W,0.21,325.09,100612,,,D*7E
$PMTK001,314,3*36
$PMTK001,220,3*30
$PMTK001,185,3*3C
$GPGGA,165328.000,4026.7011,N,07520.5964,W,2$GPGGA,165327.000,4026.7011,N,07520.5964,W,2,9,0.93,154.0,M,-33.9,M,0000,0000*67
$GPRMC,165327.000,A,4026.7011,N,07520.5964,W,0.21,325.09,100612,,,D*7E
$PMTK001,314,3*36
$PMTK001,220,3*30
$PMTK001,185,3*3C
$GPGGA,165328.000,4026.7011,N,07520.5964,W,2$GPGGA,165327.000,4026.7011,N,07520.5964,W,2,9,0.93,154.0,M,-33.9,M,0000,0000*67
$GPRMC,165327.000,A,4026.7011,N,07520.5964,W,0.21,325.09,100612,,,D*7E
$PMTK001,314,3*36
$PMTK001,220,3*30
$PMTK001,185,3*3C
$GPGGA,165328.000,4026.7011,N,07520.5964,W,2$GPGGA,165327.000,4026.7011,N,07520.5964,W,2,9,0.93,154.0,M,-33.9,M,0000,0000*67
$GPRMC,165327.000,A,4026.7011,N,07520.5964,W,0.21,325.09,100612,,,D*7E
$PMTK001,314,3*36
$PMTK001,220,3*30
$PMTK001,185,3*3C
$GPGGA,165328.000,4026.7011,N,07520.5964,W,2$GPGGA,165327.000,4026.7011,N,07520.5964,W,2,9,0.93,154.0,M,-33.9,M,0000,0000*67
$GPRMC,165327.000,A,4026.7011,N,07520.5964,W,0.21,325.09,100612,,,D*7E
$PMTK001,314,3*36
$PMTK001,220,3*30
$PMTK001,185,3*3C
$GPGGA,165328.000,4026.7011,N,07520.5964,W,2$GPGGA,165327.000,4026.7011,N,07520.5964,W,2,9,0.93,154.0,M,-33.9,M,0000,0000*67
$GPRMC,165327.000,A,4026.7011,N,07520.5964,W,0.21,325.09,100612,,,D*7E
$PMTK001,314,3*36
$PMTK001,220,3*30
$PMTK001,185,3*3C
$GPGGA,165328.000,4026.7011,N,07520.5964,W,2$GPGGA,165327.000,4026.7011,N,07520.5964,W,2,9,0.93,154.0,M,-33.9,M,0000,0000*67
$GPRMC,165327.000,A,4026.7011,N,07520.5964,W,0.21,325.09,100612,,,D*7E
$PMTK001,314,3*36
$PMTK001,220,3*30
$PMTK001,185,3*3C
$GPGGA,165328.000,4026.7011,N,07520.5964,W,2$GPGGA,165327.000,4026.7011,N,07520.5964,W,2,9,0.93,154.0,M,-33.9,M,0000,0000*67
$GPRMC,165327.000,A,4026.7011,N,07520.5964,W,0.21,325.09,100612,,,D*7E
$PMTK001,314,3*36
$PMTK001,220,3*30
$PMTK001,185,3*3C
$GPGGA,165328.000,4026.7011,N,07520.5964,W,2$GPGGA,165327.000,4026.7011,N,07520.5964,W,2,9,0.93,154.0,M,-33.9,M,0000,0000*67
$GPRMC,165327.000,A,4026.7011,N,07520.5964,W,0.21,325.09,100612,,,D*7E
$PMTK001,314,3*36
$PMTK001,220,3*30
$PMTK001,185,3*3C
$GPGGA,165328.000,4026.7011,N,07520.5964,W,2$GPGGA,165327.000,4026.7011,N,07520.5964,W,2,9,0.93,154.0,M,-33.9,M,0000,0000*67
$GPRMC,165327.000,A,4026.7011,N,07520.5964,W,0.21,325.09,100612,,,D*7E
$PMTK001,314,3*36
$PMTK001,220,3*30
$PMTK001,185,3*3C
$GPGGA,165328.000,4026.7011,N,07520.5964,W,2