$GPGGA,165728.000,4026.7008,N,07520.5971,W,2,10,0.83,153.5,M,-33.9,M,0000,0000*5B
$GPRMC,165728.000,A,4026.7008,N,07520.5971,W,0.04,325.09,100612,,,D*7E
$PMTK001,314,3*36
$PMTK001,220,3*30
$PMTK001,185,3*3C
$GPGGA,165729.000,4026.7009,N,07520.5971,W,$GPGGA,165728.000,4026.7008,N,07520.5971,W,2,10,0.83,153.5,M,-33.9,M,0000,0000*5B
$GPRMC,165728.000,A,4026.7008,N,07520.5971,W,0.04,325.09,100612,,,D*7E
$PMTK001,314,3*36
$PMTK001,220,3*30
$PMTK001,185,3*3C
$GPGGA,165729.000,4026.7009,N,07520.5971,W,$GPGGA,165728.000,4026.7008,N,07520.5971,W,2,10,0.83,153.5,M,-33.9,M,0000,0000*5B
$GPRMC,165728.000,A,4026.7008,N,07520.5971,W,0.04,325.09,100612,,,D*7E
$PMTK001,314,3*36
$PMTK001,220,3*30
$PMTK001,185,3*3C
$GPGGA,165729.000,4026.7009,N,07520.5971,W,$GPGGA,165728.000,4026.7008,N,07520.5971,W,2,10,0.83,153.5,M,-33.9,M,0000,0000*5B
$GPRMC,165728.000,A,4026.7008,N,07520.5971,W,0.04,325.09,100612,,,D*7E
$PMTK001,314,3*36
$PMTK001,220,3*30
$PMTK001,185,3*3C
$GPGGA,165729.000,4026.7009,N,07520.5971,W,$GPGGA,165728.000,4026.7008,N,07520.5971,W,2,10,0.83,153.5,M,-33.9,M,0000,0000*5B
$GPRMC,165728.000,A,4026.7008,N,07520.5971,W,0.04,325.09,100612,,,D*7E
$PMTK001,314,3*36
$PMTK001,220,3*30
$PMTK001,185,3*3C
$GPGGA,165729.000,4026.7009,N,07520.5971,W,$GPGGA,165728.000,4026.7008,N,07520.5971,W,2,10,0.83,153.5,M,-33.9,M,0000,0000*5B
$GPRMC,165728.000,A,4026.7008,N,07520.5971,W,0.04,325.09,100612,,,D*7E
$PMTK001,314,3*36
$PMTK001,220,3*30
$PMTK001,185,3*3C
$GPGGA,165729.000,4026.7009,N,07520.5971,W,$GPGGA,165728.000,4026.7008,N,07520.5971,W,2,10,0.83,153.5,M,-33.9,M,0000,0000*5B
$GPRMC,165728.000,A,4026.7008,N,07520.5971,W,0.04,325.09,100612,,,D*7E
$PMTK001,314,3*36
$PMTK001,220,3*30
$PMTK001,185,3*3C
$GPGGA,165729.000,4026.7009,N,07520.5971,W,$GPGGA,165728.000,4026.7008,N,07520.5971,W,2,10,0.83,153.5,M,-33.9,M,0000,0000*5B
$GPRMC,165728.000,A,4026.7008,N,07520.5971,W,0.04,325.09,100612,,,D*7E
$PMTK001,314,3*36
$PMTK001,220,3*30
$PMTK001,185,3*3C
$GPGGA,165729.000,4026.7009,N,07520.5971,W,$GPGGA,165728.000,4026.7008,N,07520.5971,W,2,10,0.83,153.5,M,-33.9,M,0000,0000*5B
$GPRMC,165728.000,A,4026.7008,N,07520.5971,W,0.04,325.09,100612,,,D*7E
$PMTK001,314,3*36
$PMTK001,220,3*30
$PMTK001,185,3*3C
$GPGGA,165729.000,4026.7009,N,07520.5971,W,$GPGGA,165728.000,4026.7008,N,07520.5971,W,2,10,0.83,153.5,M,-33.9,M,0000,0000*5B
$GPRMC,165728.000,A,4026.7008,N,07520.5971,W,0.04,325.09,100612,,,D*7E
$PMTK001,314,3*36
$PMTK001,220,3*30
$PMTK001,185,3*3C
$GPGGA,165729.000,4026.7009,N,07520.5971,W,$GPGGA,165728.000,4026.7008,N,07520.5971,W,2,10,0.83,153.5,M,-33.9,M,0000,0000*5B
$GPRMC,165728.000,A,4026.7008,N,07520.5971,W,0.04,325.09,100612,,,D*7E
$PMTK001,314,3*36
$PMTK001,220,3*30
$PMTK001,185,3*3C
$GPGGA,165729.000,4026.7009,N,07520.5971,W,$GPGGA,165728.000,4026.7008,N,07520.5971,W,2,10,0.83,153.5,M,-33.9,M,0000,0000*5B
$GPRMC,165728.000,A,4026.7008,N,07520.5971,W,0.04,325.09,100612,,,D*7E
$PMTK001,314,3*36
$PMTK001,220,3*30
$PMTK001,185,3*3C
$GPGGA,165729.000,4026.7009,N,07520.5971,W,$GPGGA,165728.000,4026.7008,N,07520.5971,W,2,10,0.83,153.5,M,-33.9,M,0000,0000*5B
$GPRMC,165728.000,A,4026.7008,N,07520.5971,W,0.04,325.09,100612,,,D*7E
$PMTK001,314,3*36
$PMTK001,220,3*30
$PMTK001,185,3*3C
$GPGGA,165729.000,4026.7009,N,07520.5971,W,$GPGGA,165728.000,4026.7008,N,07520.5971,W,2,10,0.83,153.5,M,-33.9,M,0000,0000*5B
$GPRMC,165728.000,A,4026.7008,N,07520.5971,W,0.04,325.09,100612,,,D*7E
$PMTK001,314,3*36
$PMTK001,220,3*30
$PMTK001,185,3*3C
$GPGGA,165729.000,4026.7009,N,07520.5971,W,$GPGGA,165728.000,4026.7008,N,07520.5971,W,2,10,0.83,153.5,M,-33.9,M,0000,0000*5B
$GPRMC,165728.000,A,4026.7008,N,07520.5971,W,0.04,325.09,100612,,,D*7E
$PMTK001,314,3*36
$PMTK001,220,3*30
$PMTK001,185,3*3C
$GPGGA,165729.000,4026.7009,N,07520.5971,W,$GPGGA,165728.000,4026.7008,N,07520.5971,W,2,10,0.83,153.5,M,-33.9,M,0000,0000*5B
$GPRMC,165728.000,A,4026.7008,N,07520.5971,W,0.04,325.09,100612,,,D*7E
$PMTK001,314,3*36
$PMTK001,220,3*30
$PMTK001,185,3*3C
$GPGGA,165729.000,4026.7009,N,07520.5971,W,$GPGGA,165728.000,4026.7008,N,07520.5971,W,2,10,0.83,153.5,M,-33.9,M,0000,0000*5B
$GPRMC,165728.000,A,4026.7008,N,07520.5971,W,0.04,325.09,100612,,,D*7E
$PMTK001,314,3*36
$PMTK001,220,3*30
$PMTK001,185,3*3C
$GPGGA,165729.000,4026.7009,N,07520.5971,W,$GPGGA,165728.000,4026.7008,N,07520.5971,W,2,10,0.83,153.5,M,-33.9,M,0000,0000*5B
$GPRMC,165728.000,A,4026.7008,N,07520.5971,W,0.04,325.09,100612,,,D*7E
$PMTK001,314,3*36
$PMTK001,220,3*30
$PMTK001,185,3*3C
$GPGGA,165729.000,4026.7009,N,07520.5971,W,$GPGGA,165728.000,4026.7008,N,07520.5971,W,2,10,0.83,153.5,M,-33.9,M,0000,0000*5B
$GPRMC,165728.000,A,4026.7008,N,07520.5971,W,0.04,325.09,100612,,,D*7E
$PMTK001,314,3*36
$PMTK001,220,3*30
$PMTK001,185,3*3C
$GPGGA,165729.000,4026.7009,N,07520.5971,W,$GPGGA,165728.000,4026.7008,N,07520.5971,W,2,10,0.83,153.5,M,-33.9,M,0000,0000*5B
$GPRMC,165728.000,A,4026.7008,N,07520.5971,W,0.04,325.09,100612,,,D*7E
$PMTK001,314,3*36
$PMTK001,220,3*30
$PMTK001,185,3*3C
$GPGGA,165729.000,4026.7009,N,07520.5971,W,$GPGGA,165728.000,4026.7008,N,07520.5971,W,2,10,0.83,153.5,M,-33.9,M,0000,0000*5B
$GPRMC,165728.000,A,4026.7008,N,07520.5971,W,0.04,325.09,100612,,,D*7E
$PMTK001,314,3*36
$PMTK001,220,3*30
$PMTK001,185,3*3C
$GPGGA,165729.000,4026.7009,N,07520.5971,W,$GPGGA,165728.000,4026.7008,N,07520.5971,W,2,10,0.83,153.5,M,-33.9,M,0000,0000*5B
$GPRMC,165728.000,A,4026.7008,N,07520.5971,W,0.04,325.09,100612,,,D*7E
$PMTK001,314,3*36
$PMTK001,220,3*30
$PMTK001,185,3*3C
$GPGGA,165729.000,4026.7009,N,07520.5971,W,$GPGGA,165728.000,4026.7008,N,07520.5971,W,2,10,0.83,153.5,M,-33.9,M,0000,0000*5B
$GPRMC,165728.000,A,4026.7008,N,07520.5971,W,0.04,325.09,100612,,,D*7E
$PMTK001,314,3*36
$PMTK001,220,3*30
$PMTK001,185,3*3C
$GPGGA,165729.000,4026.7009,N,07520.5971,W,$GPGGA,165728.000,4026.7008,N,07520.5971,W,2,10,0.83,153.5,M,-33.9,M,0000,0000*5B
$GPRMC,165728.000,A,4026.7008,N,07520.5971,W,0.04,325.09,100612,,,D*7E
$PMTK001,314,3*36
$PMTK001,220,3*30
$PMTK001,185,3*3C
$GPGGA,165729.000,4026.7009,N,07520.5971,W,$GPGGA,165728.000,4026.7008,N,07520.5971,W,2,10,0.83,153.5,M,-33.9,M,0000,0000*5B
$GPRMC,165728.000,A,4026.7008,N,07520.5971,W,0.04,325.09,100612,,,D*7E
$PMTK001,314,3*36
$PMTK001,220,3*30
$PMTK001,185,3*3C
$GPGGA,165729.000,4026.7009,N,07520.5971,W,$GPGGA,165728.000,4026.7008,N,07520.5971,W,2,10,0.83,153.5,M,-33.9,M,0000,0000*5B
$GPRMC,165728.000,A,4026.7008,N,07520.5971,W,0.04,325.09,100612,,,D*7E
$PMTK001,314,3*36
$PMTK001,220,3*30
$PMTK001,185,3*3C
$GPGGA,165729.000,4026.7009,N,07520.5971,W,$GPGGA,165728.000,4026.7008,N,07520.5971,W,2,10,0.83,153.5,M,-33.9,M,0000,0000*5B
$GPRMC,165728.000,A,4026.7008,N,07520.5971,W,0.04,325.09,100612,,,D*7E
$PMTK001,314,3*36
$PMTK001,220,3*30
$PMTK001,185,3*3C
$GPGGA,165729.000,4026.7009,N,07520.5971,W,$GPGGA,165728.000,4026.7008,N,07520.5971,W,2,10,0.83,153.5,M,-33.9,M,0000,0000*5B
$GPRMC,165728.000,A,4026.7008,N,07520.5971,W,0.04,325.09,100612,,,D*7E
$PMTK001,314,3*36
$PMTK001,220,3*30
$PMTK001,185,3*3C
$GPGGA,165729.000,4026.7009,N,07520.5971,W,$GPGGA,165728.000,4026.7008,N,07520.5971,W,2,10,0.83,153.5,M,-33.9,M,0000,0000*5B
$GPRMC,165728.000,A,4026.7008,N,07520.5971,W,0.04,325.09,100612,,,D*7E
$PMTK001,314,3*36
$PMTK001,220,3*30
$PMTK001,185,3*3C
$GPGGA,165729.000,4026.7009,N,07520.5971,W,$GPGGA,165728.000,4026.7008,N,07520.5971,W,2,10,0.83,153.5,M,-33.9,M,0000,0000*5B
$GPRMC,165728.000,A,4026.7008,N,07520.5971,W,0.04,325.09,100612,,,D*7E
$PMTK001,314,3*36
$PMTK001,220,3*30
$PMTK001,185,3*3C
$GPGGA,165729.000,4026.7009,N,07520.5971,W,$GPGGA,165728.000,4026.7008,N,07520.5971,W,2,10,0.83,153.5,M,-33.9,M,0000,0000*5B
$GPRMC,165728.000,A,4026.7008,N,07520.5971,W,0.04,325.09,100612,,,D*7E
$PMTK001,314,3*36
$PMTK001,220,3*30
$PMTK001,185,3*3C
$GPGGA,165729.000,4026.7009,N,07520.5971,W,$GPGGA,165728.000,4026.7008,N,07520.5971,W,2,10,0.83,153.5,M,-33.9,M,0000,0000*5B
$GPRMC,165728.000,A,4026.7008,N,07520.5971,W,0.04,325.09,100612,,,D*7E
$PMTK001,314,3*36
$PMTK001,220,3*30
$PMTK001,185,3*3C
$GPGGA,165729.000,4026.7009,N,07520.5971,W,$GPGGA,165728.000,4026.7008,N,07520.5971,W,2,10,0.83,153.5,M,-33.9,M,0000,0000*5B
$GPRMC,165728.000,A,4026.7008,N,07520.5971,W,0.04,325.09,100612,,,D*7E
$PMTK001,314,3*36
$PMTK001,220,3*30
$PMTK001,185,3*3C
$GPGGA,165729.000,4026.7009,N,07520.5971,W,$GPGGA,165728.000,4026.7008,N,07520.5971,W,2,10,0.83,153.5,M,-33.9,M,0000,0000*5B
$GPRMC,165728.000,A,4026.7008,N,07520.5971,W,0.04,325.09,100612,,,D*7E
$PMTK001,314,3*36
$PMTK001,220,3*30
$PMTK001,185,3*3C
$GPGGA,165729.000,4026.7009,N,07520.5971,W,$GPGGA,165728.000,4026.7008,N,07520.5971,W,2,10,0.83,153.5,M,-33.9,M,0000,0000*5B
$GPRMC,165728.000,A,4026.7008,N,07520.5971,W,0.04,325.09,100612,,,D*7E
$PMTK001,314,3*36
$PMTK001,220,3*30
$PMTK001,185,3*3C
$GPGGA,165729.000,4026.7009,N,07520.5971,W,$GPGGA,165728.000,4026.7008,N,07520.5971,W,2,10,0.83,153.5,M,-33.9,M,0000,0000*5B
$GPRMC,165728.000,A,4026.7008,N,07520.5971,W,0.04,325.09,100612,,,D*7E
$PMTK001,314,3*36
$PMTK001,220,3*30
$PMTK001,185,3*3C
$GPGGA,165729.000,4026.7009,N,07520.5971,W,$GPGGA,165728.000,4026.7008,N,07520.5971,W,2,10,0.83,153.5,M,-33.9,M,0000,0000*5B
$GPRMC,165728.000,A,4026.7008,N,07520.5971,W,0.04,325.09,100612,,,D*7E
$PMTK001,314,3*36
$PMTK001,220,3*30
$PMTK001,185,3*3C
$GPGGA,165729.000,4026.7009,N,07520.5971,W,$GPGGA,165728.000,4026.7008,N,07520.5971,W,2,10,0.83,153.5,M,-33.9,M,0000,0000*5B
$GPRMC,165728.000,A,4026.7008,N,07520.5971,W,0.04,325.09,100612,,,D*7E
$PMTK001,314,3*36
$PMTK001,220,3*30
$PMTK001,185,3*3C
$GPGGA,165729.000,4026.7009,N,07520.5971,W,$GPGGA,165728.000,4026.7008,N,07520.5971,W,2,10,0.83,153.5,M,-33.9,M,0000,0000*5B
$GPRMC,165728.000,A,4026.7008,N,07520.5971,W,0.04,325.09,100612,,,D*7E
$PMTK001,314,3*36
$PMTK001,220,3*30
$PMTK001,185,3*3C
$GPGGA,165729.000,4026.7009,N,07520.5971,W,$GPGGA,165728.000,4026.7008,N,07520.5971,W,2,10,0.83,153.5,M,-33.9,M,0000,0000*5B
$GPRMC,165728.000,A,4026.7008,N,07520.5971,W,0.04,325.09,100612,,,D*7E
$PMTK001,314,3*36
$PMTK001,220,3*30
$PMTK001,185,3*3C
$GPGGA,165729.000,4026.7009,N,07520.5971,W,$GPGGA,165728.000,4026.7008,N,07520.5971,W,2,10,0.83,153.5,M,-33.9,M,0000,0000*5B
$GPRMC,165728.000,A,4026.7008,N,07520.5971,W,0.04,325.09,100612,,,D*7E
$PMTK001,314,3*36
$PMTK001,220,3*30
$PMTK001,185,3*3C
$GPGGA,165729.000,4026.7009,N,07520.5971,W,$GPGGA,165728.000,4026.7008,N,07520.5971,W,2,10,0.83,153.5,M,-33.9,M,0000,0000*5B
$GPRMC,165728.000,A,4026.7008,N,07520.5971,W,0.04,325.09,100612,,,D*7E
$PMTK001,314,3*36
$PMTK001,220,3*30
$PMTK001,185,3*3C
$GPGGA,165729.000,4026.7009,N,07520.5971,W,$GPGGA,165728.000,4026.7008,N,07520.5971,W,2,10,0.83,153.5,M,-33.9,M,0000,0000*5B
$GPRMC,165728.000,A,4026.7008,N,07520.5971,W,0.04,325.09,100612,,,D*7E
$PMTK001,314,3*36
$PMTK001,220,3*30
$PMTK001,185,3*3C
$GPGGA,165729.000,4026.7009,N,07520.5971,W,$GPGGA,165728.000,4026.7008,N,07520.5971,W,2,10,0.83,153.5,M,-33.9,M,0000,0000*5B
$GPRMC,165728.000,A,4026.7008,N,07520.5971,W,0.04,325.09,100612,,,D*7E
$PMTK001,314,3*36
$PMTK001,220,3*30
$PMTK001,185,3*3C
$GPGGA,165729.000,4026.7009,N,07520.5971,W,$GPGGA,165728.000,4026.7008,N,07520.5971,W,2,10,0.83,153.5,M,-33.9,M,0000,0000*5B
$GPRMC,165728.000,A,4026.7008,N,07520.5971,W,0.04,325.09,100612,,,D*7E
$PMTK001,314,3*36
$PMTK001,220,3*30
$PMTK001,185,3*3C
$GPGGA,165729.000,4026.7009,N,07520.5971,W,$GPGGA,165728.000,4026.7008,N,07520.5971,W,2,10,0.83,153.5,M,-33.9,M,0000,0000*5B
$GPRMC,165728.000,A,4026.7008,N,07520.5971,W,0.04,325.09,100612,,,D*7E
$PMTK001,314,3*36
$PMTK001,220,3*30
$PMTK001,185,3*3C
$GPGGA,165729.000,4026.7009,N,07520.5971,W,$GPGGA,165728.000,4026.7008,N,07520.5971,W,2,10,0.83,153.5,M,-33.9,M,0000,0000*5B
$GPRMC,165728.000,A,4026.7008,N,07520.5971,W,0.04,325.09,100612,,,D*7E
$PMTK001,314,3*36
$PMTK001,220,3*30
$PMTK001,185,3*3C
$GPGGA,165729.000,4026.7009,N,07520.5971,W,$GPGGA,165728.000,4026.7008,N,07520.5971,W,2,10,0.83,153.5,M,-33.9,M,0000,0000*5B
$GPRMC,165728.000,A,4026.7008,N,07520.5971,W,0.04,325.09,100612,,,D*7E
$PMTK001,314,3*36
$PMTK001,220,3*30
$PMTK001,185,3*3C
$GPGGA,165729.000,4026.7009,N,07520.5971,W,$GPGGA,165728.000,4026.7008,N,07520.5971,W,2,10,0.83,153.5,M,-33.9,M,0000,0000*5B
$GPRMC,165728.000,A,4026.7008,N,07520.5971,W,0.04,325.09,100612,,,D*7E
$PMTK001,314,3*36
$PMTK001,220,3*30
$PMTK001,185,3*3C
$GPGGA,165729.000,4026.7009,N,07520.5971,W,$GPGGA,165728.000,4026.7008,N,07520.5971,W,2,10,0.83,153.5,M,-33.9,M,0000,0000*5B
$GPRMC,165728.000,A,4026.7008,N,07520.5971,W,0.04,325.09,100612,,,D*7E
$PMTK001,314,3*36
$PMTK001,220,3*30
$PMTK001,185,3*3C
$GPGGA,165729.000,4026.7009,N,07520.5971,W,$GPGGA,165728.000,4026.7008,N,07520.5971,W,2,10,0.83,153.5,M,-33.9,M,0000,0000*5B
$GPRMC,165728.000,A,4026.7008,N,07520.5971,W,0.04,325.09,100612,,,D*7E
$PMTK001,314,3*36
$PMTK001,220,3*30
$PMTK001,185,3*3C
$GPGGA,165729.000,4026.7009,N,07520.5971,W,$GPGGA,165728.000,4026.7008,N,07520.5971,W,2,10,0.83,153.5,M,-33.9,M,0000,0000*5B
$GPRMC,165728.000,A,4026.7008,N,07520.5971,W,0.04,325.09,100612,,,D*7E
$PMTK001,314,3*36
$PMTK001,220,3*30
$PMTK001,185,3*3C
$GPGGA,165729.000,4026.7009,N,07520.5971,W,$GPGGA,165728.000,4026.7008,N,07520.5971,W,2,10,0.83,153.5,M,-33.9,M,0000,0000*5B
$GPRMC,165728.000,A,4026.7008,N,07520.5971,W,0.04,325.09,100612,,,D*7E
$PMTK001,314,3*36
$PMTK001,220,3*30
$PMTK001,185,3*3C
$GPGGA,165729.000,4026.7009,N,07520.5971,W,$GPGGA,165728.000,4026.7008,N,07520.5971,W,2,10,0.83,153.5,M,-33.9,M,0000,0000*5B
$GPRMC,165728.000,A,4026.7008,N,07520.5971,W,0.04,325.09,100612,,,D*7E
$PMTK001,314,3*36
$PMTK001,220,3*30
$PMTK001,185,3*3C
$GPGGA,165729.000,4026.7009,N,07520.5971,W,$GPGGA,165728.000,4026.7008,N,07520.5971,W,2,10,0.83,153.5,M,-33.9,M,0000,0000*5B
$GPRMC,165728.000,A,4026.7008,N,07520.5971,W,0.04,325.09,100612,,,D*7E
$PMTK001,314,3*36
$PMTK001,220,3*30
$PMTK001,185,3*3C
$GPGGA,165729.000,4026.7009,N,07520.5971,W,$GPGGA,165728.000,4026.7008,N,07520.5971,W,2,10,0.83,153.5,M,-33.9,M,0000,0000*5B
$GPRMC,165728.000,A,4026.7008,N,07520.5971,W,0.04,325.09,100612,,,D*7E
$PMTK001,314,3*36
$PMTK001,220,3*30
$PMTK001,185,3*3C
$GPGGA,165729.000,4026.7009,N,07520.5971,W,$GPGGA,165728.000,4026.7008,N,07520.5971,W,2,10,0.83,153.5,M,-33.9,M,0000,0000*5B
$GPRMC,165728.000,A,4026.7008,N,07520.5971,W,0.04,325.09,100612,,,D*7E
$PMTK001,314,3*36
$PMTK001,220,3*30
$PMTK001,185,3*3C
$GPGGA,165729.000,4026.7009,N,07520.5971,W,$GPGGA,165728.000,4026.7008,N,07520.5971,W,2,10,0.83,153.5,M,-33.9,M,0000,0000*5B
$GPRMC,165728.000,A,4026.7008,N,07520.5971,W,0.04,325.09,100612,,,D*7E
$PMTK001,314,3*36
$PMTK001,220,3*30
$PMTK001,185,3*3C
$GPGGA,165729.000,4026.7009,N,07520.5971,W,$GPGGA,165728.000,4026.7008,N,07520.5971,W,2,10,0.83,153.5,M,-33.9,M,0000,0000*5B
$GPRMC,165728.000,A,4026.7008,N,07520.5971,W,0.04,325.09,100612,,,D*7E
$PMTK001,314,3*36
$PMTK001,220,3*30
$PMTK001,185,3*3C
$GPGGA,165729.000,4026.7009,N,07520.5971,W,$GPGGA,165728.000,4026.7008,N,07520.5971,W,2,10,0.83,153.5,M,-33.9,M,0000,0000*5B
$GPRMC,165728.000,A,4026.7008,N,07520.5971,W,0.04,325.09,100612,,,D*7E
$PMTK001,314,3*36
$PMTK001,220,3*30
$PMTK001,185,3*3C
$GPGGA,165729.000,4026.7009,N,07520.5971,W,$GPGGA,165728.000,4026.7008,N,07520.5971,W,2,10,0.83,153.5,M,-33.9,M,0000,0000*5B
$GPRMC,165728.000,A,4026.7008,N,07520.5971,W,0.04,325.09,100612,,,D*7E
$PMTK001,314,3*36
$PMTK001,220,3*30
$PMTK001,185,3*3C
$GPGGA,165729.000,4026.7009,N,07520.5971,W,$GPGGA,165728.000,4026.7008,N,07520.5971,W,2,10,0.83,153.5,M,-33.9,M,0000,0000*5B
$GPRMC,165728.000,A,4026.7008,N,07520.5971,W,0.04,325.09,100612,,,D*7E
$PMTK001,314,3*36
$PMTK001,220,3*30
$PMTK001,185,3*3C
$GPGGA,165729.000,4026.7009,N,07520.5971,W,$GPGGA,165728.000,4026.7008,N,07520.5971,W,2,10,0.83,153.5,M,-33.9,M,0000,0000*5B
$GPRMC,165728.000,A,4026.7008,N,07520.5971,W,0.04,325.09,100612,,,D*7E
$PMTK001,314,3*36
$PMTK001,220,3*30
$PMTK001,185,3*3C
$GPGGA,165729.000,4026.7009,N,07520.5971,W,$GPGGA,165728.000,4026.7008,N,07520.5971,W,2,10,0.83,153.5,M,-33.9,M,0000,0000*5B
$GPRMC,165728.000,A,4026.7008,N,07520.5971,W,0.04,325.09,100612,,,D*7E
$PMTK001,314,3*36
$PMTK001,220,3*30
$PMTK001,185,3*3C
$GPGGA,165729.000,4026.7009,N,07520.5971,W,$GPGGA,165728.000,4026.7008,N,07520.5971,W,2,10,0.83,153.5,M,-33.9,M,0000,0000*5B
$GPRMC,165728.000,A,4026.7008,N,07520.5971,W,0.04,325.09,100612,,,D*7E
$PMTK001,314,3*36
$PMTK001,220,3*30
$PMTK001,185,3*3C
$GPGGA,165729.000,4026.7009,N,07520.5971,W,$GPGGA,165728.000,4026.7008,N,07520.5971,W,2,10,0.83,153.5,M,-33.9,M,0000,0000*5B
$GPRMC,165728.000,A,4026.7008,N,07520.5971,W,0.04,325.09,100612,,,D*7E
$PMTK001,314,3*36
$PMTK001,220,3*30
$PMTK001,185,3*3C
$GPGGA,165729.000,4026.7009,N,07520.5971,W,$GPGGA,165728.000,4026.7008,N,07520.5971,W,2,10,0.83,153.5,M,-33.9,M,0000,0000*5B
$GPRMC,165728.000,A,4026.7008,N,07520.5971,W,0.04,325.09,100612,,,D*7E
$PMTK001,314,3*36
$PMTK001,220,3*30
$PMTK001,185,3*3C
$GPGGA,165729.000,4026.7009,N,07520.5971,W,$GPGGA,165728.000,4026.7008,N,07520.5971,W,2,10,0.83,153.5,M,-33.9,M,0000,0000*5B
$GPRMC,165728.000,A,4026.7008,N,07520.5971,W,0.04,325.09,100612,,,D*7E
$PMTK001,314,3*36
$PMTK001,220,3*30
$PMTK001,185,3*3C
$GPGGA,165729.000,4026.7009,N,07520.5971,W,$GPGGA,165728.000,4026.7008,N,07520.5971,W,2,10,0.83,153.5,M,-33.9,M,0000,0000*5B
$GPRMC,165728.000,A,4026.7008,N,07520.5971,W,0.04,325.09,100612,,,D*7E
$PMTK001,314,3*36
$PMTK001,220,3*30
$PMTK001,185,3*3C
$GPGGA,165729.000,4026.7009,N,07520.5971,W,$GPGGA,165728.000,4026.7008,N,07520.5971,W,2,10,0.83,153.5,M,-33.9,M,0000,0000*5B
$GPRMC,165728.000,A,4026.7008,N,07520.5971,W,0.04,325.09,100612,,,D*7E
$PMTK001,314,3*36
$PMTK001,220,3*30
$PMTK001,185,3*3C
$GPGGA,165729.000,4026.7009,N,07520.5971,W,$GPGGA,165728.000,4026.7008,N,07520.5971,W,2,10,0.83,153.5,M,-33.9,M,0000,0000*5B
$GPRMC,165728.000,A,4026.7008,N,07520.5971,W,0.04,325.09,100612,,,D*7E
$PMTK001,314,3*36
$PMTK001,220,3*30
$PMTK001,185,3*3C
$GPGGA,165729.000,4026.7009,N,07520.5971,W,$GPGGA,165728.000,4026.7008,N,07520.5971,W,2,10,0.83,153.5,M,-33.9,M,0000,0000*5B
$GPRMC,165728.000,A,4026.7008,N,07520.5971,W,0.04,325.09,100612,,,D*7E
$PMTK001,314,3*36
$PMTK001,220,3*30
$PMTK001,185,3*3C
$GPGGA,165729.000,4026.7009,N,07520.5971,W,$GPGGA,165728.000,4026.7008,N,07520.5971,W,2,10,0.83,153.5,M,-33.9,M,0000,0000*5B
$GPRMC,165728.000,A,4026.7008,N,07520.5971,W,0.04,325.09,100612,,,D*7E
$PMTK001,314,3*36
$PMTK001,220,3*30
$PMTK001,185,3*3C
$GPGGA,165729.000,4026.7009,N,07520.5971,W,$GPGGA,165728.000,4026.7008,N,07520.5971,W,2,10,0.83,153.5,M,-33.9,M,0000,0000*5B
$GPRMC,165728.000,A,4026.7008,N,07520.5971,W,0.04,325.09,100612,,,D*7E
$PMTK001,314,3*36
$PMTK001,220,3*30
$PMTK001,185,3*3C
$GPGGA,165729.000,4026.7009,N,07520.5971,W,$GPGGA,165728.000,4026.7008,N,07520.5971,W,2,10,0.83,153.5,M,-33.9,M,0000,0000*5B
$GPRMC,165728.000,A,4026.7008,N,07520.5971,W,0.04,325.09,100612,,,D*7E
$PMTK001,314,3*36
$PMTK001,220,3*30
$PMTK001,185,3*3C
$GPGGA,165729.000,4026.7009,N,07520.5971,W,$GPGGA,165728.000,4026.7008,N,07520.5971,W,2,10,0.83,153.5,M,-33.9,M,0000,0000*5B
$GPRMC,165728.000,A,4026.7008,N,07520.5971,W,0.04,325.09,100612,,,D*7E
$PMTK001,314,3*36
$PMTK001,220,3*30
$PMTK001,185,3*3C
$GPGGA,165729.000,4026.7009,N,07520.5971,W,$GPGGA,165728.000,4026.7008,N,07520.5971,W,2,10,0.83,153.5,M,-33.9,M,0000,0000*5B
$GPRMC,165728.000,A,4026.7008,N,07520.5971,W,0.04,325.09,100612,,,D*7E
$PMTK001,314,3*36
$PMTK001,220,3*30
$PMTK001,185,3*3C
$GPGGA,165729.000,4026.7009,N,07520.5971,W,$GPGGA,165728.000,4026.7008,N,07520.5971,W,2,10,0.83,153.5,M,-33.9,M,0000,0000*5B
$GPRMC,165728.000,A,4026.7008,N,07520.5971,W,0.04,325.09,100612,,,D*7E
$PMTK001,314,3*36
$PMTK001,220,3*30
$PMTK001,185,3*3C
$GPGGA,165729.000,4026.7009,N,07520.5971,W,$GPGGA,165728.000,4026.7008,N,07520.5971,W,2,10,0.83,153.5,M,-33.9,M,0000,0000*5B
$GPRMC,165728.000,A,4026.7008,N,07520.5971,W,0.04,325.09,100612,,,D*7E
$PMTK001,314,3*36
$PMTK001,220,3*30
$PMTK001,185,3*3C
$GPGGA,165729.000,4026.7009,N,07520.5971,W,$GPGGA,165728.000,4026.7008,N,07520.5971,W,2,10,0.83,153.5,M,-33.9,M,0000,0000*5B
$GPRMC,165728.000,A,4026.7008,N,07520.5971,W,0.04,325.09,100612,,,D*7E
$PMTK001,314,3*36
$PMTK001,220,3*30
$PMTK001,185,3*3C
$GPGGA,165729.000,4026.7009,N,07520.5971,W,$GPGGA,165728.000,4026.7008,N,07520.5971,W,2,10,0.83,153.5,M,-33.9,M,0000,0000*5B
$GPRMC,165728.000,A,4026.7008,N,07520.5971,W,0.04,325.09,100612,,,D*7E
$PMTK001,314,3*36
$PMTK001,220,3*30
$PMTK001,185,3*3C
$GPGGA,165729.000,4026.7009,N,07520.5971,W,$GPGGA,165728.000,4026.7008,N,07520.5971,W,2,10,0.83,153.5,M,-33.9,M,0000,0000*5B
$GPRMC,165728.000,A,4026.7008,N,07520.5971,W,0.04,325.09,100612,,,D*7E
$PMTK001,314,3*36
$PMTK001,220,3*30
$PMTK001,185,3*3C
$GPGGA,165729.000,4026.7009,N,07520.5971,W,$GPGGA,165728.000,4026.7008,N,07520.5971,W,2,10,0.83,153.5,M,-33.9,M,0000,0000*5B
$GPRMC,165728.000,A,4026.7008,N,07520.5971,W,0.04,325.09,100612,,,D*7E
$PMTK001,314,3*36
$PMTK001,220,3*30
$PMTK001,185,3*3C
$GPGGA,165729.000,4026.7009,N,07520.5971,W,$GPGGA,165728.000,4026.7008,N,07520.5971,W,2,10,0.83,153.5,M,-33.9,M,0000,0000*5B
$GPRMC,165728.000,A,4026.7008,N,07520.5971,W,0.04,325.09,100612,,,D*7E
$PMTK001,314,3*36
$PMTK001,220,3*30
$PMTK001,185,3*3C
$GPGGA,165729.000,4026.7009,N,07520.5971,W,$GPGGA,165728.000,4026.7008,N,07520.5971,W,2,10,0.83,153.5,M,-33.9,M,0000,0000*5B
$GPRMC,165728.000,A,4026.7008,N,07520.5971,W,0.04,325.09,100612,,,D*7E
$PMTK001,314,3*36
$PMTK001,220,3*30
$PMTK001,185,3*3C
$GPGGA,165729.000,4026.7009,N,07520.5971,W,$GPGGA,165728.000,4026.7008,N,07520.5971,W,2,10,0.83,153.5,M,-33.9,M,0000,0000*5B
$GPRMC,165728.000,A,4026.7008,N,07520.5971,W,0.04,325.09,100612,,,D*7E
$PMTK001,314,3*36
$PMTK001,220,3*30
$PMTK001,185,3*3C
$GPGGA,165729.000,4026.7009,N,07520.5971,W,$GPGGA,165728.000,4026.7008,N,07520.5971,W,2,10,0.83,153.5,M,-33.9,M,0000,0000*5B
$GPRMC,165728.000,A,4026.7008,N,07520.5971,W,0.04,325.09,100612,,,D*7E
$PMTK001,314,3*36
$PMTK001,220,3*30
$PMTK001,185,3*3C
$GPGGA,165729.000,4026.7009,N,07520.5971,W,$GPGGA,165728.000,4026.7008,N,07520.5971,W,2,10,0.83,153.5,M,-33.9,M,0000,0000*5B
$GPRMC,165728.000,A,4026.7008,N,07520.5971,W,0.04,325.09,100612,,,D*7E
$PMTK001,314,3*36
$PMTK001,220,3*30
$PMTK001,185,3*3C
$GPGGA,165729.000,4026.7009,N,07520.5971,W,$GPGGA,165728.000,4026.7008,N,07520.5971,W,2,10,0.83,153.5,M,-33.9,M,0000,0000*5B
$GPRMC,165728.000,A,4026.7008,N,07520.5971,W,0.04,325.09,100612,,,D*7E
$PMTK001,314,3*36
$PMTK001,220,3*30
$PMTK001,185,3*3C
$GPGGA,165729.000,4026.7009,N,07520.5971,W,$GPGGA,165728.000,4026.7008,N,07520.5971,W,2,10,0.83,153.5,M,-33.9,M,0000,0000*5B
$GPRMC,165728.000,A,4026.7008,N,07520.5971,W,0.04,325.09,100612,,,D*7E
$PMTK001,314,3*36
$PMTK001,220,3*30
$PMTK001,185,3*3C
$GPGGA,165729.000,4026.7009,N,07520.5971,W,$GPGGA,165728.000,4026.7008,N,07520.5971,W,2,10,0.83,153.5,M,-33.9,M,0000,0000*5B
$GPRMC,165728.000,A,4026.7008,N,07520.5971,W,0.04,325.09,100612,,,D*7E
$PMTK001,314,3*36
$PMTK001,220,3*30
$PMTK001,185,3*3C
$GPGGA,165729.000,4026.7009,N,07520.5971,W,$GPGGA,165728.000,4026.7008,N,07520.5971,W,2,10,0.83,153.5,M,-33.9,M,0000,0000*5B
$GPRMC,165728.000,A,4026.7008,N,07520.5971,W,0.04,325.09,100612,,,D*7E
$PMTK001,314,3*36
$PMTK001,220,3*30
$PMTK001,185,3*3C
$GPGGA,165729.000,4026.7009,N,07520.5971,W,$GPGGA,165728.000,4026.7008,N,07520.5971,W,2,10,0.83,153.5,M,-33.9,M,0000,0000*5B
$GPRMC,165728.000,A,4026.7008,N,07520.5971,W,0.04,325.09,100612,,,D*7E
$PMTK001,314,3*36
$PMTK001,220,3*30
$PMTK001,185,3*3C
$GPGGA,165729.000,4026.7009,N,07520.5971,W,$GPGGA,165728.000,4026.7008,N,07520.5971,W,2,10,0.83,153.5,M,-33.9,M,0000,0000*5B
$GPRMC,165728.000,A,4026.7008,N,07520.5971,W,0.04,325.09,100612,,,D*7E
$PMTK001,314,3*36
$PMTK001,220,3*30
$PMTK001,185,3*3C
$GPGGA,165729.000,4026.7009,N,07520.5971,W,$GPGGA,165728.000,4026.7008,N,07520.5971,W,2,10,0.83,153.5,M,-33.9,M,0000,0000*5B
$GPRMC,165728.000,A,4026.7008,N,07520.5971,W,0.04,325.09,100612,,,D*7E
$PMTK001,314,3*36
$PMTK001,220,3*30
$PMTK001,185,3*3C
$GPGGA,165729.000,4026.7009,N,07520.5971,W,$GPGGA,165728.000,4026.7008,N,07520.5971,W,2,10,0.83,153.5,M,-33.9,M,0000,0000*5B
$GPRMC,165728.000,A,4026.7008,N,07520.5971,W,0.04,325.09,100612,,,D*7E
$PMTK001,314,3*36
$PMTK001,220,3*30
$PMTK001,185,3*3C
$GPGGA,165729.000,4026.7009,N,07520.5971,W,$GPGGA,165728.000,4026.7008,N,07520.5971,W,2,10,0.83,153.5,M,-33.9,M,0000,0000*5B
$GPRMC,165728.000,A,4026.7008,N,07520.5971,W,0.04,325.09,100612,,,D*7E
$PMTK001,314,3*36
$PMTK001,220,3*30
$PMTK001,185,3*3C
$GPGGA,165729.000,4026.7009,N,07520.5971,W,$GPGGA,165728.000,4026.7008,N,07520.5971,W,2,10,0.83,153.5,M,-33.9,M,0000,0000*5B
$GPRMC,165728.000,A,4026.7008,N,07520.5971,W,0.04,325.09,100612,,,D*7E
$PMTK001,314,3*36
$PMTK001,220,3*30
$PMTK001,185,3*3C
$GPGGA,165729.000,4026.7009,N,07520.5971,W,$GPGGA,165728.000,4026.7008,N,07520.5971,W,2,10,0.83,153.5,M,-33.9,M,0000,0000*5B
$GPRMC,165728.000,A,4026.7008,N,07520.5971,W,0.04,325.09,100612,,,D*7E
$PMTK001,314,3*36
$PMTK001,220,3*30
$PMTK001,185,3*3C
$GPGGA,165729.000,4026.7009,N,07520.5971,W,$GPGGA,165728.000,4026.7008,N,07520.5971,W,2,10,0.83,153.5,M,-33.9,M,0000,0000*5B
$GPRMC,165728.000,A,4026.7008,N,07520.5971,W,0.04,325.09,100612,,,D*7E
$PMTK001,314,3*36
$PMTK001,220,3*30
$PMTK001,185,3*3C
$GPGGA,165729.000,4026.7009,N,07520.5971,W,$GPGGA,165728.000,4026.7008,N,07520.5971,W,2,10,0.83,153.5,M,-33.9,M,0000,0000*5B
$GPRMC,165728.000,A,4026.7008,N,07520.5971,W,0.04,325.09,100612,,,D*7E
$PMTK001,314,3*36
$PMTK001,220,3*30
$PMTK001,185,3*3C
$GPGGA,165729.000,4026.7009,N,07520.5971,W,$GPGGA,165728.000,4026.7008,N,07520.5971,W,2,10,0.83,153.5,M,-33.9,M,0000,0000*5B
$GPRMC,165728.000,A,4026.7008,N,07520.5971,W,0.04,325.09,100612,,,D*7E
$PMTK001,314,3*36
$PMTK001,220,3*30
$PMTK001,185,3*3C
$GPGGA,165729.000,4026.7009,N,07520.5971,W,$GPGGA,165728.000,4026.7008,N,07520.5971,W,2,10,0.83,153.5,M,-33.9,M,0000,0000*5B
$GPRMC,165728.000,A,4026.7008,N,07520.5971,W,0.04,325.09,100612,,,D*7E
$PMTK001,314,3*36
$PMTK001,220,3*30
$PMTK001,185,3*3C
$GPGGA,165729.000,4026.7009,N,07520.5971,W,$GPGGA,165728.000,4026.7008,N,07520.5971,W,2,10,0.83,153.5,M,-33.9,M,0000,0000*5B
$GPRMC,165728.000,A,4026.7008,N,07520.5971,W,0.04,325.09,100612,,,D*7E
$PMTK001,314,3*36
$PMTK001,220,3*30
$PMTK001,185,3*3C
$GPGGA,165729.000,4026.7009,N,07520.5971,W,$GPGGA,165728.000,4026.7008,N,07520.5971,W,2,10,0.83,153.5,M,-33.9,M,0000,0000*5B
$GPRMC,165728.000,A,4026.7008,N,07520.5971,W,0.04,325.09,100612,,,D*7E
$PMTK001,314,3*36
$PMTK001,220,3*30
$PMTK001,185,3*3C
$GPGGA,165729.000,4026.7009,N,07520.5971,W,$GPGGA,165728.000,4026.7008,N,07520.5971,W,2,10,0.83,153.5,M,-33.9,M,0000,0000*5B
$GPRMC,165728.000,A,4026.7008,N,07520.5971,W,0.04,325.09,100612,,,D*7E
$PMTK001,314,3*36
$PMTK001,220,3*30
$PMTK001,185,3*3C
$GPGGA,165729.000,4026.7009,N,07520.5971,W,$GPGGA,165728.000,4026.7008,N,07520.5971,W,2,10,0.83,153.5,M,-33.9,M,0000,0000*5B
$GPRMC,165728.000,A,4026.7008,N,07520.5971,W,0.04,325.09,100612,,,D*7E
$PMTK001,314,3*36
$PMTK001,220,3*30
$PMTK001,185,3*3C
$GPGGA,165729.000,4026.7009,N,07520.5971,W,$GPGGA,165728.000,4026.7008,N,07520.5971,W,2,10,0.83,153.5,M,-33.9,M,0000,0000*5B
$GPRMC,165728.000,A,4026.7008,N,07520.5971,W,0.04,325.09,100612,,,D*7E
$PMTK001,314,3*36
$PMTK001,220,3*30
$PMTK001,185,3*3C
$GPGGA,165729.000,4026.7009,N,07520.5971,W,$GPGGA,165728.000,4026.7008,N,07520.5971,W,2,10,0.83,153.5,M,-33.9,M,0000,0000*5B
$GPRMC,165728.000,A,4026.7008,N,07520.5971,W,0.04,325.09,100612,,,D*7E
$PMTK001,314,3*36
$PMTK001,220,3*30
$PMTK001,185,3*3C
$GPGGA,165729.000,4026.7009,N,07520.5971,W,$GPGGA,165728.000,4026.7008,N,07520.5971,W,2,10,0.83,153.5,M,-33.9,M,0000,0000*5B
$GPRMC,165728.000,A,4026.7008,N,07520.5971,W,0.04,325.09,100612,,,D*7E
$PMTK001,314,3*36
$PMTK001,220,3*30
$PMTK001,185,3*3C
$GPGGA,165729.000,4026.7009,N,07520.5971,W,$GPGGA,165728.000,4026.7008,N,07520.5971,W,2,10,0.83,153.5,M,-33.9,M,0000,0000*5B
$GPRMC,165728.000,A,4026.7008,N,07520.5971,W,0.04,325.09,100612,,,D*7E
$PMTK001,314,3*36
$PMTK001,220,3*30
$PMTK001,185,3*3C
$GPGGA,165729.000,4026.7009,N,07520.5971,W,$GPGGA,165728.000,4026.7008,N,07520.5971,W,2,10,0.83,153.5,M,-33.9,M,0000,0000*5B
$GPRMC,165728.000,A,4026.7008,N,07520.5971,W,0.04,325.09,100612,,,D*7E
$PMTK001,314,3*36
$PMTK001,220,3*30
$PMTK001,185,3*3C
$GPGGA,165729.000,4026.7009,N,07520.5971,W,$GPGGA,165728.000,4026.7008,N,07520.5971,W,2,10,0.83,153.5,M,-33.9,M,0000,0000*5B
$GPRMC,165728.000,A,4026.7008,N,07520.5971,W,0.04,325.09,100612,,,D*7E
$PMTK001,314,3*36
$PMTK001,220,3*30
$PMTK001,185,3*3C
$GPGGA,165729.000,4026.7009,N,07520.5971,W,$GPGGA,165728.000,4026.7008,N,07520.5971,W,2,10,0.83,153.5,M,-33.9,M,0000,0000*5B
$GPRMC,165728.000,A,4026.7008,N,07520.5971,W,0.04,325.09,100612,,,D*7E
$PMTK001,314,3*36
$PMTK001,220,3*30
$PMTK001,185,3*3C
$GPGGA,165729.000,4026.7009,N,07520.5971,W,$GPGGA,165728.000,4026.7008,N,07520.5971,W,2,10,0.83,153.5,M,-33.9,M,0000,0000*5B
$GPRMC,165728.000,A,4026.7008,N,07520.5971,W,0.04,325.09,100612,,,D*7E
$PMTK001,314,3*36
$PMTK001,220,3*30
$PMTK001,185,3*3C
$GPGGA,165729.000,4026.7009,N,07520.5971,W,$GPGGA,165728.000,4026.7008,N,07520.5971,W,2,10,0.83,153.5,M,-33.9,M,0000,0000*5B
$GPRMC,165728.000,A,4026.7008,N,07520.5971,W,0.04,325.09,100612,,,D*7E
$PMTK001,314,3*36
$PMTK001,220,3*30
$PMTK001,185,3*3C
$GPGGA,165729.000,4026.7009,N,07520.5971,W,$GPGGA,165728.000,4026.7008,N,07520.5971,W,2,10,0.83,153.5,M,-33.9,M,0000,0000*5B
$GPRMC,165728.000,A,4026.7008,N,07520.5971,W,0.04,325.09,100612,,,D*7E
$PMTK001,314,3*36
$PMTK001,220,3*30
$PMTK001,185,3*3C
$GPGGA,165729.000,4026.7009,N,07520.5971,W,$GPGGA,165728.000,4026.7008,N,07520.5971,W,2,10,0.83,153.5,M,-33.9,M,0000,0000*5B
$GPRMC,165728.000,A,4026.7008,N,07520.5971,W,0.04,325.09,100612,,,D*7E
$PMTK001,314,3*36
$PMTK001,220,3*30
$PMTK001,185,3*3C
$GPGGA,165729.000,4026.7009,N,07520.5971,W,$GPGGA,165728.000,4026.7008,N,07520.5971,W,2,10,0.83,153.5,M,-33.9,M,0000,0000*5B
$GPRMC,165728.000,A,4026.7008,N,07520.5971,W,0.04,325.09,100612,,,D*7E
$PMTK001,314,3*36
$PMTK001,220,3*30
$PMTK001,185,3*3C
$GPGGA,165729.000,4026.7009,N,07520.5971,W,$GPGGA,165728.000,4026.7008,N,07520.5971,W,2,10,0.83,153.5,M,-33.9,M,0000,0000*5B
$GPRMC,165728.000,A,4026.7008,N,07520.5971,W,0.04,325.09,100612,,,D*7E
$PMTK001,314,3*36
$PMTK001,220,3*30
$PMTK001,185,3*3C
$GPGGA,165729.000,4026.7009,N,07520.5971,W,$GPGGA,165728.000,4026.7008,N,07520.5971,W,2,10,0.83,153.5,M,-33.9,M,0000,0000*5B
$GPRMC,165728.000,A,4026.7008,N,07520.5971,W,0.04,325.09,100612,,,D*7E
$PMTK001,314,3*36
$PMTK001,220,3*30
$PMTK001,185,3*3C
$GPGGA,165729.000,4026.7009,N,07520.5971,W,$GPGGA,165728.000,4026.7008,N,07520.5971,W,2,10,0.83,153.5,M,-33.9,M,0000,0000*5B
$GPRMC,165728.000,A,4026.7008,N,07520.5971,W,0.04,325.09,100612,,,D*7E
$PMTK001,314,3*36
$PMTK001,220,3*30
$PMTK001,185,3*3C
$GPGGA,165729.000,4026.7009,N,07520.5971,W,$GPGGA,165728.000,4026.7008,N,07520.5971,W,2,10,0.83,153.5,M,-33.9,M,0000,0000*5B
$GPRMC,165728.000,A,4026.7008,N,07520.5971,W,0.04,325.09,100612,,,D*7E
$PMTK001,314,3*36
$PMTK001,220,3*30
$PMTK001,185,3*3C
$GPGGA,165729.000,4026.7009,N,07520.5971,W,$GPGGA,165728.000,4026.7008,N,07520.5971,W,2,10,0.83,153.5,M,-33.9,M,0000,0000*5B
$GPRMC,165728.000,A,4026.7008,N,07520.5971,W,0.04,325.09,100612,,,D*7E
$PMTK001,314,3*36
$PMTK001,220,3*30
$PMTK001,185,3*3C
$GPGGA,165729.000,4026.7009,N,07520.5971,W,$GPGGA,165728.000,4026.7008,N,07520.5971,W,2,10,0.83,153.5,M,-33.9,M,0000,0000*5B
$GPRMC,165728.000,A,4026.7008,N,07520.5971,W,0.04,325.09,100612,,,D*7E
$PMTK001,314,3*36
$PMTK001,220,3*30
$PMTK001,185,3*3C
$GPGGA,165729.000,4026.7009,N,07520.5971,W,$GPGGA,165728.000,4026.7008,N,07520.5971,W,2,10,0.83,153.5,M,-33.9,M,0000,0000*5B
$GPRMC,165728.000,A,4026.7008,N,07520.5971,W,0.04,325.09,100612,,,D*7E
$PMTK001,314,3*36
$PMTK001,220,3*30
$PMTK001,185,3*3C
$GPGGA,165729.000,4026.7009,N,07520.5971,W,$GPGGA,165728.000,4026.7008,N,07520.5971,W,2,10,0.83,153.5,M,-33.9,M,0000,0000*5B
$GPRMC,165728.000,A,4026.7008,N,07520.5971,W,0.04,325.09,100612,,,D*7E
$PMTK001,314,3*36
$PMTK001,220,3*30
$PMTK001,185,3*3C
$GPGGA,165729.000,4026.7009,N,07520.5971,W,$GPGGA,165728.000,4026.7008,N,07520.5971,W,2,10,0.83,153.5,M,-33.9,M,0000,0000*5B
$GPRMC,165728.000,A,4026.7008,N,07520.5971,W,0.04,325.09,100612,,,D*7E
$PMTK001,314,3*36
$PMTK001,220,3*30
$PMTK001,185,3*3C
$GPGGA,165729.000,4026.7009,N,07520.5971,W,$GPGGA,165728.000,4026.7008,N,07520.5971,W,2,10,0.83,153.5,M,-33.9,M,0000,0000*5B
$GPRMC,165728.000,A,4026.7008,N,07520.5971,W,0.04,325.09,100612,,,D*7E
$PMTK001,314,3*36
$PMTK001,220,3*30
$PMTK001,185,3*3C
$GPGGA,165729.000,4026.7009,N,07520.5971,W,$GPGGA,165728.000,4026.7008,N,07520.5971,W,2,10,0.83,153.5,M,-33.9,M,0000,0000*5B
$GPRMC,165728.000,A,4026.7008,N,07520.5971,W,0.04,325.09,100612,,,D*7E
$PMTK001,314,3*36
$PMTK001,220,3*30
$PMTK001,185,3*3C
$GPGGA,165729.000,4026.7009,N,07520.5971,W,$GPGGA,165728.000,4026.7008,N,07520.5971,W,2,10,0.83,153.5,M,-33.9,M,0000,0000*5B
$GPRMC,165728.000,A,4026.7008,N,07520.5971,W,0.04,325.09,100612,,,D*7E
$PMTK001,314,3*36
$PMTK001,220,3*30
$PMTK001,185,3*3C
$GPGGA,165729.000,4026.7009,N,07520.5971,W,$GPGGA,165728.000,4026.7008,N,07520.5971,W,2,10,0.83,153.5,M,-33.9,M,0000,0000*5B
$GPRMC,165728.000,A,4026.7008,N,07520.5971,W,0.04,325.09,100612,,,D*7E
$PMTK001,314,3*36
$PMTK001,220,3*30
$PMTK001,185,3*3C
$GPGGA,165729.000,4026.7009,N,07520.5971,W,$GPGGA,165728.000,4026.7008,N,07520.5971,W,2,10,0.83,153.5,M,-33.9,M,0000,0000*5B
$GPRMC,165728.000,A,4026.7008,N,07520.5971,W,0.04,325.09,100612,,,D*7E
$PMTK001,314,3*36
$PMTK001,220,3*30
$PMTK001,185,3*3C
$GPGGA,165729.000,4026.7009,N,07520.5971,W,$GPGGA,165728.000,4026.7008,N,07520.5971,W,2,10,0.83,153.5,M,-33.9,M,0000,0000*5B
$GPRMC,165728.000,A,4026.7008,N,07520.5971,W,0.04,325.09,100612,,,D*7E
$PMTK001,314,3*36
$PMTK001,220,3*30
$PMTK001,185,3*3C
$GPGGA,165729.000,4026.7009,N,07520.5971,W,$GPGGA,165728.000,4026.7008,N,07520.5971,W,2,10,0.83,153.5,M,-33.9,M,0000,0000*5B
$GPRMC,165728.000,A,4026.7008,N,07520.5971,W,0.04,325.09,100612,,,D*7E
$PMTK001,314,3*36
$PMTK001,220,3*30
$PMTK001,185,3*3C
$GPGGA,165729.000,4026.7009,N,07520.5971,W,$GPGGA,165728.000,4026.7008,N,07520.5971,W,2,10,0.83,153.5,M,-33.9,M,0000,0000*5B
$GPRMC,165728.000,A,4026.7008,N,07520.5971,W,0.04,325.09,100612,,,D*7E
$PMTK001,314,3*36
$PMTK001,220,3*30
$PMTK001,185,3*3C
$GPGGA,165729.000,4026.7009,N,07520.5971,W,$GPGGA,165728.000,4026.7008,N,07520.5971,W,2,10,0.83,153.5,M,-33.9,M,0000,0000*5B
$GPRMC,165728.000,A,4026.7008,N,07520.5971,W,0.04,325.09,100612,,,D*7E
$PMTK001,314,3*36
$PMTK001,220,3*30
$PMTK001,185,3*3C
$GPGGA,165729.000,4026.7009,N,07520.5971,W,$GPGGA,165728.000,4026.7008,N,07520.5971,W,2,10,0.83,153.5,M,-33.9,M,0000,0000*5B
$GPRMC,165728.000,A,4026.7008,N,07520.5971,W,0.04,325.09,100612,,,D*7E
$PMTK001,314,3*36
$PMTK001,220,3*30
$PMTK001,185,3*3C
$GPGGA,165729.000,4026.7009,N,07520.5971,W,$GPGGA,165728.000,4026.7008,N,07520.5971,W,2,10,0.83,153.5,M,-33.9,M,0000,0000*5B
$GPRMC,165728.000,A,4026.7008,N,07520.5971,W,0.04,325.09,100612,,,D*7E
$PMTK001,314,3*36
$PMTK001,220,3*30
$PMTK001,185,3*3C
$GPGGA,165729.000,4026.7009,N,07520.5971,W,$GPGGA,165728.000,4026.7008,N,07520.5971,W,2,10,0.83,153.5,M,-33.9,M,0000,0000*5B
$GPRMC,165728.000,A,4026.7008,N,07520.5971,W,0.04,325.09,100612,,,D*7E
$PMTK001,314,3*36
$PMTK001,220,3*30
$PMTK001,185,3*3C
$GPGGA,165729.000,4026.7009,N,07520.5971,W,$GPGGA,165728.000,4026.7008,N,07520.5971,W,2,10,0.83,153.5,M,-33.9,M,0000,0000*5B
$GPRMC,165728.000,A,4026.7008,N,07520.5971,W,0.04,325.09,100612,,,D*7E
$PMTK001,314,3*36
$PMTK001,220,3*30
$PMTK001,185,3*3C
$GPGGA,165729.000,4026.7009,N,07520.5971,W,$GPGGA,165728.000,4026.7008,N,07520.5971,W,2,10,0.83,153.5,M,-33.9,M,0000,0000*5B
$GPRMC,165728.000,A,4026.7008,N,07520.5971,W,0.04,325.09,100612,,,D*7E
$PMTK001,314,3*36
$PMTK001,220,3*30
$PMTK001,185,3*3C
$GPGGA,165729.000,4026.7009,N,07520.5971,W,$GPGGA,165728.000,4026.7008,N,07520.5971,W,2,10,0.83,153.5,M,-33.9,M,0000,0000*5B
$GPRMC,165728.000,A,4026.7008,N,07520.5971,W,0.04,325.09,100612,,,D*7E
$PMTK001,314,3*36
$PMTK001,220,3*30
$PMTK001,185,3*3C
$GPGGA,165729.000,4026.7009,N,07520.5971,W,$GPGGA,165728.000,4026.7008,N,07520.5971,W,2,10,0.83,153.5,M,-33.9,M,0000,0000*5B
$GPRMC,165728.000,A,4026.7008,N,07520.5971,W,0.04,325.09,100612,,,D*7E
$PMTK001,314,3*36
$PMTK001,220,3*30
$PMTK001,185,3*3C
$GPGGA,165729.000,4026.7009,N,07520.5971,W,$GPGGA,165728.000,4026.7008,N,07520.5971,W,2,10,0.83,153.5,M,-33.9,M,0000,0000*5B
$GPRMC,165728.000,A,4026.7008,N,07520.5971,W,0.04,325.09,100612,,,D*7E
$PMTK001,314,3*36
$PMTK001,220,3*30
$PMTK001,185,3*3C
$GPGGA,165729.000,4026.7009,N,07520.5971,W,$GPGGA,165728.000,4026.7008,N,07520.5971,W,2,10,0.83,153.5,M,-33.9,M,0000,0000*5B
$GPRMC,165728.000,A,4026.7008,N,07520.5971,W,0.04,325.09,100612,,,D*7E
$PMTK001,314,3*36
$PMTK001,220,3*30
$PMTK001,185,3*3C
$GPGGA,165729.000,4026.7009,N,07520.5971,W,$GPGGA,165728.000,4026.7008,N,07520.5971,W,2,10,0.83,153.5,M,-33.9,M,0000,0000*5B
$GPRMC,165728.000,A,4026.7008,N,07520.5971,W,0.04,325.09,100612,,,D*7E
$PMTK001,314,3*36
$PMTK001,220,3*30
$PMTK001,185,3*3C
$GPGGA,165729.000,4026.7009,N,07520.5971,W,$GPGGA,165728.000,4026.7008,N,07520.5971,W,2,10,0.83,153.5,M,-33.9,M,0000,0000*5B
$GPRMC,165728.000,A,4026.7008,N,07520.5971,W,0.04,325.09,100612,,,D*7E
$PMTK001,314,3*36
$PMTK001,220,3*30
$PMTK001,185,3*3C
$GPGGA,165729.000,4026.7009,N,07520.5971,W,$GPGGA,165728.000,4026.7008,N,07520.5971,W,2,10,0.83,153.5,M,-33.9,M,0000,0000*5B
$GPRMC,165728.000,A,4026.7008,N,07520.5971,W,0.04,325.09,100612,,,D*7E
$PMTK001,314,3*36
$PMTK001,220,3*30
$PMTK001,185,3*3C
$GPGGA,165729.000,4026.7009,N,07520.5971,W,$GPGGA,165728.000,4026.7008,N,07520.5971,W,2,10,0.83,153.5,M,-33.9,M,0000,0000*5B
$GPRMC,165728.000,A,4026.7008,N,07520.5971,W,0.04,325.09,100612,,,D*7E
$PMTK001,314,3*36
$PMTK001,220,3*30
$PMTK001,185,3*3C
$GPGGA,165729.000,4026.7009,N,07520.5971,W,$GPGGA,165728.000,4026.7008,N,07520.5971,W,2,10,0.83,153.5,M,-33.9,M,0000,0000*5B
$GPRMC,165728.000,A,4026.7008,N,07520.5971,W,0.04,325.09,100612,,,D*7E
$PMTK001,314,3*36
$PMTK001,220,3*30
$PMTK001,185,3*3C
$GPGGA,165729.000,4026.7009,N,07520.5971,W,$GPGGA,165728.000,4026.7008,N,07520.5971,W,2,10,0.83,153.5,M,-33.9,M,0000,0000*5B
$GPRMC,165728.000,A,4026.7008,N,07520.5971,W,0.04,325.09,100612,,,D*7E
$PMTK001,314,3*36
$PMTK001,220,3*30
$PMTK001,185,3*3C
$GPGGA,165729.000,4026.7009,N,07520.5971,W,$GPGGA,165728.000,4026.7008,N,07520.5971,W,2,10,0.83,153.5,M,-33.9,M,0000,0000*5B
$GPRMC,165728.000,A,4026.7008,N,07520.5971,W,0.04,325.09,100612,,,D*7E
$PMTK001,314,3*36
$PMTK001,220,3*30
$PMTK001,185,3*3C
$GPGGA,165729.000,4026.7009,N,07520.5971,W,$GPGGA,165728.000,4026.7008,N,07520.5971,W,2,10,0.83,153.5,M,-33.9,M,0000,0000*5B
$GPRMC,165728.000,A,4026.7008,N,07520.5971,W,0.04,325.09,100612,,,D*7E
$PMTK001,314,3*36
$PMTK001,220,3*30
$PMTK001,185,3*3C
$GPGGA,165729.000,4026.7009,N,07520.5971,W,$GPGGA,165728.000,4026.7008,N,07520.5971,W,2,10,0.83,153.5,M,-33.9,M,0000,0000*5B
$GPRMC,165728.000,A,4026.7008,N,07520.5971,W,0.04,325.09,100612,,,D*7E
$PMTK001,314,3*36
$PMTK001,220,3*30
$PMTK001,185,3*3C
$GPGGA,165729.000,4026.7009,N,07520.5971,W,$GPGGA,165728.000,4026.7008,N,07520.5971,W,2,10,0.83,153.5,M,-33.9,M,0000,0000*5B
$GPRMC,165728.000,A,4026.7008,N,07520.5971,W,0.04,325.09,100612,,,D*7E
$PMTK001,314,3*36
$PMTK001,220,3*30
$PMTK001,185,3*3C
$GPGGA,165729.000,4026.7009,N,07520.5971,W,$GPGGA,165728.000,4026.7008,N,07520.5971,W,2,10,0.83,153.5,M,-33.9,M,0000,0000*5B
$GPRMC,165728.000,A,4026.7008,N,07520.5971,W,0.04,325.09,100612,,,D*7E
$PMTK001,314,3*36
$PMTK001,220,3*30
$PMTK001,185,3*3C
$GPGGA,165729.000,4026.7009,N,07520.5971,W,$GPGGA,165728.000,4026.7008,N,07520.5971,W,2,10,0.83,153.5,M,-33.9,M,0000,0000*5B
$GPRMC,165728.000,A,4026.7008,N,07520.5971,W,0.04,325.09,100612,,,D*7E
$PMTK001,314,3*36
$PMTK001,220,3*30
$PMTK001,185,3*3C
$GPGGA,165729.000,4026.7009,N,07520.5971,W,$GPGGA,165728.000,4026.7008,N,07520.5971,W,2,10,0.83,153.5,M,-33.9,M,0000,0000*5B
$GPRMC,165728.000,A,4026.7008,N,07520.5971,W,0.04,325.09,100612,,,D*7E
$PMTK001,314,3*36
$PMTK001,220,3*30
$PMTK001,185,3*3C
$GPGGA,165729.000,4026.7009,N,07520.5971,W,$GPGGA,165728.000,4026.7008,N,07520.5971,W,2,10,0.83,153.5,M,-33.9,M,0000,0000*5B
$GPRMC,165728.000,A,4026.7008,N,07520.5971,W,0.04,325.09,100612,,,D*7E
$PMTK001,314,3*36
$PMTK001,220,3*30
$PMTK001,185,3*3C
$GPGGA,165729.000,4026.7009,N,07520.5971,W,$GPGGA,165728.000,4026.7008,N,07520.5971,W,2,10,0.83,153.5,M,-33.9,M,0000,0000*5B
$GPRMC,165728.000,A,4026.7008,N,07520.5971,W,0.04,325.09,100612,,,D*7E
$PMTK001,314,3*36
$PMTK001,220,3*30
$PMTK001,185,3*3C
$GPGGA,165729.000,4026.7009,N,07520.5971,W,$GPGGA,165728.000,4026.7008,N,07520.5971,W,2,10,0.83,153.5,M,-33.9,M,0000,0000*5B
$GPRMC,165728.000,A,4026.7008,N,07520.5971,W,0.04,325.09,100612,,,D*7E
$PMTK001,314,3*36
$PMTK001,220,3*30
$PMTK001,185,3*3C
$GPGGA,165729.000,4026.7009,N,07520.5971,W,$GPGGA,165728.000,4026.7008,N,07520.5971,W,2,10,0.83,153.5,M,-33.9,M,0000,0000*5B
$GPRMC,165728.000,A,4026.7008,N,07520.5971,W,0.04,325.09,100612,,,D*7E
$PMTK001,314,3*36
$PMTK001,220,3*30
$PMTK001,185,3*3C
$GPGGA,165729.000,4026.7009,N,07520.5971,W,$GPGGA,165728.000,4026.7008,N,07520.5971,W,2,10,0.83,153.5,M,-33.9,M,0000,0000*5B
$GPRMC,165728.000,A,4026.7008,N,07520.5971,W,0.04,325.09,100612,,,D*7E
$PMTK001,314,3*36
$PMTK001,220,3*30
$PMTK001,185,3*3C
$GPGGA,165729.000,4026.7009,N,07520.5971,W,$GPGGA,165728.000,4026.7008,N,07520.5971,W,2,10,0.83,153.5,M,-33.9,M,0000,0000*5B
$GPRMC,165728.000,A,4026.7008,N,07520.5971,W,0.04,325.09,100612,,,D*7E
$PMTK001,314,3*36
$PMTK001,220,3*30
$PMTK001,185,3*3C
$GPGGA,165729.000,4026.7009,N,07520.5971,W,$GPGGA,165728.000,4026.7008,N,07520.5971,W,2,10,0.83,153.5,M,-33.9,M,0000,0000*5B
$GPRMC,165728.000,A,4026.7008,N,07520.5971,W,0.04,325.09,100612,,,D*7E
$PMTK001,314,3*36
$PMTK001,220,3*30
$PMTK001,185,3*3C
$GPGGA,165729.000,4026.7009,N,07520.5971,W,$GPGGA,165728.000,4026.7008,N,07520.5971,W,2,10,0.83,153.5,M,-33.9,M,0000,0000*5B
$GPRMC,165728.000,A,4026.7008,N,07520.5971,W,0.04,325.09,100612,,,D*7E
$PMTK001,314,3*36
$PMTK001,220,3*30
$PMTK001,185,3*3C
$GPGGA,165729.000,4026.7009,N,07520.5971,W,$GPGGA,165728.000,4026.7008,N,07520.5971,W,2,10,0.83,153.5,M,-33.9,M,0000,0000*5B
$GPRMC,165728.000,A,4026.7008,N,07520.5971,W,0.04,325.09,100612,,,D*7E
$PMTK001,314,3*36
$PMTK001,220,3*30
$PMTK001,185,3*3C
$GPGGA,165729.000,4026.7009,N,07520.5971,W,$GPGGA,165728.000,4026.7008,N,07520.5971,W,2,10,0.83,153.5,M,-33.9,M,0000,0000*5B
$GPRMC,165728.000,A,4026.7008,N,07520.5971,W,0.04,325.09,100612,,,D*7E
$PMTK001,314,3*36
$PMTK001,220,3*30
$PMTK001,185,3*3C
$GPGGA,165729.000,4026.7009,N,07520.5971,W,$GPGGA,165728.000,4026.7008,N,07520.5971,W,2,10,0.83,153.5,M,-33.9,M,0000,0000*5B
$GPRMC,165728.000,A,4026.7008,N,07520.5971,W,0.04,325.09,100612,,,D*7E
$PMTK001,314,3*36
$PMTK001,220,3*30
$PMTK001,185,3*3C
$GPGGA,165729.000,4026.7009,N,07520.5971,W,$GPGGA,165728.000,4026.7008,N,07520.5971,W,2,10,0.83,153.5,M,-33.9,M,0000,0000*5B
$GPRMC,165728.000,A,4026.7008,N,07520.5971,W,0.04,325.09,100612,,,D*7E
$PMTK001,314,3*36
$PMTK001,220,3*30
$PMTK001,185,3*3C
$GPGGA,165729.000,4026.7009,N,07520.5971,W,$GPGGA,165728.000,4026.7008,N,07520.5971,W,2,10,0.83,153.5,M,-33.9,M,0000,0000*5B
$GPRMC,165728.000,A,4026.7008,N,07520.5971,W,0.04,325.09,100612,,,D*7E
$PMTK001,314,3*36
$PMTK001,220,3*30
$PMTK001,185,3*3C
$GPGGA,165729.000,4026.7009,N,07520.5971,W,$GPGGA,165728.000,4026.7008,N,07520.5971,W,2,10,0.83,153.5,M,-33.9,M,0000,0000*5B
$GPRMC,165728.000,A,4026.7008,N,07520.5971,W,0.04,325.09,100612,,,D*7E
$PMTK001,314,3*36
$PMTK001,220,3*30
$PMTK001,185,3*3C
$GPGGA,165729.000,4026.7009,N,07520.5971,W,$GPGGA,165728.000,4026.7008,N,07520.5971,W,2,10,0.83,153.5,M,-33.9,M,0000,0000*5B
$GPRMC,165728.000,A,4026.7008,N,07520.5971,W,0.04,325.09,100612,,,D*7E
$PMTK001,314,3*36
$PMTK001,220,3*30
$PMTK001,185,3*3C
$GPGGA,165729.000,4026.7009,N,07520.5971,W,$GPGGA,165728.000,4026.7008,N,07520.5971,W,2,10,0.83,153.5,M,-33.9,M,0000,0000*5B
$GPRMC,165728.000,A,4026.7008,N,07520.5971,W,0.04,325.09,100612,,,D*7E
$PMTK001,314,3*36
$PMTK001,220,3*30
$PMTK001,185,3*3C
$GPGGA,165729.000,4026.7009,N,07520.5971,W,$GPGGA,165728.000,4026.7008,N,07520.5971,W,2,10,0.83,153.5,M,-33.9,M,0000,0000*5B
$GPRMC,165728.000,A,4026.7008,N,07520.5971,W,0.04,325.09,100612,,,D*7E
$PMTK001,314,3*36
$PMTK001,220,3*30
$PMTK001,185,3*3C
$GPGGA,165729.000,4026.7009,N,07520.5971,W,$GPGGA,165728.000,4026.7008,N,07520.5971,W,2,10,0.83,153.5,M,-33.9,M,0000,0000*5B
$GPRMC,165728.000,A,4026.7008,N,07520.5971,W,0.04,325.09,100612,,,D*7E
$PMTK001,314,3*36
$PMTK001,220,3*30
$PMTK001,185,3*3C
$GPGGA,165729.000,4026.7009,N,07520.5971,W,$GPGGA,165728.000,4026.7008,N,07520.5971,W,2,10,0.83,153.5,M,-33.9,M,0000,0000*5B
$GPRMC,165728.000,A,4026.7008,N,07520.5971,W,0.04,325.09,100612,,,D*7E
$PMTK001,314,3*36
$PMTK001,220,3*30
$PMTK001,185,3*3C
$GPGGA,165729.000,4026.7009,N,07520.5971,W,$GPGGA,165728.000,4026.7008,N,07520.5971,W,2,10,0.83,153.5,M,-33.9,M,0000,0000*5B
$GPRMC,165728.000,A,4026.7008,N,07520.5971,W,0.04,325.09,100612,,,D*7E
$PMTK001,314,3*36
$PMTK001,220,3*30
$PMTK001,185,3*3C
$GPGGA,165729.000,4026.7009,N,07520.5971,W,$GPGGA,165728.000,4026.7008,N,07520.5971,W,2,10,0.83,153.5,M,-33.9,M,0000,0000*5B
$GPRMC,165728.000,A,4026.7008,N,07520.5971,W,0.04,325.09,100612,,,D*7E
$PMTK001,314,3*36
$PMTK001,220,3*30
$PMTK001,185,3*3C
$GPGGA,165729.000,4026.7009,N,07520.5971,W,$GPGGA,165728.000,4026.7008,N,07520.5971,W,2,10,0.83,153.5,M,-33.9,M,0000,0000*5B
$GPRMC,165728.000,A,4026.7008,N,07520.5971,W,0.04,325.09,100612,,,D*7E
$PMTK001,314,3*36
$PMTK001,220,3*30
$PMTK001,185,3*3C
$GPGGA,165729.000,4026.7009,N,07520.5971,W,$GPGGA,165728.000,4026.7008,N,07520.5971,W,2,10,0.83,153.5,M,-33.9,M,0000,0000*5B
$GPRMC,165728.000,A,4026.7008,N,07520.5971,W,0.04,325.09,100612,,,D*7E
$PMTK001,314,3*36
$PMTK001,220,3*30
$PMTK001,185,3*3C
$GPGGA,165729.000,4026.7009,N,07520.5971,W,$GPGGA,165728.000,4026.7008,N,07520.5971,W,2,10,0.83,153.5,M,-33.9,M,0000,0000*5B
$GPRMC,165728.000,A,4026.7008,N,07520.5971,W,0.04,325.09,100612,,,D*7E
$PMTK001,314,3*36
$PMTK001,220,3*30
$PMTK001,185,3*3C
$GPGGA,165729.000,4026.7009,N,07520.5971,W,$GPGGA,165728.000,4026.7008,N,07520.5971,W,2,10,0.83,153.5,M,-33.9,M,0000,0000*5B
$GPRMC,165728.000,A,4026.7008,N,07520.5971,W,0.04,325.09,100612,,,D*7E
$PMTK001,314,3*36
$PMTK001,220,3*30
$PMTK001,185,3*3C
$GPGGA,165729.000,4026.7009,N,07520.5971,W,$GPGGA,165728.000,4026.7008,N,07520.5971,W,2,10,0.83,153.5,M,-33.9,M,0000,0000*5B
$GPRMC,165728.000,A,4026.7008,N,07520.5971,W,0.04,325.09,100612,,,D*7E
$PMTK001,314,3*36
$PMTK001,220,3*30
$PMTK001,185,3*3C
$GPGGA,165729.000,4026.7009,N,07520.5971,W,$GPGGA,165728.000,4026.7008,N,07520.5971,W,2,10,0.83,153.5,M,-33.9,M,0000,0000*5B
$GPRMC,165728.000,A,4026.7008,N,07520.5971,W,0.04,325.09,100612,,,D*7E
$PMTK001,314,3*36
$PMTK001,220,3*30
$PMTK001,185,3*3C
$GPGGA,165729.000,4026.7009,N,07520.5971,W,$GPGGA,165728.000,4026.7008,N,07520.5971,W,2,10,0.83,153.5,M,-33.9,M,0000,0000*5B
$GPRMC,165728.000,A,4026.7008,N,07520.5971,W,0.04,325.09,100612,,,D*7E
$PMTK001,314,3*36
$PMTK001,220,3*30
$PMTK001,185,3*3C
$GPGGA,165729.000,4026.7009,N,07520.5971,W,$GPGGA,165728.000,4026.7008,N,07520.5971,W,2,10,0.83,153.5,M,-33.9,M,0000,0000*5B
$GPRMC,165728.000,A,4026.7008,N,07520.5971,W,0.04,325.09,100612,,,D*7E
$PMTK001,314,3*36
$PMTK001,220,3*30
$PMTK001,185,3*3C
$GPGGA,165729.000,4026.7009,N,07520.5971,W,$GPGGA,165728.000,4026.7008,N,07520.5971,W,2,10,0.83,153.5,M,-33.9,M,0000,0000*5B
$GPRMC,165728.000,A,4026.7008,N,07520.5971,W,0.04,325.09,100612,,,D*7E
$PMTK001,314,3*36
$PMTK001,220,3*30
$PMTK001,185,3*3C
$GPGGA,165729.000,4026.7009,N,07520.5971,W,$GPGGA,165728.000,4026.7008,N,07520.5971,W,2,10,0.83,153.5,M,-33.9,M,0000,0000*5B
$GPRMC,165728.000,A,4026.7008,N,07520.5971,W,0.04,325.09,100612,,,D*7E
$PMTK001,314,3*36
$PMTK001,220,3*30
$PMTK001,185,3*3C
$GPGGA,165729.000,4026.7009,N,07520.5971,W,$GPGGA,165728.000,4026.7008,N,07520.5971,W,2,10,0.83,153.5,M,-33.9,M,0000,0000*5B
$GPRMC,165728.000,A,4026.7008,N,07520.5971,W,0.04,325.09,100612,,,D*7E
$PMTK001,314,3*36
$PMTK001,220,3*30
$PMTK001,185,3*3C
$GPGGA,165729.000,4026.7009,N,07520.5971,W,$GPGGA,165728.000,4026.7008,N,07520.5971,W,2,10,0.83,153.5,M,-33.9,M,0000,0000*5B
$GPRMC,165728.000,A,4026.7008,N,07520.5971,W,0.04,325.09,100612,,,D*7E
$PMTK001,314,3*36
$PMTK001,220,3*30
$PMTK001,185,3*3C
$GPGGA,165729.000,4026.7009,N,07520.5971,W,$GPGGA,165728.000,4026.7008,N,07520.5971,W,2,10,0.83,153.5,M,-33.9,M,0000,0000*5B
$GPRMC,165728.000,A,4026.7008,N,07520.5971,W,0.04,325.09,100612,,,D*7E
$PMTK001,314,3*36
$PMTK001,220,3*30
$PMTK001,185,3*3C
$GPGGA,165729.000,4026.7009,N,07520.5971,W,$GPGGA,165728.000,4026.7008,N,07520.5971,W,2,10,0.83,153.5,M,-33.9,M,0000,0000*5B
$GPRMC,165728.000,A,4026.7008,N,07520.5971,W,0.04,325.09,100612,,,D*7E
$PMTK001,314,3*36
$PMTK001,220,3*30
$PMTK001,185,3*3C
$GPGGA,165729.000,4026.7009,N,07520.5971,W,$GPGGA,165728.000,4026.7008,N,07520.5971,W,2,10,0.83,153.5,M,-33.9,M,0000,0000*5B
$GPRMC,165728.000,A,4026.7008,N,07520.5971,W,0.04,325.09,100612,,,D*7E
$PMTK001,314,3*36
$PMTK001,220,3*30
$PMTK001,185,3*3C
$GPGGA,165729.000,4026.7009,N,07520.5971,W,$GPGGA,165728.000,4026.7008,N,07520.5971,W,2,10,0.83,153.5,M,-33.9,M,0000,0000*5B
$GPRMC,165728.000,A,4026.7008,N,07520.5971,W,0.04,325.09,100612,,,D*7E
$PMTK001,314,3*36
$PMTK001,220,3*30
$PMTK001,185,3*3C
$GPGGA,165729.000,4026.7009,N,07520.5971,W,$GPGGA,165728.000,4026.7008,N,07520.5971,W,2,10,0.83,153.5,M,-33.9,M,0000,0000*5B
$GPRMC,165728.000,A,4026.7008,N,07520.5971,W,0.04,325.09,100612,,,D*7E
$PMTK001,314,3*36
$PMTK001,220,3*30
$PMTK001,185,3*3C
$GPGGA,165729.000,4026.7009,N,07520.5971,W,$GPGGA,165728.000,4026.7008,N,07520.5971,W,2,10,0.83,153.5,M,-33.9,M,0000,0000*5B
$GPRMC,165728.000,A,4026.7008,N,07520.5971,W,0.04,325.09,100612,,,D*7E
$PMTK001,314,3*36
$PMTK001,220,3*30
$PMTK001,185,3*3C
$GPGGA,165729.000,4026.7009,N,07520.5971,W,$GPGGA,165728.000,4026.7008,N,07520.5971,W,2,10,0.83,153.5,M,-33.9,M,0000,0000*5B
$GPRMC,165728.000,A,4026.7008,N,07520.5971,W,0.04,325.09,100612,,,D*7E
$PMTK001,314,3*36
$PMTK001,220,3*30
$PMTK001,185,3*3C
$GPGGA,165729.000,4026.7009,N,07520.5971,W,$GPGGA,165728.000,4026.7008,N,07520.5971,W,2,10,0.83,153.5,M,-33.9,M,0000,0000*5B
$GPRMC,165728.000,A,4026.7008,N,07520.5971,W,0.04,325.09,100612,,,D*7E
$PMTK001,314,3*36
$PMTK001,220,3*30
$PMTK001,185,3*3C
$GPGGA,165729.000,4026.7009,N,07520.5971,W,$GPGGA,165728.000,4026.7008,N,07520.5971,W,2,10,0.83,153.5,M,-33.9,M,0000,0000*5B
$GPRMC,165728.000,A,4026.7008,N,07520.5971,W,0.04,325.09,100612,,,D*7E
$PMTK001,314,3*36
$PMTK001,220,3*30
$PMTK001,185,3*3C
$GPGGA,165729.000,4026.7009,N,07520.5971,W,$GPGGA,165728.000,4026.7008,N,07520.5971,W,2,10,0.83,153.5,M,-33.9,M,0000,0000*5B
$GPRMC,165728.000,A,4026.7008,N,07520.5971,W,0.04,325.09,100612,,,D*7E
$PMTK001,314,3*36
$PMTK001,220,3*30
$PMTK001,185,3*3C
$GPGGA,165729.000,4026.7009,N,07520.5971,W,$GPGGA,165728.000,4026.7008,N,07520.5971,W,2,10,0.83,153.5,M,-33.9,M,0000,0000*5B
$GPRMC,165728.000,A,4026.7008,N,07520.5971,W,0.04,325.09,100612,,,D*7E
$PMTK001,314,3*36
$PMTK001,220,3*30
$PMTK001,185,3*3C
$GPGGA,165729.000,4026.7009,N,07520.5971,W,$GPGGA,165728.000,4026.7008,N,07520.5971,W,2,10,0.83,153.5,M,-33.9,M,0000,0000*5B
$GPRMC,165728.000,A,4026.7008,N,07520.5971,W,0.04,325.09,100612,,,D*7E
$PMTK001,314,3*36
$PMTK001,220,3*30
$PMTK001,185,3*3C
$GPGGA,165729.000,4026.7009,N,07520.5971,W,$GPGGA,165728.000,4026.7008,N,07520.5971,W,2,10,0.83,153.5,M,-33.9,M,0000,0000*5B
$GPRMC,165728.000,A,4026.7008,N,07520.5971,W,0.04,325.09,100612,,,D*7E
$PMTK001,314,3*36
$PMTK001,220,3*30
$PMTK001,185,3*3C
$GPGGA,165729.000,4026.7009,N,07520.5971,W,$GPGGA,165728.000,4026.7008,N,07520.5971,W,2,10,0.83,153.5,M,-33.9,M,0000,0000*5B
$GPRMC,165728.000,A,4026.7008,N,07520.5971,W,0.04,325.09,100612,,,D*7E
$PMTK001,314,3*36
$PMTK001,220,3*30
$PMTK001,185,3*3C
$GPGGA,165729.000,4026.7009,N,07520.5971,W,$GPGGA,165728.000,4026.7008,N,07520.5971,W,2,10,0.83,153.5,M,-33.9,M,0000,0000*5B
$GPRMC,165728.000,A,4026.7008,N,07520.5971,W,0.04,325.09,100612,,,D*7E
$PMTK001,314,3*36
$PMTK001,220,3*30
$PMTK001,185,3*3C
$GPGGA,165729.000,4026.7009,N,07520.5971,W,$GPGGA,165728.000,4026.7008,N,07520.5971,W,2,10,0.83,153.5,M,-33.9,M,0000,0000*5B
$GPRMC,165728.000,A,4026.7008,N,07520.5971,W,0.04,325.09,100612,,,D*7E
$PMTK001,314,3*36
$PMTK001,220,3*30
$PMTK001,185,3*3C
$GPGGA,165729.000,4026.7009,N,07520.5971,W,$GPGGA,165728.000,4026.7008,N,07520.5971,W,2,10,0.83,153.5,M,-33.9,M,0000,0000*5B
$GPRMC,165728.000,A,4026.7008,N,07520.5971,W,0.04,325.09,100612,,,D*7E
$PMTK001,314,3*36
$PMTK001,220,3*30
$PMTK001,185,3*3C
$GPGGA,165729.000,4026.7009,N,07520.5971,W,$GPGGA,165728.000,4026.7008,N,07520.5971,W,2,10,0.83,153.5,M,-33.9,M,0000,0000*5B
$GPRMC,165728.000,A,4026.7008,N,07520.5971,W,0.04,325.09,100612,,,D*7E
$PMTK001,314,3*36
$PMTK001,220,3*30
$PMTK001,185,3*3C
$GPGGA,165729.000,4026.7009,N,07520.5971,W,$GPGGA,165728.000,4026.7008,N,07520.5971,W,2,10,0.83,153.5,M,-33.9,M,0000,0000*5B
$GPRMC,165728.000,A,4026.7008,N,07520.5971,W,0.04,325.09,100612,,,D*7E
$PMTK001,314,3*36
$PMTK001,220,3*30
$PMTK001,185,3*3C
$GPGGA,165729.000,4026.7009,N,07520.5971,W,$GPGGA,165728.000,4026.7008,N,07520.5971,W,2,10,0.83,153.5,M,-33.9,M,0000,0000*5B
$GPRMC,165728.000,A,4026.7008,N,07520.5971,W,0.04,325.09,100612,,,D*7E
$PMTK001,314,3*36
$PMTK001,220,3*30
$PMTK001,185,3*3C
$GPGGA,165729.000,4026.7009,N,07520.5971,W,$GPGGA,165728.000,4026.7008,N,07520.5971,W,2,10,0.83,153.5,M,-33.9,M,0000,0000*5B
$GPRMC,165728.000,A,4026.7008,N,07520.5971,W,0.04,325.09,100612,,,D*7E
$PMTK001,314,3*36
$PMTK001,220,3*30
$PMTK001,185,3*3C
$GPGGA,165729.000,4026.7009,N,07520.5971,W,$GPGGA,165728.000,4026.7008,N,07520.5971,W,2,10,0.83,153.5,M,-33.9,M,0000,0000*5B
$GPRMC,165728.000,A,4026.7008,N,07520.5971,W,0.04,325.09,100612,,,D*7E
$PMTK001,314,3*36
$PMTK001,220,3*30
$PMTK001,185,3*3C
$GPGGA,165729.000,4026.7009,N,07520.5971,W,$GPGGA,165728.000,4026.7008,N,07520.5971,W,2,10,0.83,153.5,M,-33.9,M,0000,0000*5B
$GPRMC,165728.000,A,4026.7008,N,07520.5971,W,0.04,325.09,100612,,,D*7E
$PMTK001,314,3*36
$PMTK001,220,3*30
$PMTK001,185,3*3C
$GPGGA,165729.000,4026.7009,N,07520.5971,W,$GPGGA,165728.000,4026.7008,N,07520.5971,W,2,10,0.83,153.5,M,-33.9,M,0000,0000*5B
$GPRMC,165728.000,A,4026.7008,N,07520.5971,W,0.04,325.09,100612,,,D*7E
$PMTK001,314,3*36
$PMTK001,220,3*30
$PMTK001,185,3*3C
$GPGGA,165729.000,4026.7009,N,07520.5971,W,$GPGGA,165728.000,4026.7008,N,07520.5971,W,2,10,0.83,153.5,M,-33.9,M,0000,0000*5B
$GPRMC,165728.000,A,4026.7008,N,07520.5971,W,0.04,325.09,100612,,,D*7E
$PMTK001,314,3*36
$PMTK001,220,3*30
$PMTK001,185,3*3C
$GPGGA,165729.000,4026.7009,N,07520.5971,W,$GPGGA,165728.000,4026.7008,N,07520.5971,W,2,10,0.83,153.5,M,-33.9,M,0000,0000*5B
$GPRMC,165728.000,A,4026.7008,N,07520.5971,W,0.04,325.09,100612,,,D*7E
$PMTK001,314,3*36
$PMTK001,220,3*30
$PMTK001,185,3*3C
$GPGGA,165729.000,4026.7009,N,07520.5971,W,$GPGGA,165728.000,4026.7008,N,07520.5971,W,2,10,0.83,153.5,M,-33.9,M,0000,0000*5B
$GPRMC,165728.000,A,4026.7008,N,07520.5971,W,0.04,325.09,100612,,,D*7E
$PMTK001,314,3*36
$PMTK001,220,3*30
$PMTK001,185,3*3C
$GPGGA,165729.000,4026.7009,N,07520.5971,W,$GPGGA,165728.000,4026.7008,N,07520.5971,W,2,10,0.83,153.5,M,-33.9,M,0000,0000*5B
$GPRMC,165728.000,A,4026.7008,N,07520.5971,W,0.04,325.09,100612,,,D*7E
$PMTK001,314,3*36
$PMTK001,220,3*30
$PMTK001,185,3*3C
$GPGGA,165729.000,4026.7009,N,07520.5971,W,$GPGGA,165728.000,4026.7008,N,07520.5971,W,2,10,0.83,153.5,M,-33.9,M,0000,0000*5B
$GPRMC,165728.000,A,4026.7008,N,07520.5971,W,0.04,325.09,100612,,,D*7E
$PMTK001,314,3*36
$PMTK001,220,3*30
$PMTK001,185,3*3C
$GPGGA,165729.000,4026.7009,N,07520.5971,W,$GPGGA,165728.000,4026.7008,N,07520.5971,W,2,10,0.83,153.5,M,-33.9,M,0000,0000*5B
$GPRMC,165728.000,A,4026.7008,N,07520.5971,W,0.04,325.09,100612,,,D*7E
$PMTK001,314,3*36
$PMTK001,220,3*30
$PMTK001,185,3*3C
$GPGGA,165729.000,4026.7009,N,07520.5971,W,$GPGGA,165728.000,4026.7008,N,07520.5971,W,2,10,0.83,153.5,M,-33.9,M,0000,0000*5B
$GPRMC,165728.000,A,4026.7008,N,07520.5971,W,0.04,325.09,100612,,,D*7E
$PMTK001,314,3*36
$PMTK001,220,3*30
$PMTK001,185,3*3C
$GPGGA,165729.000,4026.7009,N,07520.5971,W,$GPGGA,165728.000,4026.7008,N,07520.5971,W,2,10,0.83,153.5,M,-33.9,M,0000,0000*5B
$GPRMC,165728.000,A,4026.7008,N,07520.5971,W,0.04,325.09,100612,,,D*7E
$PMTK001,314,3*36
$PMTK001,220,3*30
$PMTK001,185,3*3C
$GPGGA,165729.000,4026.7009,N,07520.5971,W,$GPGGA,165728.000,4026.7008,N,07520.5971,W,2,10,0.83,153.5,M,-33.9,M,0000,0000*5B
$GPRMC,165728.000,A,4026.7008,N,07520.5971,W,0.04,325.09,100612,,,D*7E
$PMTK001,314,3*36
$PMTK001,220,3*30
$PMTK001,185,3*3C
$GPGGA,165729.000,4026.7009,N,07520.5971,W,$GPGGA,165728.000,4026.7008,N,07520.5971,W,2,10,0.83,153.5,M,-33.9,M,0000,0000*5B
$GPRMC,165728.000,A,4026.7008,N,07520.5971,W,0.04,325.09,100612,,,D*7E
$PMTK001,314,3*36
$PMTK001,220,3*30
$PMTK001,185,3*3C
$GPGGA,165729.000,4026.7009,N,07520.5971,W,$GPGGA,165728.000,4026.7008,N,07520.5971,W,2,10,0.83,153.5,M,-33.9,M,0000,0000*5B
$GPRMC,165728.000,A,4026.7008,N,07520.5971,W,0.04,325.09,100612,,,D*7E
$PMTK001,314,3*36
$PMTK001,220,3*30
$PMTK001,185,3*3C
$GPGGA,165729.000,4026.7009,N,07520.5971,W,$GPGGA,165728.000,4026.7008,N,07520.5971,W,2,10,0.83,153.5,M,-33.9,M,0000,0000*5B
$GPRMC,165728.000,A,4026.7008,N,07520.5971,W,0.04,325.09,100612,,,D*7E
$PMTK001,314,3*36
$PMTK001,220,3*30
$PMTK001,185,3*3C
$GPGGA,165729.000,4026.7009,N,07520.5971,W,$GPGGA,165728.000,4026.7008,N,07520.5971,W,2,10,0.83,153.5,M,-33.9,M,0000,0000*5B
$GPRMC,165728.000,A,4026.7008,N,07520.5971,W,0.04,325.09,100612,,,D*7E
$PMTK001,314,3*36
$PMTK001,220,3*30
$PMTK001,185,3*3C
$GPGGA,165729.000,4026.7009,N,07520.5971,W,$GPGGA,165728.000,4026.7008,N,07520.5971,W,2,10,0.83,153.5,M,-33.9,M,0000,0000*5B
$GPRMC,165728.000,A,4026.7008,N,07520.5971,W,0.04,325.09,100612,,,D*7E
$PMTK001,314,3*36
$PMTK001,220,3*30
$PMTK001,185,3*3C
$GPGGA,165729.000,4026.7009,N,07520.5971,W,$GPGGA,165728.000,4026.7008,N,07520.5971,W,2,10,0.83,153.5,M,-33.9,M,0000,0000*5B
$GPRMC,165728.000,A,4026.7008,N,07520.5971,W,0.04,325.09,100612,,,D*7E
$PMTK001,314,3*36
$PMTK001,220,3*30
