$PMTK001,314,3*36
$PMTK001,220,3*30
$PMTK001,185,3*3C
$GPGGA,164513.872,4026.7019,N,07520.6074,W,1,5,2.75,146.2,M,-33.9,M,,*6D
$GPRMC,164513.872,A,4026.7019,N,07520.6074,W,5.95,52.52,100612,,,A*42
$GPGGA,164514.011,4026.7022,N,07520.5987,W,1,6,1.25,1$PMTK001,314,3*36
$PMTK001,220,3*30
$PMTK001,185,3*3C
$GPGGA,164513.872,4026.7019,N,07520.6074,W,1,5,2.75,146.2,M,-33.9,M,,*6D
$GPRMC,164513.872,A,4026.7019,N,07520.6074,W,5.95,52.52,100612,,,A*42
$GPGGA,164514.011,4026.7022,N,07520.5987,W,1,6,1.25,1$PMTK001,314,3*36
$PMTK001,220,3*30
$PMTK001,185,3*3C
$GPGGA,164513.872,4026.7019,N,07520.6074,W,1,5,2.75,146.2,M,-33.9,M,,*6D
$GPRMC,164513.872,A,4026.7019,N,07520.6074,W,5.95,52.52,100612,,,A*42
$GPGGA,164514.011,4026.7022,N,07520.5987,W,1,6,1.25,1$PMTK001,314,3*36
$PMTK001,220,3*30
$PMTK001,185,3*3C
$GPGGA,164513.872,4026.7019,N,07520.6074,W,1,5,2.75,146.2,M,-33.9,M,,*6D
$GPRMC,164513.872,A,4026.7019,N,07520.6074,W,5.95,52.52,100612,,,A*42
$GPGGA,164514.011,4026.7022,N,07520.5987,W,1,6,1.25,1$PMTK001,314,3*36
$PMTK001,220,3*30
$PMTK001,185,3*3C
$GPGGA,164513.872,4026.7019,N,07520.6074,W,1,5,2.75,146.2,M,-33.9,M,,*6D
$GPRMC,164513.872,A,4026.7019,N,07520.6074,W,5.95,52.52,100612,,,A*42
$GPGGA,164514.011,4026.7022,N,07520.5987,W,1,6,1.25,1$PMTK001,314,3*36
$PMTK001,220,3*30
$PMTK001,185,3*3C
$GPGGA,164513.872,4026.7019,N,07520.6074,W,1,5,2.75,146.2,M,-33.9,M,,*6D
$GPRMC,164513.872,A,4026.7019,N,07520.6074,W,5.95,52.52,100612,,,A*42
$GPGGA,164514.011,4026.7022,N,07520.5987,W,1,6,1.25,1$PMTK001,314,3*36
$PMTK001,220,3*30
$PMTK001,185,3*3C
$GPGGA,164513.872,4026.7019,N,07520.6074,W,1,5,2.75,146.2,M,-33.9,M,,*6D
$GPRMC,164513.872,A,4026.7019,N,07520.6074,W,5.95,52.52,100612,,,A*42
$GPGGA,164514.011,4026.7022,N,07520.5987,W,1,6,1.25,1$PMTK001,314,3*36
$PMTK001,220,3*30
$PMTK001,185,3*3C
$GPGGA,164513.872,4026.7019,N,07520.6074,W,1,5,2.75,146.2,M,-33.9,M,,*6D
$GPRMC,164513.872,A,4026.7019,N,07520.6074,W,5.95,52.52,100612,,,A*42
$GPGGA,164514.011,4026.7022,N,07520.5987,W,1,6,1.25,1$PMTK001,314,3*36
$PMTK001,220,3*30
$PMTK001,185,3*3C
$GPGGA,164513.872,4026.7019,N,07520.6074,W,1,5,2.75,146.2,M,-33.9,M,,*6D
$GPRMC,164513.872,A,4026.7019,N,07520.6074,W,5.95,52.52,100612,,,A*42
$GPGGA,164514.011,4026.7022,N,07520.5987,W,1,6,1.25,1$PMTK001,314,3*36
$PMTK001,220,3*30
$PMTK001,185,3*3C
$GPGGA,164513.872,4026.7019,N,07520.6074,W,1,5,2.75,146.2,M,-33.9,M,,*6D
$GPRMC,164513.872,A,4026.7019,N,07520.6074,W,5.95,52.52,100612,,,A*42
$GPGGA,164514.011,4026.7022,N,07520.5987,W,1,6,1.25,1$PMTK001,314,3*36
$PMTK001,220,3*30
$PMTK001,185,3*3C
$GPGGA,164513.872,4026.7019,N,07520.6074,W,1,5,2.75,146.2,M,-33.9,M,,*6D
$GPRMC,164513.872,A,4026.7019,N,07520.6074,W,5.95,52.52,100612,,,A*42
$GPGGA,164514.011,4026.7022,N,07520.5987,W,1,6,1.25,1$PMTK001,314,3*36
$PMTK001,220,3*30
$PMTK001,185,3*3C
$GPGGA,164513.872,4026.7019,N,07520.6074,W,1,5,2.75,146.2,M,-33.9,M,,*6D
$GPRMC,164513.872,A,4026.7019,N,07520.6074,W,5.95,52.52,100612,,,A*42
$GPGGA,164514.011,4026.7022,N,07520.5987,W,1,6,1.25,1$PMTK001,314,3*36
$PMTK001,220,3*30
$PMTK001,185,3*3C
$GPGGA,164513.872,4026.7019,N,07520.6074,W,1,5,2.75,146.2,M,-33.9,M,,*6D
$GPRMC,164513.872,A,4026.7019,N,07520.6074,W,5.95,52.52,100612,,,A*42
$GPGGA,164514.011,4026.7022,N,07520.5987,W,1,6,1.25,1$PMTK001,314,3*36
$PMTK001,220,3*30
$PMTK001,185,3*3C
$GPGGA,164513.872,4026.7019,N,07520.6074,W,1,5,2.75,146.2,M,-33.9,M,,*6D
$GPRMC,164513.872,A,4026.7019,N,07520.6074,W,5.95,52.52,100612,,,A*42
$GPGGA,164514.011,4026.7022,N,07520.5987,W,1,6,1.25,1$PMTK001,314,3*36
$PMTK001,220,3*30
$PMTK001,185,3*3C
$GPGGA,164513.872,4026.7019,N,07520.6074,W,1,5,2.75,146.2,M,-33.9,M,,*6D
$GPRMC,164513.872,A,4026.7019,N,07520.6074,W,5.95,52.52,100612,,,A*42
$GPGGA,164514.011,4026.7022,N,07520.5987,W,1,6,1.25,1$PMTK001,314,3*36
$PMTK001,220,3*30
$PMTK001,185,3*3C
$GPGGA,164513.872,4026.7019,N,07520.6074,W,1,5,2.75,146.2,M,-33.9,M,,*6D
$GPRMC,164513.872,A,4026.7019,N,07520.6074,W,5.95,52.52,100612,,,A*42
$GPGGA,164514.011,4026.7022,N,07520.5987,W,1,6,1.25,1$PMTK001,314,3*36
$PMTK001,220,3*30
$PMTK001,185,3*3C
$GPGGA,164513.872,4026.7019,N,07520.6074,W,1,5,2.75,146.2,M,-33.9,M,,*6D
$GPRMC,164513.872,A,4026.7019,N,07520.6074,W,5.95,52.52,100612,,,A*42
$GPGGA,164514.011,4026.7022,N,07520.5987,W,1,6,1.25,1$PMTK001,314,3*36
$PMTK001,220,3*30
$PMTK001,185,3*3C
$GPGGA,164513.872,4026.7019,N,07520.6074,W,1,5,2.75,146.2,M,-33.9,M,,*6D
$GPRMC,164513.872,A,4026.7019,N,07520.6074,W,5.95,52.52,100612,,,A*42
$GPGGA,164514.011,4026.7022,N,07520.5987,W,1,6,1.25,1$PMTK001,314,3*36
$PMTK001,220,3*30
$PMTK001,185,3*3C
$GPGGA,164513.872,4026.7019,N,07520.6074,W,1,5,2.75,146.2,M,-33.9,M,,*6D
$GPRMC,164513.872,A,4026.7019,N,07520.6074,W,5.95,52.52,100612,,,A*42
$GPGGA,164514.011,4026.7022,N,07520.5987,W,1,6,1.25,1$PMTK001,314,3*36
$PMTK001,220,3*30
$PMTK001,185,3*3C
$GPGGA,164513.872,4026.7019,N,07520.6074,W,1,5,2.75,146.2,M,-33.9,M,,*6D
$GPRMC,164513.872,A,4026.7019,N,07520.6074,W,5.95,52.52,100612,,,A*42
$GPGGA,164514.011,4026.7022,N,07520.5987,W,1,6,1.25,1$PMTK001,314,3*36
$PMTK001,220,3*30
$PMTK001,185,3*3C
$GPGGA,164513.872,4026.7019,N,07520.6074,W,1,5,2.75,146.2,M,-33.9,M,,*6D
$GPRMC,164513.872,A,4026.7019,N,07520.6074,W,5.95,52.52,100612,,,A*42
$GPGGA,164514.011,4026.7022,N,07520.5987,W,1,6,1.25,1$PMTK001,314,3*36
$PMTK001,220,3*30
$PMTK001,185,3*3C
$GPGGA,164513.872,4026.7019,N,07520.6074,W,1,5,2.75,146.2,M,-33.9,M,,*6D
$GPRMC,164513.872,A,4026.7019,N,07520.6074,W,5.95,52.52,100612,,,A*42
$GPGGA,164514.011,4026.7022,N,07520.5987,W,1,6,1.25,1$PMTK001,314,3*36
$PMTK001,220,3*30
$PMTK001,185,3*3C
$GPGGA,164513.872,4026.7019,N,07520.6074,W,1,5,2.75,146.2,M,-33.9,M,,*6D
$GPRMC,164513.872,A,4026.7019,N,07520.6074,W,5.95,52.52,100612,,,A*42
$GPGGA,164514.011,4026.7022,N,07520.5987,W,1,6,1.25,1$PMTK001,314,3*36
$PMTK001,220,3*30
$PMTK001,185,3*3C
$GPGGA,164513.872,4026.7019,N,07520.6074,W,1,5,2.75,146.2,M,-33.9,M,,*6D
$GPRMC,164513.872,A,4026.7019,N,07520.6074,W,5.95,52.52,100612,,,A*42
$GPGGA,164514.011,4026.7022,N,07520.5987,W,1,6,1.25,1$PMTK001,314,3*36
$PMTK001,220,3*30
$PMTK001,185,3*3C
$GPGGA,164513.872,4026.7019,N,07520.6074,W,1,5,2.75,146.2,M,-33.9,M,,*6D
$GPRMC,164513.872,A,4026.7019,N,07520.6074,W,5.95,52.52,100612,,,A*42
$GPGGA,164514.011,4026.7022,N,07520.5987,W,1,6,1.25,1$PMTK001,314,3*36
$PMTK001,220,3*30
$PMTK001,185,3*3C
$GPGGA,164513.872,4026.7019,N,07520.6074,W,1,5,2.75,146.2,M,-33.9,M,,*6D
$GPRMC,164513.872,A,4026.7019,N,07520.6074,W,5.95,52.52,100612,,,A*42
$GPGGA,164514.011,4026.7022,N,07520.5987,W,1,6,1.25,1$PMTK001,314,3*36
$PMTK001,220,3*30
$PMTK001,185,3*3C
$GPGGA,164513.872,4026.7019,N,07520.6074,W,1,5,2.75,146.2,M,-33.9,M,,*6D
$GPRMC,164513.872,A,4026.7019,N,07520.6074,W,5.95,52.52,100612,,,A*42
$GPGGA,164514.011,4026.7022,N,07520.5987,W,1,6,1.25,1$PMTK001,314,3*36
$PMTK001,220,3*30
$PMTK001,185,3*3C
$GPGGA,164513.872,4026.7019,N,07520.6074,W,1,5,2.75,146.2,M,-33.9,M,,*6D
$GPRMC,164513.872,A,4026.7019,N,07520.6074,W,5.95,52.52,100612,,,A*42
$GPGGA,164514.011,4026.7022,N,07520.5987,W,1,6,1.25,1$PMTK001,314,3*36
$PMTK001,220,3*30
$PMTK001,185,3*3C
$GPGGA,164513.872,4026.7019,N,07520.6074,W,1,5,2.75,146.2,M,-33.9,M,,*6D
$GPRMC,164513.872,A,4026.7019,N,07520.6074,W,5.95,52.52,100612,,,A*42
$GPGGA,164514.011,4026.7022,N,07520.5987,W,1,6,1.25,1$PMTK001,314,3*36
$PMTK001,220,3*30
$PMTK001,185,3*3C
$GPGGA,164513.872,4026.7019,N,07520.6074,W,1,5,2.75,146.2,M,-33.9,M,,*6D
$GPRMC,164513.872,A,4026.7019,N,07520.6074,W,5.95,52.52,100612,,,A*42
$GPGGA,164514.011,4026.7022,N,07520.5987,W,1,6,1.25,1$PMTK001,314,3*36
$PMTK001,220,3*30
$PMTK001,185,3*3C
$GPGGA,164513.872,4026.7019,N,07520.6074,W,1,5,2.75,146.2,M,-33.9,M,,*6D
$GPRMC,164513.872,A,4026.7019,N,07520.6074,W,5.95,52.52,100612,,,A*42
$GPGGA,164514.011,4026.7022,N,07520.5987,W,1,6,1.25,1$PMTK001,314,3*36
$PMTK001,220,3*30
$PMTK001,185,3*3C
$GPGGA,164513.872,4026.7019,N,07520.6074,W,1,5,2.75,146.2,M,-33.9,M,,*6D
$GPRMC,164513.872,A,4026.7019,N,07520.6074,W,5.95,52.52,100612,,,A*42
$GPGGA,164514.011,4026.7022,N,07520.5987,W,1,6,1.25,1$PMTK001,314,3*36
$PMTK001,220,3*30
$PMTK001,185,3*3C
$GPGGA,164513.872,4026.7019,N,07520.6074,W,1,5,2.75,146.2,M,-33.9,M,,*6D
$GPRMC,164513.872,A,4026.7019,N,07520.6074,W,5.95,52.52,100612,,,A*42
$GPGGA,164514.011,4026.7022,N,07520.5987,W,1,6,1.25,1$PMTK001,314,3*36
$PMTK001,220,3*30
$PMTK001,185,3*3C
$GPGGA,164513.872,4026.7019,N,07520.6074,W,1,5,2.75,146.2,M,-33.9,M,,*6D
$GPRMC,164513.872,A,4026.7019,N,07520.6074,W,5.95,52.52,100612,,,A*42
$GPGGA,164514.011,4026.7022,N,07520.5987,W,1,6,1.25,1$PMTK001,314,3*36
$PMTK001,220,3*30
$PMTK001,185,3*3C
$GPGGA,164513.872,4026.7019,N,07520.6074,W,1,5,2.75,146.2,M,-33.9,M,,*6D
$GPRMC,164513.872,A,4026.7019,N,07520.6074,W,5.95,52.52,100612,,,A*42
$GPGGA,164514.011,4026.7022,N,07520.5987,W,1,6,1.25,1$PMTK001,314,3*36
$PMTK001,220,3*30
$PMTK001,185,3*3C
$GPGGA,164513.872,4026.7019,N,07520.6074,W,1,5,2.75,146.2,M,-33.9,M,,*6D
$GPRMC,164513.872,A,4026.7019,N,07520.6074,W,5.95,52.52,100612,,,A*42
$GPGGA,164514.011,4026.7022,N,07520.5987,W,1,6,1.25,1$PMTK001,314,3*36
$PMTK001,220,3*30
$PMTK001,185,3*3C
$GPGGA,164513.872,4026.7019,N,07520.6074,W,1,5,2.75,146.2,M,-33.9,M,,*6D
$GPRMC,164513.872,A,4026.7019,N,07520.6074,W,5.95,52.52,100612,,,A*42
$GPGGA,164514.011,4026.7022,N,07520.5987,W,1,6,1.25,1$PMTK001,314,3*36
$PMTK001,220,3*30
$PMTK001,185,3*3C
$GPGGA,164513.872,4026.7019,N,07520.6074,W,1,5,2.75,146.2,M,-33.9,M,,*6D
$GPRMC,164513.872,A,4026.7019,N,07520.6074,W,5.95,52.52,100612,,,A*42
$GPGGA,164514.011,4026.7022,N,07520.5987,W,1,6,1.25,1$PMTK001,314,3*36
$PMTK001,220,3*30
$PMTK001,185,3*3C
$GPGGA,164513.872,4026.7019,N,07520.6074,W,1,5,2.75,146.2,M,-33.9,M,,*6D
$GPRMC,164513.872,A,4026.7019,N,07520.6074,W,5.95,52.52,100612,,,A*42
$GPGGA,164514.011,4026.7022,N,07520.5987,W,1,6,1.25,1$PMTK001,314,3*36
$PMTK001,220,3*30
$PMTK001,185,3*3C
$GPGGA,164513.872,4026.7019,N,07520.6074,W,1,5,2.75,146.2,M,-33.9,M,,*6D
$GPRMC,164513.872,A,4026.7019,N,07520.6074,W,5.95,52.52,100612,,,A*42
$GPGGA,164514.011,4026.7022,N,07520.5987,W,1,6,1.25,1$PMTK001,314,3*36
$PMTK001,220,3*30
$PMTK001,185,3*3C
$GPGGA,164513.872,4026.7019,N,07520.6074,W,1,5,2.75,146.2,M,-33.9,M,,*6D
$GPRMC,164513.872,A,4026.7019,N,07520.6074,W,5.95,52.52,100612,,,A*42
$GPGGA,164514.011,4026.7022,N,07520.5987,W,1,6,1.25,1$PMTK001,314,3*36
$PMTK001,220,3*30
$PMTK001,185,3*3C
$GPGGA,164513.872,4026.7019,N,07520.6074,W,1,5,2.75,146.2,M,-33.9,M,,*6D
$GPRMC,164513.872,A,4026.7019,N,07520.6074,W,5.95,52.52,100612,,,A*42
$GPGGA,164514.011,4026.7022,N,07520.5987,W,1,6,1.25,1$PMTK001,314,3*36
$PMTK001,220,3*30
$PMTK001,185,3*3C
$GPGGA,164513.872,4026.7019,N,07520.6074,W,1,5,2.75,146.2,M,-33.9,M,,*6D
$GPRMC,164513.872,A,4026.7019,N,07520.6074,W,5.95,52.52,100612,,,A*42
$GPGGA,164514.011,4026.7022,N,07520.5987,W,1,6,1.25,1$PMTK001,314,3*36
$PMTK001,220,3*30
$PMTK001,185,3*3C
$GPGGA,164513.872,4026.7019,N,07520.6074,W,1,5,2.75,146.2,M,-33.9,M,,*6D
$GPRMC,164513.872,A,4026.7019,N,07520.6074,W,5.95,52.52,100612,,,A*42
$GPGGA,164514.011,4026.7022,N,07520.5987,W,1,6,1.25,1$PMTK001,314,3*36
$PMTK001,220,3*30
$PMTK001,185,3*3C
$GPGGA,164513.872,4026.7019,N,07520.6074,W,1,5,2.75,146.2,M,-33.9,M,,*6D
$GPRMC,164513.872,A,4026.7019,N,07520.6074,W,5.95,52.52,100612,,,A*42
$GPGGA,164514.011,4026.7022,N,07520.5987,W,1,6,1.25,1$PMTK001,314,3*36
$PMTK001,220,3*30
$PMTK001,185,3*3C
$GPGGA,164513.872,4026.7019,N,07520.6074,W,1,5,2.75,146.2,M,-33.9,M,,*6D
$GPRMC,164513.872,A,4026.7019,N,07520.6074,W,5.95,52.52,100612,,,A*42
$GPGGA,164514.011,4026.7022,N,07520.5987,W,1,6,1.25,1$PMTK001,314,3*36
$PMTK001,220,3*30
$PMTK001,185,3*3C
$GPGGA,164513.872,4026.7019,N,07520.6074,W,1,5,2.75,146.2,M,-33.9,M,,*6D
$GPRMC,164513.872,A,4026.7019,N,07520.6074,W,5.95,52.52,100612,,,A*42
$GPGGA,164514.011,4026.7022,N,07520.5987,W,1,6,1.25,1$PMTK001,314,3*36
$PMTK001,220,3*30
$PMTK001,185,3*3C
$GPGGA,164513.872,4026.7019,N,07520.6074,W,1,5,2.75,146.2,M,-33.9,M,,*6D
$GPRMC,164513.872,A,4026.7019,N,07520.6074,W,5.95,52.52,100612,,,A*42
$GPGGA,164514.011,4026.7022,N,07520.5987,W,1,6,1.25,1$PMTK001,314,3*36
$PMTK001,220,3*30
$PMTK001,185,3*3C
$GPGGA,164513.872,4026.7019,N,07520.6074,W,1,5,2.75,146.2,M,-33.9,M,,*6D
$GPRMC,164513.872,A,4026.7019,N,07520.6074,W,5.95,52.52,100612,,,A*42
$GPGGA,164514.011,4026.7022,N,07520.5987,W,1,6,1.25,1$PMTK001,314,3*36
$PMTK001,220,3*30
$PMTK001,185,3*3C
$GPGGA,164513.872,4026.7019,N,07520.6074,W,1,5,2.75,146.2,M,-33.9,M,,*6D
$GPRMC,164513.872,A,4026.7019,N,07520.6074,W,5.95,52.52,100612,,,A*42
$GPGGA,164514.011,4026.7022,N,07520.5987,W,1,6,1.25,1$PMTK001,314,3*36
$PMTK001,220,3*30
$PMTK001,185,3*3C
$GPGGA,164513.872,4026.7019,N,07520.6074,W,1,5,2.75,146.2,M,-33.9,M,,*6D
$GPRMC,164513.872,A,4026.7019,N,07520.6074,W,5.95,52.52,100612,,,A*42
$GPGGA,164514.011,4026.7022,N,07520.5987,W,1,6,1.25,1$PMTK001,314,3*36
$PMTK001,220,3*30
$PMTK001,185,3*3C
$GPGGA,164513.872,4026.7019,N,07520.6074,W,1,5,2.75,146.2,M,-33.9,M,,*6D
$GPRMC,164513.872,A,4026.7019,N,07520.6074,W,5.95,52.52,100612,,,A*42
$GPGGA,164514.011,4026.7022,N,07520.5987,W,1,6,1.25,1$PMTK001,314,3*36
$PMTK001,220,3*30
$PMTK001,185,3*3C
$GPGGA,164513.872,4026.7019,N,07520.6074,W,1,5,2.75,146.2,M,-33.9,M,,*6D
$GPRMC,164513.872,A,4026.7019,N,07520.6074,W,5.95,52.52,100612,,,A*42
$GPGGA,164514.011,4026.7022,N,07520.5987,W,1,6,1.25,1$PMTK001,314,3*36
$PMTK001,220,3*30
$PMTK001,185,3*3C
$GPGGA,164513.872,4026.7019,N,07520.6074,W,1,5,2.75,146.2,M,-33.9,M,,*6D
$GPRMC,164513.872,A,4026.7019,N,07520.6074,W,5.95,52.52,100612,,,A*42
$GPGGA,164514.011,4026.7022,N,07520.5987,W,1,6,1.25,1$PMTK001,314,3*36
$PMTK001,220,3*30
$PMTK001,185,3*3C
$GPGGA,164513.872,4026.7019,N,07520.6074,W,1,5,2.75,146.2,M,-33.9,M,,*6D
$GPRMC,164513.872,A,4026.7019,N,07520.6074,W,5.95,52.52,100612,,,A*42
$GPGGA,164514.011,4026.7022,N,07520.5987,W,1,6,1.25,1$PMTK001,314,3*36
$PMTK001,220,3*30
$PMTK001,185,3*3C
$GPGGA,164513.872,4026.7019,N,07520.6074,W,1,5,2.75,146.2,M,-33.9,M,,*6D
$GPRMC,164513.872,A,4026.7019,N,07520.6074,W,5.95,52.52,100612,,,A*42
$GPGGA,164514.011,4026.7022,N,07520.5987,W,1,6,1.25,1$PMTK001,314,3*36
$PMTK001,220,3*30
$PMTK001,185,3*3C
$GPGGA,164513.872,4026.7019,N,07520.6074,W,1,5,2.75,146.2,M,-33.9,M,,*6D
$GPRMC,164513.872,A,4026.7019,N,07520.6074,W,5.95,52.52,100612,,,A*42
$GPGGA,164514.011,4026.7022,N,07520.5987,W,1,6,1.25,1$PMTK001,314,3*36
$PMTK001,220,3*30
$PMTK001,185,3*3C
$GPGGA,164513.872,4026.7019,N,07520.6074,W,1,5,2.75,146.2,M,-33.9,M,,*6D
$GPRMC,164513.872,A,4026.7019,N,07520.6074,W,5.95,52.52,100612,,,A*42
$GPGGA,164514.011,4026.7022,N,07520.5987,W,1,6,1.25,1$PMTK001,314,3*36
$PMTK001,220,3*30
$PMTK001,185,3*3C
$GPGGA,164513.872,4026.7019,N,07520.6074,W,1,5,2.75,146.2,M,-33.9,M,,*6D
$GPRMC,164513.872,A,4026.7019,N,07520.6074,W,5.95,52.52,100612,,,A*42
$GPGGA,164514.011,4026.7022,N,07520.5987,W,1,6,1.25,1$PMTK001,314,3*36
$PMTK001,220,3*30
$PMTK001,185,3*3C
$GPGGA,164513.872,4026.7019,N,07520.6074,W,1,5,2.75,146.2,M,-33.9,M,,*6D
$GPRMC,164513.872,A,4026.7019,N,07520.6074,W,5.95,52.52,100612,,,A*42
$GPGGA,164514.011,4026.7022,N,07520.5987,W,1,6,1.25,1$PMTK001,314,3*36
$PMTK001,220,3*30
$PMTK001,185,3*3C
$GPGGA,164513.872,4026.7019,N,07520.6074,W,1,5,2.75,146.2,M,-33.9,M,,*6D
$GPRMC,164513.872,A,4026.7019,N,07520.6074,W,5.95,52.52,100612,,,A*42
$GPGGA,164514.011,4026.7022,N,07520.5987,W,1,6,1.25,1$PMTK001,314,3*36
$PMTK001,220,3*30
$PMTK001,185,3*3C
$GPGGA,164513.872,4026.7019,N,07520.6074,W,1,5,2.75,146.2,M,-33.9,M,,*6D
$GPRMC,164513.872,A,4026.7019,N,07520.6074,W,5.95,52.52,100612,,,A*42
$GPGGA,164514.011,4026.7022,N,07520.5987,W,1,6,1.25,1$PMTK001,314,3*36
$PMTK001,220,3*30
$PMTK001,185,3*3C
$GPGGA,164513.872,4026.7019,N,07520.6074,W,1,5,2.75,146.2,M,-33.9,M,,*6D
$GPRMC,164513.872,A,4026.7019,N,07520.6074,W,5.95,52.52,100612,,,A*42
$GPGGA,164514.011,4026.7022,N,07520.5987,W,1,6,1.25,1$PMTK001,314,3*36
$PMTK001,220,3*30
$PMTK001,185,3*3C
$GPGGA,164513.872,4026.7019,N,07520.6074,W,1,5,2.75,146.2,M,-33.9,M,,*6D
$GPRMC,164513.872,A,4026.7019,N,07520.6074,W,5.95,52.52,100612,,,A*42
$GPGGA,164514.011,4026.7022,N,07520.5987,W,1,6,1.25,1$PMTK001,314,3*36
$PMTK001,220,3*30
$PMTK001,185,3*3C
$GPGGA,164513.872,4026.7019,N,07520.6074,W,1,5,2.75,146.2,M,-33.9,M,,*6D
$GPRMC,164513.872,A,4026.7019,N,07520.6074,W,5.95,52.52,100612,,,A*42
$GPGGA,164514.011,4026.7022,N,07520.5987,W,1,6,1.25,1$PMTK001,314,3*36
$PMTK001,220,3*30
$PMTK001,185,3*3C
$GPGGA,164513.872,4026.7019,N,07520.6074,W,1,5,2.75,146.2,M,-33.9,M,,*6D
$GPRMC,164513.872,A,4026.7019,N,07520.6074,W,5.95,52.52,100612,,,A*42
$GPGGA,164514.011,4026.7022,N,07520.5987,W,1,6,1.25,1$PMTK001,314,3*36
$PMTK001,220,3*30
$PMTK001,185,3*3C
$GPGGA,164513.872,4026.7019,N,07520.6074,W,1,5,2.75,146.2,M,-33.9,M,,*6D
$GPRMC,164513.872,A,4026.7019,N,07520.6074,W,5.95,52.52,100612,,,A*42
$GPGGA,164514.011,4026.7022,N,07520.5987,W,1,6,1.25,1$PMTK001,314,3*36
$PMTK001,220,3*30
$PMTK001,185,3*3C
$GPGGA,164513.872,4026.7019,N,07520.6074,W,1,5,2.75,146.2,M,-33.9,M,,*6D
$GPRMC,164513.872,A,4026.7019,N,07520.6074,W,5.95,52.52,100612,,,A*42
$GPGGA,164514.011,4026.7022,N,07520.5987,W,1,6,1.25,1$PMTK001,314,3*36
$PMTK001,220,3*30
$PMTK001,185,3*3C
$GPGGA,164513.872,4026.7019,N,07520.6074,W,1,5,2.75,146.2,M,-33.9,M,,*6D
$GPRMC,164513.872,A,4026.7019,N,07520.6074,W,5.95,52.52,100612,,,A*42
$GPGGA,164514.011,4026.7022,N,07520.5987,W,1,6,1.25,1$PMTK001,314,3*36
$PMTK001,220,3*30
$PMTK001,185,3*3C
$GPGGA,164513.872,4026.7019,N,07520.6074,W,1,5,2.75,146.2,M,-33.9,M,,*6D
$GPRMC,164513.872,A,4026.7019,N,07520.6074,W,5.95,52.52,100612,,,A*42
$GPGGA,164514.011,4026.7022,N,07520.5987,W,1,6,1.25,1$PMTK001,314,3*36
$PMTK001,220,3*30
$PMTK001,185,3*3C
$GPGGA,164513.872,4026.7019,N,07520.6074,W,1,5,2.75,146.2,M,-33.9,M,,*6D
$GPRMC,164513.872,A,4026.7019,N,07520.6074,W,5.95,52.52,100612,,,A*42
$GPGGA,164514.011,4026.7022,N,07520.5987,W,1,6,1.25,1$PMTK001,314,3*36
$PMTK001,220,3*30
$PMTK001,185,3*3C
$GPGGA,164513.872,4026.7019,N,07520.6074,W,1,5,2.75,146.2,M,-33.9,M,,*6D
$GPRMC,164513.872,A,4026.7019,N,07520.6074,W,5.95,52.52,100612,,,A*42
$GPGGA,164514.011,4026.7022,N,07520.5987,W,1,6,1.25,1$PMTK001,314,3*36
$PMTK001,220,3*30
$PMTK001,185,3*3C
$GPGGA,164513.872,4026.7019,N,07520.6074,W,1,5,2.75,146.2,M,-33.9,M,,*6D
$GPRMC,164513.872,A,4026.7019,N,07520.6074,W,5.95,52.52,100612,,,A*42
$GPGGA,164514.011,4026.7022,N,07520.5987,W,1,6,1.25,1$PMTK001,314,3*36
$PMTK001,220,3*30
$PMTK001,185,3*3C
$GPGGA,164513.872,4026.7019,N,07520.6074,W,1,5,2.75,146.2,M,-33.9,M,,*6D
$GPRMC,164513.872,A,4026.7019,N,07520.6074,W,5.95,52.52,100612,,,A*42
$GPGGA,164514.011,4026.7022,N,07520.5987,W,1,6,1.25,1$PMTK001,314,3*36
$PMTK001,220,3*30
$PMTK001,185,3*3C
$GPGGA,164513.872,4026.7019,N,07520.6074,W,1,5,2.75,146.2,M,-33.9,M,,*6D
$GPRMC,164513.872,A,4026.7019,N,07520.6074,W,5.95,52.52,100612,,,A*42
$GPGGA,164514.011,4026.7022,N,07520.5987,W,1,6,1.25,1$PMTK001,314,3*36
$PMTK001,220,3*30
$PMTK001,185,3*3C
$GPGGA,164513.872,4026.7019,N,07520.6074,W,1,5,2.75,146.2,M,-33.9,M,,*6D
$GPRMC,164513.872,A,4026.7019,N,07520.6074,W,5.95,52.52,100612,,,A*42
$GPGGA,164514.011,4026.7022,N,07520.5987,W,1,6,1.25,1$PMTK001,314,3*36
$PMTK001,220,3*30
$PMTK001,185,3*3C
$GPGGA,164513.872,4026.7019,N,07520.6074,W,1,5,2.75,146.2,M,-33.9,M,,*6D
$GPRMC,164513.872,A,4026.7019,N,07520.6074,W,5.95,52.52,100612,,,A*42
$GPGGA,164514.011,4026.7022,N,07520.5987,W,1,6,1.25,1$PMTK001,314,3*36
$PMTK001,220,3*30
$PMTK001,185,3*3C
$GPGGA,164513.872,4026.7019,N,07520.6074,W,1,5,2.75,146.2,M,-33.9,M,,*6D
$GPRMC,164513.872,A,4026.7019,N,07520.6074,W,5.95,52.52,100612,,,A*42
$GPGGA,164514.011,4026.7022,N,07520.5987,W,1,6,1.25,1$PMTK001,314,3*36
$PMTK001,220,3*30
$PMTK001,185,3*3C
$GPGGA,164513.872,4026.7019,N,07520.6074,W,1,5,2.75,146.2,M,-33.9,M,,*6D
$GPRMC,164513.872,A,4026.7019,N,07520.6074,W,5.95,52.52,100612,,,A*42
$GPGGA,164514.011,4026.7022,N,07520.5987,W,1,6,1.25,1$PMTK001,314,3*36
$PMTK001,220,3*30
$PMTK001,185,3*3C
$GPGGA,164513.872,4026.7019,N,07520.6074,W,1,5,2.75,146.2,M,-33.9,M,,*6D
$GPRMC,164513.872,A,4026.7019,N,07520.6074,W,5.95,52.52,100612,,,A*42
$GPGGA,164514.011,4026.7022,N,07520.5987,W,1,6,1.25,1$PMTK001,314,3*36
$PMTK001,220,3*30
$PMTK001,185,3*3C
$GPGGA,164513.872,4026.7019,N,07520.6074,W,1,5,2.75,146.2,M,-33.9,M,,*6D
$GPRMC,164513.872,A,4026.7019,N,07520.6074,W,5.95,52.52,100612,,,A*42
$GPGGA,164514.011,4026.7022,N,07520.5987,W,1,6,1.25,1$PMTK001,314,3*36
$PMTK001,220,3*30
$PMTK001,185,3*3C
$GPGGA,164513.872,4026.7019,N,07520.6074,W,1,5,2.75,146.2,M,-33.9,M,,*6D
$GPRMC,164513.872,A,4026.7019,N,07520.6074,W,5.95,52.52,100612,,,A*42
$GPGGA,164514.011,4026.7022,N,07520.5987,W,1,6,1.25,1$PMTK001,314,3*36
$PMTK001,220,3*30
$PMTK001,185,3*3C
$GPGGA,164513.872,4026.7019,N,07520.6074,W,1,5,2.75,146.2,M,-33.9,M,,*6D
$GPRMC,164513.872,A,4026.7019,N,07520.6074,W,5.95,52.52,100612,,,A*42
$GPGGA,164514.011,4026.7022,N,07520.5987,W,1,6,1.25,1$PMTK001,314,3*36
$PMTK001,220,3*30
$PMTK001,185,3*3C
$GPGGA,164513.872,4026.7019,N,07520.6074,W,1,5,2.75,146.2,M,-33.9,M,,*6D
$GPRMC,164513.872,A,4026.7019,N,07520.6074,W,5.95,52.52,100612,,,A*42
$GPGGA,164514.011,4026.7022,N,07520.5987,W,1,6,1.25,1$PMTK001,314,3*36
$PMTK001,220,3*30
$PMTK001,185,3*3C
$GPGGA,164513.872,4026.7019,N,07520.6074,W,1,5,2.75,146.2,M,-33.9,M,,*6D
$GPRMC,164513.872,A,4026.7019,N,07520.6074,W,5.95,52.52,100612,,,A*42
$GPGGA,164514.011,4026.7022,N,07520.5987,W,1,6,1.25,1$PMTK001,314,3*36
$PMTK001,220,3*30
$PMTK001,185,3*3C
$GPGGA,164513.872,4026.7019,N,07520.6074,W,1,5,2.75,146.2,M,-33.9,M,,*6D
$GPRMC,164513.872,A,4026.7019,N,07520.6074,W,5.95,52.52,100612,,,A*42
$GPGGA,164514.011,4026.7022,N,07520.5987,W,1,6,1.25,1$PMTK001,314,3*36
$PMTK001,220,3*30
$PMTK001,185,3*3C
$GPGGA,164513.872,4026.7019,N,07520.6074,W,1,5,2.75,146.2,M,-33.9,M,,*6D
$GPRMC,164513.872,A,4026.7019,N,07520.6074,W,5.95,52.52,100612,,,A*42
$GPGGA,164514.011,4026.7022,N,07520.5987,W,1,6,1.25,1$PMTK001,314,3*36
$PMTK001,220,3*30
$PMTK001,185,3*3C
$GPGGA,164513.872,4026.7019,N,07520.6074,W,1,5,2.75,146.2,M,-33.9,M,,*6D
$GPRMC,164513.872,A,4026.7019,N,07520.6074,W,5.95,52.52,100612,,,A*42
$GPGGA,164514.011,4026.7022,N,07520.5987,W,1,6,1.25,1$PMTK001,314,3*36
$PMTK001,220,3*30
$PMTK001,185,3*3C
$GPGGA,164513.872,4026.7019,N,07520.6074,W,1,5,2.75,146.2,M,-33.9,M,,*6D
$GPRMC,164513.872,A,4026.7019,N,07520.6074,W,5.95,52.52,100612,,,A*42
$GPGGA,164514.011,4026.7022,N,07520.5987,W,1,6,1.25,1$PMTK001,314,3*36
$PMTK001,220,3*30
$PMTK001,185,3*3C
$GPGGA,164513.872,4026.7019,N,07520.6074,W,1,5,2.75,146.2,M,-33.9,M,,*6D
$GPRMC,164513.872,A,4026.7019,N,07520.6074,W,5.95,52.52,100612,,,A*42
$GPGGA,164514.011,4026.7022,N,07520.5987,W,1,6,1.25,1$PMTK001,314,3*36
$PMTK001,220,3*30
$PMTK001,185,3*3C
$GPGGA,164513.872,4026.7019,N,07520.6074,W,1,5,2.75,146.2,M,-33.9,M,,*6D
$GPRMC,164513.872,A,4026.7019,N,07520.6074,W,5.95,52.52,100612,,,A*42
$GPGGA,164514.011,4026.7022,N,07520.5987,W,1,6,1.25,1$PMTK001,314,3*36
$PMTK001,220,3*30
$PMTK001,185,3*3C
$GPGGA,164513.872,4026.7019,N,07520.6074,W,1,5,2.75,146.2,M,-33.9,M,,*6D
$GPRMC,164513.872,A,4026.7019,N,07520.6074,W,5.95,52.52,100612,,,A*42
$GPGGA,164514.011,4026.7022,N,07520.5987,W,1,6,1.25,1$PMTK001,314,3*36
$PMTK001,220,3*30
$PMTK001,185,3*3C
$GPGGA,164513.872,4026.7019,N,07520.6074,W,1,5,2.75,146.2,M,-33.9,M,,*6D
$GPRMC,164513.872,A,4026.7019,N,07520.6074,W,5.95,52.52,100612,,,A*42
$GPGGA,164514.011,4026.7022,N,07520.5987,W,1,6,1.25,1$PMTK001,314,3*36
$PMTK001,220,3*30
$PMTK001,185,3*3C
$GPGGA,164513.872,4026.7019,N,07520.6074,W,1,5,2.75,146.2,M,-33.9,M,,*6D
$GPRMC,164513.872,A,4026.7019,N,07520.6074,W,5.95,52.52,100612,,,A*42
$GPGGA,164514.011,4026.7022,N,07520.5987,W,1,6,1.25,1$PMTK001,314,3*36
$PMTK001,220,3*30
$PMTK001,185,3*3C
$GPGGA,164513.872,4026.7019,N,07520.6074,W,1,5,2.75,146.2,M,-33.9,M,,*6D
$GPRMC,164513.872,A,4026.7019,N,07520.6074,W,5.95,52.52,100612,,,A*42
$GPGGA,164514.011,4026.7022,N,07520.5987,W,1,6,1.25,1$PMTK001,314,3*36
$PMTK001,220,3*30
$PMTK001,185,3*3C
$GPGGA,164513.872,4026.7019,N,07520.6074,W,1,5,2.75,146.2,M,-33.9,M,,*6D
$GPRMC,164513.872,A,4026.7019,N,07520.6074,W,5.95,52.52,100612,,,A*42
$GPGGA,164514.011,4026.7022,N,07520.5987,W,1,6,1.25,1$PMTK001,314,3*36
$PMTK001,220,3*30
$PMTK001,185,3*3C
$GPGGA,164513.872,4026.7019,N,07520.6074,W,1,5,2.75,146.2,M,-33.9,M,,*6D
$GPRMC,164513.872,A,4026.7019,N,07520.6074,W,5.95,52.52,100612,,,A*42
$GPGGA,164514.011,4026.7022,N,07520.5987,W,1,6,1.25,1$PMTK001,314,3*36
$PMTK001,220,3*30
$PMTK001,185,3*3C
$GPGGA,164513.872,4026.7019,N,07520.6074,W,1,5,2.75,146.2,M,-33.9,M,,*6D
$GPRMC,164513.872,A,4026.7019,N,07520.6074,W,5.95,52.52,100612,,,A*42
$GPGGA,164514.011,4026.7022,N,07520.5987,W,1,6,1.25,1$PMTK001,314,3*36
$PMTK001,220,3*30
$PMTK001,185,3*3C
$GPGGA,164513.872,4026.7019,N,07520.6074,W,1,5,2.75,146.2,M,-33.9,M,,*6D
$GPRMC,164513.872,A,4026.7019,N,07520.6074,W,5.95,52.52,100612,,,A*42
$GPGGA,164514.011,4026.7022,N,07520.5987,W,1,6,1.25,1$PMTK001,314,3*36
$PMTK001,220,3*30
$PMTK001,185,3*3C
$GPGGA,164513.872,4026.7019,N,07520.6074,W,1,5,2.75,146.2,M,-33.9,M,,*6D
$GPRMC,164513.872,A,4026.7019,N,07520.6074,W,5.95,52.52,100612,,,A*42
$GPGGA,164514.011,4026.7022,N,07520.5987,W,1,6,1.25,1$PMTK001,314,3*36
$PMTK001,220,3*30
$PMTK001,185,3*3C
$GPGGA,164513.872,4026.7019,N,07520.6074,W,1,5,2.75,146.2,M,-33.9,M,,*6D
$GPRMC,164513.872,A,4026.7019,N,07520.6074,W,5.95,52.52,100612,,,A*42
$GPGGA,164514.011,4026.7022,N,07520.5987,W,1,6,1.25,1$PMTK001,314,3*36
$PMTK001,220,3*30
$PMTK001,185,3*3C
$GPGGA,164513.872,4026.7019,N,07520.6074,W,1,5,2.75,146.2,M,-33.9,M,,*6D
$GPRMC,164513.872,A,4026.7019,N,07520.6074,W,5.95,52.52,100612,,,A*42
$GPGGA,164514.011,4026.7022,N,07520.5987,W,1,6,1.25,1$PMTK001,314,3*36
$PMTK001,220,3*30
$PMTK001,185,3*3C
$GPGGA,164513.872,4026.7019,N,07520.6074,W,1,5,2.75,146.2,M,-33.9,M,,*6D
$GPRMC,164513.872,A,4026.7019,N,07520.6074,W,5.95,52.52,100612,,,A*42
$GPGGA,164514.011,4026.7022,N,07520.5987,W,1,6,1.25,1$PMTK001,314,3*36
$PMTK001,220,3*30
$PMTK001,185,3*3C
$GPGGA,164513.872,4026.7019,N,07520.6074,W,1,5,2.75,146.2,M,-33.9,M,,*6D
$GPRMC,164513.872,A,4026.7019,N,07520.6074,W,5.95,52.52,100612,,,A*42
$GPGGA,164514.011,4026.7022,N,07520.5987,W,1,6,1.25,1$PMTK001,314,3*36
$PMTK001,220,3*30
$PMTK001,185,3*3C
$GPGGA,164513.872,4026.7019,N,07520.6074,W,1,5,2.75,146.2,M,-33.9,M,,*6D
$GPRMC,164513.872,A,4026.7019,N,07520.6074,W,5.95,52.52,100612,,,A*42
$GPGGA,164514.011,4026.7022,N,07520.5987,W,1,6,1.25,1$PMTK001,314,3*36
$PMTK001,220,3*30
$PMTK001,185,3*3C
$GPGGA,164513.872,4026.7019,N,07520.6074,W,1,5,2.75,146.2,M,-33.9,M,,*6D
$GPRMC,164513.872,A,4026.7019,N,07520.6074,W,5.95,52.52,100612,,,A*42
$GPGGA,164514.011,4026.7022,N,07520.5987,W,1,6,1.25,1$PMTK001,314,3*36
$PMTK001,220,3*30
$PMTK001,185,3*3C
$GPGGA,164513.872,4026.7019,N,07520.6074,W,1,5,2.75,146.2,M,-33.9,M,,*6D
$GPRMC,164513.872,A,4026.7019,N,07520.6074,W,5.95,52.52,100612,,,A*42
$GPGGA,164514.011,4026.7022,N,07520.5987,W,1,6,1.25,1$PMTK001,314,3*36
$PMTK001,220,3*30
$PMTK001,185,3*3C
$GPGGA,164513.872,4026.7019,N,07520.6074,W,1,5,2.75,146.2,M,-33.9,M,,*6D
$GPRMC,164513.872,A,4026.7019,N,07520.6074,W,5.95,52.52,100612,,,A*42
$GPGGA,164514.011,4026.7022,N,07520.5987,W,1,6,1.25,1$PMTK001,314,3*36
$PMTK001,220,3*30
$PMTK001,185,3*3C
$GPGGA,164513.872,4026.7019,N,07520.6074,W,1,5,2.75,146.2,M,-33.9,M,,*6D
$GPRMC,164513.872,A,4026.7019,N,07520.6074,W,5.95,52.52,100612,,,A*42
$GPGGA,164514.011,4026.7022,N,07520.5987,W,1,6,1.25,1$PMTK001,314,3*36
$PMTK001,220,3*30
$PMTK001,185,3*3C
$GPGGA,164513.872,4026.7019,N,07520.6074,W,1,5,2.75,146.2,M,-33.9,M,,*6D
$GPRMC,164513.872,A,4026.7019,N,07520.6074,W,5.95,52.52,100612,,,A*42
$GPGGA,164514.011,4026.7022,N,07520.5987,W,1,6,1.25,1$PMTK001,314,3*36
$PMTK001,220,3*30
$PMTK001,185,3*3C
$GPGGA,164513.872,4026.7019,N,07520.6074,W,1,5,2.75,146.2,M,-33.9,M,,*6D
$GPRMC,164513.872,A,4026.7019,N,07520.6074,W,5.95,52.52,100612,,,A*42
$GPGGA,164514.011,4026.7022,N,07520.5987,W,1,6,1.25,1$PMTK001,314,3*36
$PMTK001,220,3*30
$PMTK001,185,3*3C
$GPGGA,164513.872,4026.7019,N,07520.6074,W,1,5,2.75,146.2,M,-33.9,M,,*6D
$GPRMC,164513.872,A,4026.7019,N,07520.6074,W,5.95,52.52,100612,,,A*42
$GPGGA,164514.011,4026.7022,N,07520.5987,W,1,6,1.25,1$PMTK001,314,3*36
$PMTK001,220,3*30
$PMTK001,185,3*3C
$GPGGA,164513.872,4026.7019,N,07520.6074,W,1,5,2.75,146.2,M,-33.9,M,,*6D
$GPRMC,164513.872,A,4026.7019,N,07520.6074,W,5.95,52.52,100612,,,A*42
$GPGGA,164514.011,4026.7022,N,07520.5987,W,1,6,1.25,1$PMTK001,314,3*36
$PMTK001,220,3*30
$PMTK001,185,3*3C
$GPGGA,164513.872,4026.7019,N,07520.6074,W,1,5,2.75,146.2,M,-33.9,M,,*6D
$GPRMC,164513.872,A,4026.7019,N,07520.6074,W,5.95,52.52,100612,,,A*42
$GPGGA,164514.011,4026.7022,N,07520.5987,W,1,6,1.25,1$PMTK001,314,3*36
$PMTK001,220,3*30
$PMTK001,185,3*3C
$GPGGA,164513.872,4026.7019,N,07520.6074,W,1,5,2.75,146.2,M,-33.9,M,,*6D
$GPRMC,164513.872,A,4026.7019,N,07520.6074,W,5.95,52.52,100612,,,A*42
$GPGGA,164514.011,4026.7022,N,07520.5987,W,1,6,1.25,1$PMTK001,314,3*36
$PMTK001,220,3*30
$PMTK001,185,3*3C
$GPGGA,164513.872,4026.7019,N,07520.6074,W,1,5,2.75,146.2,M,-33.9,M,,*6D
$GPRMC,164513.872,A,4026.7019,N,07520.6074,W,5.95,52.52,100612,,,A*42
$GPGGA,164514.011,4026.7022,N,07520.5987,W,1,6,1.25,1$PMTK001,314,3*36
$PMTK001,220,3*30
$PMTK001,185,3*3C
$GPGGA,164513.872,4026.7019,N,07520.6074,W,1,5,2.75,146.2,M,-33.9,M,,*6D
$GPRMC,164513.872,A,4026.7019,N,07520.6074,W,5.95,52.52,100612,,,A*42
$GPGGA,164514.011,4026.7022,N,07520.5987,W,1,6,1.25,1$PMTK001,314,3*36
$PMTK001,220,3*30
$PMTK001,185,3*3C
$GPGGA,164513.872,4026.7019,N,07520.6074,W,1,5,2.75,146.2,M,-33.9,M,,*6D
$GPRMC,164513.872,A,4026.7019,N,07520.6074,W,5.95,52.52,100612,,,A*42
$GPGGA,164514.011,4026.7022,N,07520.5987,W,1,6,1.25,1$PMTK001,314,3*36
$PMTK001,220,3*30
$PMTK001,185,3*3C
$GPGGA,164513.872,4026.7019,N,07520.6074,W,1,5,2.75,146.2,M,-33.9,M,,*6D
$GPRMC,164513.872,A,4026.7019,N,07520.6074,W,5.95,52.52,100612,,,A*42
$GPGGA,164514.011,4026.7022,N,07520.5987,W,1,6,1.25,1$PMTK001,314,3*36
$PMTK001,220,3*30
$PMTK001,185,3*3C
$GPGGA,164513.872,4026.7019,N,07520.6074,W,1,5,2.75,146.2,M,-33.9,M,,*6D
$GPRMC,164513.872,A,4026.7019,N,07520.6074,W,5.95,52.52,100612,,,A*42
$GPGGA,164514.011,4026.7022,N,07520.5987,W,1,6,1.25,1$PMTK001,314,3*36
$PMTK001,220,3*30
$PMTK001,185,3*3C
$GPGGA,164513.872,4026.7019,N,07520.6074,W,1,5,2.75,146.2,M,-33.9,M,,*6D
$GPRMC,164513.872,A,4026.7019,N,07520.6074,W,5.95,52.52,100612,,,A*42
$GPGGA,164514.011,4026.7022,N,07520.5987,W,1,6,1.25,1$PMTK001,314,3*36
$PMTK001,220,3*30
$PMTK001,185,3*3C
$GPGGA,164513.872,4026.7019,N,07520.6074,W,1,5,2.75,146.2,M,-33.9,M,,*6D
$GPRMC,164513.872,A,4026.7019,N,07520.6074,W,5.95,52.52,100612,,,A*42
$GPGGA,164514.011,4026.7022,N,07520.5987,W,1,6,1.25,1$PMTK001,314,3*36
$PMTK001,220,3*30
$PMTK001,185,3*3C
$GPGGA,164513.872,4026.7019,N,07520.6074,W,1,5,2.75,146.2,M,-33.9,M,,*6D
$GPRMC,164513.872,A,4026.7019,N,07520.6074,W,5.95,52.52,100612,,,A*42
$GPGGA,164514.011,4026.7022,N,07520.5987,W,1,6,1.25,1$PMTK001,314,3*36
$PMTK001,220,3*30
$PMTK001,185,3*3C
$GPGGA,164513.872,4026.7019,N,07520.6074,W,1,5,2.75,146.2,M,-33.9,M,,*6D
$GPRMC,164513.872,A,4026.7019,N,07520.6074,W,5.95,52.52,100612,,,A*42
$GPGGA,164514.011,4026.7022,N,07520.5987,W,1,6,1.25,1$PMTK001,314,3*36
$PMTK001,220,3*30
$PMTK001,185,3*3C
$GPGGA,164513.872,4026.7019,N,07520.6074,W,1,5,2.75,146.2,M,-33.9,M,,*6D
$GPRMC,164513.872,A,4026.7019,N,07520.6074,W,5.95,52.52,100612,,,A*42
$GPGGA,164514.011,4026.7022,N,07520.5987,W,1,6,1.25,1