$PMTK001,314,3*36
$PMTK001,220,3*30
$PMTK001,185,3*3C
$GPGGA,174037.000,4026.6981,N,07520.5973,W,2,10,0.81,149.8,M,-33.9,M,0000,0000*5D
$GPRMC,174037.000,A,4026.6981,N,07520.5973,W,0.39,224.79,100612,,,D*75
$GPGGA,174038.000,4026.6981,N,07520.5974,W,$PMTK001,314,3*36
$PMTK001,220,3*30
$PMTK001,185,3*3C
$GPGGA,174037.000,4026.6981,N,07520.5973,W,2,10,0.81,149.8,M,-33.9,M,0000,0000*5D
$GPRMC,174037.000,A,4026.6981,N,07520.5973,W,0.39,224.79,100612,,,D*75
$GPGGA,174038.000,4026.6981,N,07520.5974,W,$PMTK001,314,3*36
$PMTK001,220,3*30
$PMTK001,185,3*3C
$GPGGA,174037.000,4026.6981,N,07520.5973,W,2,10,0.81,149.8,M,-33.9,M,0000,0000*5D
$GPRMC,174037.000,A,4026.6981,N,07520.5973,W,0.39,224.79,100612,,,D*75
$GPGGA,174038.000,4026.6981,N,07520.5974,W,$PMTK001,314,3*36
$PMTK001,220,3*30
$PMTK001,185,3*3C
$GPGGA,174037.000,4026.6981,N,07520.5973,W,2,10,0.81,149.8,M,-33.9,M,0000,0000*5D
$GPRMC,174037.000,A,4026.6981,N,07520.5973,W,0.39,224.79,100612,,,D*75
$GPGGA,174038.000,4026.6981,N,07520.5974,W,$PMTK001,314,3*36
$PMTK001,220,3*30
$PMTK001,185,3*3C
$GPGGA,174037.000,4026.6981,N,07520.5973,W,2,10,0.81,149.8,M,-33.9,M,0000,0000*5D
$GPRMC,174037.000,A,4026.6981,N,07520.5973,W,0.39,224.79,100612,,,D*75
$GPGGA,174038.000,4026.6981,N,07520.5974,W,$PMTK001,314,3*36
$PMTK001,220,3*30
$PMTK001,185,3*3C
$GPGGA,174037.000,4026.6981,N,07520.5973,W,2,10,0.81,149.8,M,-33.9,M,0000,0000*5D
$GPRMC,174037.000,A,4026.6981,N,07520.5973,W,0.39,224.79,100612,,,D*75
$GPGGA,174038.000,4026.6981,N,07520.5974,W,$PMTK001,314,3*36
$PMTK001,220,3*30
$PMTK001,185,3*3C
$GPGGA,174037.000,4026.6981,N,07520.5973,W,2,10,0.81,149.8,M,-33.9,M,0000,0000*5D
$GPRMC,174037.000,A,4026.6981,N,07520.5973,W,0.39,224.79,100612,,,D*75
$GPGGA,174038.000,4026.6981,N,07520.5974,W,$PMTK001,314,3*36
$PMTK001,220,3*30
$PMTK001,185,3*3C
$GPGGA,174037.000,4026.6981,N,07520.5973,W,2,10,0.81,149.8,M,-33.9,M,0000,0000*5D
$GPRMC,174037.000,A,4026.6981,N,07520.5973,W,0.39,224.79,100612,,,D*75
$GPGGA,174038.000,4026.6981,N,07520.5974,W,$PMTK001,314,3*36
$PMTK001,220,3*30
$PMTK001,185,3*3C
$GPGGA,174037.000,4026.6981,N,07520.5973,W,2,10,0.81,149.8,M,-33.9,M,0000,0000*5D
$GPRMC,174037.000,A,4026.6981,N,07520.5973,W,0.39,224.79,100612,,,D*75
$GPGGA,174038.000,4026.6981,N,07520.5974,W,$PMTK001,314,3*36
$PMTK001,220,3*30
$PMTK001,185,3*3C
$GPGGA,174037.000,4026.6981,N,07520.5973,W,2,10,0.81,149.8,M,-33.9,M,0000,0000*5D
$GPRMC,174037.000,A,4026.6981,N,07520.5973,W,0.39,224.79,100612,,,D*75
$GPGGA,174038.000,4026.6981,N,07520.5974,W,$PMTK001,314,3*36
$PMTK001,220,3*30
$PMTK001,185,3*3C
$GPGGA,174037.000,4026.6981,N,07520.5973,W,2,10,0.81,149.8,M,-33.9,M,0000,0000*5D
$GPRMC,174037.000,A,4026.6981,N,07520.5973,W,0.39,224.79,100612,,,D*75
$GPGGA,174038.000,4026.6981,N,07520.5974,W,$PMTK001,314,3*36
$PMTK001,220,3*30
$PMTK001,185,3*3C
$GPGGA,174037.000,4026.6981,N,07520.5973,W,2,10,0.81,149.8,M,-33.9,M,0000,0000*5D
$GPRMC,174037.000,A,4026.6981,N,07520.5973,W,0.39,224.79,100612,,,D*75
$GPGGA,174038.000,4026.6981,N,07520.5974,W,$PMTK001,314,3*36
$PMTK001,220,3*30
$PMTK001,185,3*3C
$GPGGA,174037.000,4026.6981,N,07520.5973,W,2,10,0.81,149.8,M,-33.9,M,0000,0000*5D
$GPRMC,174037.000,A,4026.6981,N,07520.5973,W,0.39,224.79,100612,,,D*75
$GPGGA,174038.000,4026.6981,N,07520.5974,W,$PMTK001,314,3*36
$PMTK001,220,3*30
$PMTK001,185,3*3C
$GPGGA,174037.000,4026.6981,N,07520.5973,W,2,10,0.81,149.8,M,-33.9,M,0000,0000*5D
$GPRMC,174037.000,A,4026.6981,N,07520.5973,W,0.39,224.79,100612,,,D*75
$GPGGA,174038.000,4026.6981,N,07520.5974,W,$PMTK001,314,3*36
$PMTK001,220,3*30
$PMTK001,185,3*3C
$GPGGA,174037.000,4026.6981,N,07520.5973,W,2,10,0.81,149.8,M,-33.9,M,0000,0000*5D
$GPRMC,174037.000,A,4026.6981,N,07520.5973,W,0.39,224.79,100612,,,D*75
$GPGGA,174038.000,4026.6981,N,07520.5974,W,$PMTK001,314,3*36
$PMTK001,220,3*30
$PMTK001,185,3*3C
$GPGGA,174037.000,4026.6981,N,07520.5973,W,2,10,0.81,149.8,M,-33.9,M,0000,0000*5D
$GPRMC,174037.000,A,4026.6981,N,07520.5973,W,0.39,224.79,100612,,,D*75
$GPGGA,174038.000,4026.6981,N,07520.5974,W,$PMTK001,314,3*36
$PMTK001,220,3*30
$PMTK001,185,3*3C
$GPGGA,174037.000,4026.6981,N,07520.5973,W,2,10,0.81,149.8,M,-33.9,M,0000,0000*5D
$GPRMC,174037.000,A,4026.6981,N,07520.5973,W,0.39,224.79,100612,,,D*75
$GPGGA,174038.000,4026.6981,N,07520.5974,W,$PMTK001,314,3*36
$PMTK001,220,3*30
$PMTK001,185,3*3C
$GPGGA,174037.000,4026.6981,N,07520.5973,W,2,10,0.81,149.8,M,-33.9,M,0000,0000*5D
$GPRMC,174037.000,A,4026.6981,N,07520.5973,W,0.39,224.79,100612,,,D*75
$GPGGA,174038.000,4026.6981,N,07520.5974,W,$PMTK001,314,3*36
$PMTK001,220,3*30
$PMTK001,185,3*3C
$GPGGA,174037.000,4026.6981,N,07520.5973,W,2,10,0.81,149.8,M,-33.9,M,0000,0000*5D
$GPRMC,174037.000,A,4026.6981,N,07520.5973,W,0.39,224.79,100612,,,D*75
$GPGGA,174038.000,4026.6981,N,07520.5974,W,$PMTK001,314,3*36
$PMTK001,220,3*30
$PMTK001,185,3*3C
$GPGGA,174037.000,4026.6981,N,07520.5973,W,2,10,0.81,149.8,M,-33.9,M,0000,0000*5D
$GPRMC,174037.000,A,4026.6981,N,07520.5973,W,0.39,224.79,100612,,,D*75
$GPGGA,174038.000,4026.6981,N,07520.5974,W,$PMTK001,314,3*36
$PMTK001,220,3*30
$PMTK001,185,3*3C
$GPGGA,174037.000,4026.6981,N,07520.5973,W,2,10,0.81,149.8,M,-33.9,M,0000,0000*5D
$GPRMC,174037.000,A,4026.6981,N,07520.5973,W,0.39,224.79,100612,,,D*75
$GPGGA,174038.000,4026.6981,N,07520.5974,W,$PMTK001,314,3*36
$PMTK001,220,3*30
$PMTK001,185,3*3C
$GPGGA,174037.000,4026.6981,N,07520.5973,W,2,10,0.81,149.8,M,-33.9,M,0000,0000*5D
$GPRMC,174037.000,A,4026.6981,N,07520.5973,W,0.39,224.79,100612,,,D*75
$GPGGA,174038.000,4026.6981,N,07520.5974,W,$PMTK001,314,3*36
$PMTK001,220,3*30
$PMTK001,185,3*3C
$GPGGA,174037.000,4026.6981,N,07520.5973,W,2,10,0.81,149.8,M,-33.9,M,0000,0000*5D
$GPRMC,174037.000,A,4026.6981,N,07520.5973,W,0.39,224.79,100612,,,D*75
$GPGGA,174038.000,4026.6981,N,07520.5974,W,$PMTK001,314,3*36
$PMTK001,220,3*30
$PMTK001,185,3*3C
$GPGGA,174037.000,4026.6981,N,07520.5973,W,2,10,0.81,149.8,M,-33.9,M,0000,0000*5D
$GPRMC,174037.000,A,4026.6981,N,07520.5973,W,0.39,224.79,100612,,,D*75
$GPGGA,174038.000,4026.6981,N,07520.5974,W,$PMTK001,314,3*36
$PMTK001,220,3*30
$PMTK001,185,3*3C
$GPGGA,174037.000,4026.6981,N,07520.5973,W,2,10,0.81,149.8,M,-33.9,M,0000,0000*5D
$GPRMC,174037.000,A,4026.6981,N,07520.5973,W,0.39,224.79,100612,,,D*75
$GPGGA,174038.000,4026.6981,N,07520.5974,W,$PMTK001,314,3*36
$PMTK001,220,3*30
$PMTK001,185,3*3C
$GPGGA,174037.000,4026.6981,N,07520.5973,W,2,10,0.81,149.8,M,-33.9,M,0000,0000*5D
$GPRMC,174037.000,A,4026.6981,N,07520.5973,W,0.39,224.79,100612,,,D*75
$GPGGA,174038.000,4026.6981,N,07520.5974,W,$PMTK001,314,3*36
$PMTK001,220,3*30
$PMTK001,185,3*3C
$GPGGA,174037.000,4026.6981,N,07520.5973,W,2,10,0.81,149.8,M,-33.9,M,0000,0000*5D
$GPRMC,174037.000,A,4026.6981,N,07520.5973,W,0.39,224.79,100612,,,D*75
$GPGGA,174038.000,4026.6981,N,07520.5974,W,$PMTK001,314,3*36
$PMTK001,220,3*30
$PMTK001,185,3*3C
$GPGGA,174037.000,4026.6981,N,07520.5973,W,2,10,0.81,149.8,M,-33.9,M,0000,0000*5D
$GPRMC,174037.000,A,4026.6981,N,07520.5973,W,0.39,224.79,100612,,,D*75
$GPGGA,174038.000,4026.6981,N,07520.5974,W,$PMTK001,314,3*36
$PMTK001,220,3*30
$PMTK001,185,3*3C
$GPGGA,174037.000,4026.6981,N,07520.5973,W,2,10,0.81,149.8,M,-33.9,M,0000,0000*5D
$GPRMC,174037.000,A,4026.6981,N,07520.5973,W,0.39,224.79,100612,,,D*75
$GPGGA,174038.000,4026.6981,N,07520.5974,W,$PMTK001,314,3*36
$PMTK001,220,3*30
$PMTK001,185,3*3C
$GPGGA,174037.000,4026.6981,N,07520.5973,W,2,10,0.81,149.8,M,-33.9,M,0000,0000*5D
$GPRMC,174037.000,A,4026.6981,N,07520.5973,W,0.39,224.79,100612,,,D*75
$GPGGA,174038.000,4026.6981,N,07520.5974,W,$PMTK001,314,3*36
$PMTK001,220,3*30
$PMTK001,185,3*3C
$GPGGA,174037.000,4026.6981,N,07520.5973,W,2,10,0.81,149.8,M,-33.9,M,0000,0000*5D
$GPRMC,174037.000,A,4026.6981,N,07520.5973,W,0.39,224.79,100612,,,D*75
$GPGGA,174038.000,4026.6981,N,07520.5974,W,$PMTK001,314,3*36
$PMTK001,220,3*30
$PMTK001,185,3*3C
$GPGGA,174037.000,4026.6981,N,07520.5973,W,2,10,0.81,149.8,M,-33.9,M,0000,0000*5D
$GPRMC,174037.000,A,4026.6981,N,07520.5973,W,0.39,224.79,100612,,,D*75
$GPGGA,174038.000,4026.6981,N,07520.5974,W,$PMTK001,314,3*36
$PMTK001,220,3*30
$PMTK001,185,3*3C
$GPGGA,174037.000,4026.6981,N,07520.5973,W,2,10,0.81,149.8,M,-33.9,M,0000,0000*5D
$GPRMC,174037.000,A,4026.6981,N,07520.5973,W,0.39,224.79,100612,,,D*75
$GPGGA,174038.000,4026.6981,N,07520.5974,W,$PMTK001,314,3*36
$PMTK001,220,3*30
$PMTK001,185,3*3C
$GPGGA,174037.000,4026.6981,N,07520.5973,W,2,10,0.81,149.8,M,-33.9,M,0000,0000*5D
$GPRMC,174037.000,A,4026.6981,N,07520.5973,W,0.39,224.79,100612,,,D*75
$GPGGA,174038.000,4026.6981,N,07520.5974,W,$PMTK001,314,3*36
$PMTK001,220,3*30
$PMTK001,185,3*3C
$GPGGA,174037.000,4026.6981,N,07520.5973,W,2,10,0.81,149.8,M,-33.9,M,0000,0000*5D
$GPRMC,174037.000,A,4026.6981,N,07520.5973,W,0.39,224.79,100612,,,D*75
$GPGGA,174038.000,4026.6981,N,07520.5974,W,$PMTK001,314,3*36
$PMTK001,220,3*30
$PMTK001,185,3*3C
$GPGGA,174037.000,4026.6981,N,07520.5973,W,2,10,0.81,149.8,M,-33.9,M,0000,0000*5D
$GPRMC,174037.000,A,4026.6981,N,07520.5973,W,0.39,224.79,100612,,,D*75
$GPGGA,174038.000,4026.6981,N,07520.5974,W,$PMTK001,314,3*36
$PMTK001,220,3*30
$PMTK001,185,3*3C
$GPGGA,174037.000,4026.6981,N,07520.5973,W,2,10,0.81,149.8,M,-33.9,M,0000,0000*5D
$GPRMC,174037.000,A,4026.6981,N,07520.5973,W,0.39,224.79,100612,,,D*75
$GPGGA,174038.000,4026.6981,N,07520.5974,W,$PMTK001,314,3*36
$PMTK001,220,3*30
$PMTK001,185,3*3C
$GPGGA,174037.000,4026.6981,N,07520.5973,W,2,10,0.81,149.8,M,-33.9,M,0000,0000*5D
$GPRMC,174037.000,A,4026.6981,N,07520.5973,W,0.39,224.79,100612,,,D*75
$GPGGA,174038.000,4026.6981,N,07520.5974,W,$PMTK001,314,3*36
$PMTK001,220,3*30
$PMTK001,185,3*3C
$GPGGA,174037.000,4026.6981,N,07520.5973,W,2,10,0.81,149.8,M,-33.9,M,0000,0000*5D
$GPRMC,174037.000,A,4026.6981,N,07520.5973,W,0.39,224.79,100612,,,D*75
$GPGGA,174038.000,4026.6981,N,07520.5974,W,$PMTK001,314,3*36
$PMTK001,220,3*30
$PMTK001,185,3*3C
$GPGGA,174037.000,4026.6981,N,07520.5973,W,2,10,0.81,149.8,M,-33.9,M,0000,0000*5D
$GPRMC,174037.000,A,4026.6981,N,07520.5973,W,0.39,224.79,100612,,,D*75
$GPGGA,174038.000,4026.6981,N,07520.5974,W,$PMTK001,314,3*36
$PMTK001,220,3*30
$PMTK001,185,3*3C
$GPGGA,174037.000,4026.6981,N,07520.5973,W,2,10,0.81,149.8,M,-33.9,M,0000,0000*5D
$GPRMC,174037.000,A,4026.6981,N,07520.5973,W,0.39,224.79,100612,,,D*75
$GPGGA,174038.000,4026.6981,N,07520.5974,W,$PMTK001,314,3*36
$PMTK001,220,3*30
$PMTK001,185,3*3C
$GPGGA,174037.000,4026.6981,N,07520.5973,W,2,10,0.81,149.8,M,-33.9,M,0000,0000*5D
$GPRMC,174037.000,A,4026.6981,N,07520.5973,W,0.39,224.79,100612,,,D*75
$GPGGA,174038.000,4026.6981,N,07520.5974,W,$PMTK001,314,3*36
$PMTK001,220,3*30
$PMTK001,185,3*3C
$GPGGA,174037.000,4026.6981,N,07520.5973,W,2,10,0.81,149.8,M,-33.9,M,0000,0000*5D
$GPRMC,174037.000,A,4026.6981,N,07520.5973,W,0.39,224.79,100612,,,D*75
$GPGGA,174038.000,4026.6981,N,07520.5974,W,$PMTK001,314,3*36
$PMTK001,220,3*30
$PMTK001,185,3*3C
$GPGGA,174037.000,4026.6981,N,07520.5973,W,2,10,0.81,149.8,M,-33.9,M,0000,0000*5D
$GPRMC,174037.000,A,4026.6981,N,07520.5973,W,0.39,224.79,100612,,,D*75
$GPGGA,174038.000,4026.6981,N,07520.5974,W,$PMTK001,314,3*36
$PMTK001,220,3*30
$PMTK001,185,3*3C
$GPGGA,174037.000,4026.6981,N,07520.5973,W,2,10,0.81,149.8,M,-33.9,M,0000,0000*5D
$GPRMC,174037.000,A,4026.6981,N,07520.5973,W,0.39,224.79,100612,,,D*75
$GPGGA,174038.000,4026.6981,N,07520.5974,W,$PMTK001,314,3*36
$PMTK001,220,3*30
$PMTK001,185,3*3C
$GPGGA,174037.000,4026.6981,N,07520.5973,W,2,10,0.81,149.8,M,-33.9,M,0000,0000*5D
$GPRMC,174037.000,A,4026.6981,N,07520.5973,W,0.39,224.79,100612,,,D*75
$GPGGA,174038.000,4026.6981,N,07520.5974,W,$PMTK001,314,3*36
$PMTK001,220,3*30
$PMTK001,185,3*3C
$GPGGA,174037.000,4026.6981,N,07520.5973,W,2,10,0.81,149.8,M,-33.9,M,0000,0000*5D
$GPRMC,174037.000,A,4026.6981,N,07520.5973,W,0.39,224.79,100612,,,D*75
$GPGGA,174038.000,4026.6981,N,07520.5974,W,$PMTK001,314,3*36
$PMTK001,220,3*30
$PMTK001,185,3*3C
$GPGGA,174037.000,4026.6981,N,07520.5973,W,2,10,0.81,149.8,M,-33.9,M,0000,0000*5D
$GPRMC,174037.000,A,4026.6981,N,07520.5973,W,0.39,224.79,100612,,,D*75
$GPGGA,174038.000,4026.6981,N,07520.5974,W,$PMTK001,314,3*36
$PMTK001,220,3*30
$PMTK001,185,3*3C
$GPGGA,174037.000,4026.6981,N,07520.5973,W,2,10,0.81,149.8,M,-33.9,M,0000,0000*5D
$GPRMC,174037.000,A,4026.6981,N,07520.5973,W,0.39,224.79,100612,,,D*75
$GPGGA,174038.000,4026.6981,N,07520.5974,W,$PMTK001,314,3*36
$PMTK001,220,3*30
$PMTK001,185,3*3C
$GPGGA,174037.000,4026.6981,N,07520.5973,W,2,10,0.81,149.8,M,-33.9,M,0000,0000*5D
$GPRMC,174037.000,A,4026.6981,N,07520.5973,W,0.39,224.79,100612,,,D*75
$GPGGA,174038.000,4026.6981,N,07520.5974,W,$PMTK001,314,3*36
$PMTK001,220,3*30
$PMTK001,185,3*3C
$GPGGA,174037.000,4026.6981,N,07520.5973,W,2,10,0.81,149.8,M,-33.9,M,0000,0000*5D
$GPRMC,174037.000,A,4026.6981,N,07520.5973,W,0.39,224.79,100612,,,D*75
$GPGGA,174038.000,4026.6981,N,07520.5974,W,$PMTK001,314,3*36
$PMTK001,220,3*30
$PMTK001,185,3*3C
$GPGGA,174037.000,4026.6981,N,07520.5973,W,2,10,0.81,149.8,M,-33.9,M,0000,0000*5D
$GPRMC,174037.000,A,4026.6981,N,07520.5973,W,0.39,224.79,100612,,,D*75
$GPGGA,174038.000,4026.6981,N,07520.5974,W,$PMTK001,314,3*36
$PMTK001,220,3*30
$PMTK001,185,3*3C
$GPGGA,174037.000,4026.6981,N,07520.5973,W,2,10,0.81,149.8,M,-33.9,M,0000,0000*5D
$GPRMC,174037.000,A,4026.6981,N,07520.5973,W,0.39,224.79,100612,,,D*75
$GPGGA,174038.000,4026.6981,N,07520.5974,W,$PMTK001,314,3*36
$PMTK001,220,3*30
$PMTK001,185,3*3C
$GPGGA,174037.000,4026.6981,N,07520.5973,W,2,10,0.81,149.8,M,-33.9,M,0000,0000*5D
$GPRMC,174037.000,A,4026.6981,N,07520.5973,W,0.39,224.79,100612,,,D*75
$GPGGA,174038.000,4026.6981,N,07520.5974,W,$PMTK001,314,3*36
$PMTK001,220,3*30
$PMTK001,185,3*3C
$GPGGA,174037.000,4026.6981,N,07520.5973,W,2,10,0.81,149.8,M,-33.9,M,0000,0000*5D
$GPRMC,174037.000,A,4026.6981,N,07520.5973,W,0.39,224.79,100612,,,D*75
$GPGGA,174038.000,4026.6981,N,07520.5974,W,$PMTK001,314,3*36
$PMTK001,220,3*30
$PMTK001,185,3*3C
$GPGGA,174037.000,4026.6981,N,07520.5973,W,2,10,0.81,149.8,M,-33.9,M,0000,0000*5D
$GPRMC,174037.000,A,4026.6981,N,07520.5973,W,0.39,224.79,100612,,,D*75
$GPGGA,174038.000,4026.6981,N,07520.5974,W,$PMTK001,314,3*36
$PMTK001,220,3*30
$PMTK001,185,3*3C
$GPGGA,174037.000,4026.6981,N,07520.5973,W,2,10,0.81,149.8,M,-33.9,M,0000,0000*5D
$GPRMC,174037.000,A,4026.6981,N,07520.5973,W,0.39,224.79,100612,,,D*75
$GPGGA,174038.000,4026.6981,N,07520.5974,W,$PMTK001,314,3*36
$PMTK001,220,3*30
$PMTK001,185,3*3C
$GPGGA,174037.000,4026.6981,N,07520.5973,W,2,10,0.81,149.8,M,-33.9,M,0000,0000*5D
$GPRMC,174037.000,A,4026.6981,N,07520.5973,W,0.39,224.79,100612,,,D*75
$GPGGA,174038.000,4026.6981,N,07520.5974,W,