$PMTK001,314,3*36
$PMTK001,220,3*30
$PMTK001,185,3*3C
$GPGGA,173436.000,4026.7023,N,07520.5942,W,2,11,0.75,149.5,M,-33.9,M,0000,0000*5A
$GPRMC,173436.000,A,4026.7023,N,07520.5942,W,0.29,342.91,100612,,,D*73
$GPGGA,173437.000,4026.7023,N,07520.5941,W,$PMTK001,314,3*36
$PMTK001,220,3*30
$PMTK001,185,3*3C
$GPGGA,173436.000,4026.7023,N,07520.5942,W,2,11,0.75,149.5,M,-33.9,M,0000,0000*5A
$GPRMC,173436.000,A,4026.7023,N,07520.5942,W,0.29,342.91,100612,,,D*73
$GPGGA,173437.000,4026.7023,N,07520.5941,W,$PMTK001,314,3*36
$PMTK001,220,3*30
$PMTK001,185,3*3C
$GPGGA,173436.000,4026.7023,N,07520.5942,W,2,11,0.75,149.5,M,-33.9,M,0000,0000*5A
$GPRMC,173436.000,A,4026.7023,N,07520.5942,W,0.29,342.91,100612,,,D*73
$GPGGA,173437.000,4026.7023,N,07520.5941,W,$PMTK001,314,3*36
$PMTK001,220,3*30
$PMTK001,185,3*3C
$GPGGA,173436.000,4026.7023,N,07520.5942,W,2,11,0.75,149.5,M,-33.9,M,0000,0000*5A
$GPRMC,173436.000,A,4026.7023,N,07520.5942,W,0.29,342.91,100612,,,D*73
$GPGGA,173437.000,4026.7023,N,07520.5941,W,$PMTK001,314,3*36
$PMTK001,220,3*30
$PMTK001,185,3*3C
$GPGGA,173436.000,4026.7023,N,07520.5942,W,2,11,0.75,149.5,M,-33.9,M,0000,0000*5A
$GPRMC,173436.000,A,4026.7023,N,07520.5942,W,0.29,342.91,100612,,,D*73
$GPGGA,173437.000,4026.7023,N,07520.5941,W,$PMTK001,314,3*36
$PMTK001,220,3*30
$PMTK001,185,3*3C
$GPGGA,173436.000,4026.7023,N,07520.5942,W,2,11,0.75,149.5,M,-33.9,M,0000,0000*5A
$GPRMC,173436.000,A,4026.7023,N,07520.5942,W,0.29,342.91,100612,,,D*73
$GPGGA,173437.000,4026.7023,N,07520.5941,W,$PMTK001,314,3*36
$PMTK001,220,3*30
$PMTK001,185,3*3C
$GPGGA,173436.000,4026.7023,N,07520.5942,W,2,11,0.75,149.5,M,-33.9,M,0000,0000*5A
$GPRMC,173436.000,A,4026.7023,N,07520.5942,W,0.29,342.91,100612,,,D*73
$GPGGA,173437.000,4026.7023,N,07520.5941,W,$PMTK001,314,3*36
$PMTK001,220,3*30
$PMTK001,185,3*3C
$GPGGA,173436.000,4026.7023,N,07520.5942,W,2,11,0.75,149.5,M,-33.9,M,0000,0000*5A
$GPRMC,173436.000,A,4026.7023,N,07520.5942,W,0.29,342.91,100612,,,D*73
$GPGGA,173437.000,4026.7023,N,07520.5941,W,$PMTK001,314,3*36
$PMTK001,220,3*30
$PMTK001,185,3*3C
$GPGGA,173436.000,4026.7023,N,07520.5942,W,2,11,0.75,149.5,M,-33.9,M,0000,0000*5A
$GPRMC,173436.000,A,4026.7023,N,07520.5942,W,0.29,342.91,100612,,,D*73
$GPGGA,173437.000,4026.7023,N,07520.5941,W,$PMTK001,314,3*36
$PMTK001,220,3*30
$PMTK001,185,3*3C
$GPGGA,173436.000,4026.7023,N,07520.5942,W,2,11,0.75,149.5,M,-33.9,M,0000,0000*5A
$GPRMC,173436.000,A,4026.7023,N,07520.5942,W,0.29,342.91,100612,,,D*73
$GPGGA,173437.000,4026.7023,N,07520.5941,W,$PMTK001,314,3*36
$PMTK001,220,3*30
$PMTK001,185,3*3C
$GPGGA,173436.000,4026.7023,N,07520.5942,W,2,11,0.75,149.5,M,-33.9,M,0000,0000*5A
$GPRMC,173436.000,A,4026.7023,N,07520.5942,W,0.29,342.91,100612,,,D*73
$GPGGA,173437.000,4026.7023,N,07520.5941,W,$PMTK001,314,3*36
$PMTK001,220,3*30
$PMTK001,185,3*3C
$GPGGA,173436.000,4026.7023,N,07520.5942,W,2,11,0.75,149.5,M,-33.9,M,0000,0000*5A
$GPRMC,173436.000,A,4026.7023,N,07520.5942,W,0.29,342.91,100612,,,D*73
$GPGGA,173437.000,4026.7023,N,07520.5941,W,$PMTK001,314,3*36
$PMTK001,220,3*30
$PMTK001,185,3*3C
$GPGGA,173436.000,4026.7023,N,07520.5942,W,2,11,0.75,149.5,M,-33.9,M,0000,0000*5A
$GPRMC,173436.000,A,4026.7023,N,07520.5942,W,0.29,342.91,100612,,,D*73
$GPGGA,173437.000,4026.7023,N,07520.5941,W,$PMTK001,314,3*36
$PMTK001,220,3*30
$PMTK001,185,3*3C
$GPGGA,173436.000,4026.7023,N,07520.5942,W,2,11,0.75,149.5,M,-33.9,M,0000,0000*5A
$GPRMC,173436.000,A,4026.7023,N,07520.5942,W,0.29,342.91,100612,,,D*73
$GPGGA,173437.000,4026.7023,N,07520.5941,W,$PMTK001,314,3*36
$PMTK001,220,3*30
$PMTK001,185,3*3C
$GPGGA,173436.000,4026.7023,N,07520.5942,W,2,11,0.75,149.5,M,-33.9,M,0000,0000*5A
$GPRMC,173436.000,A,4026.7023,N,07520.5942,W,0.29,342.91,100612,,,D*73
$GPGGA,173437.000,4026.7023,N,07520.5941,W,$PMTK001,314,3*36
$PMTK001,220,3*30
$PMTK001,185,3*3C
$GPGGA,173436.000,4026.7023,N,07520.5942,W,2,11,0.75,149.5,M,-33.9,M,0000,0000*5A
$GPRMC,173436.000,A,4026.7023,N,07520.5942,W,0.29,342.91,100612,,,D*73
$GPGGA,173437.000,4026.7023,N,07520.5941,W,$PMTK001,314,3*36
$PMTK001,220,3*30
$PMTK001,185,3*3C
$GPGGA,173436.000,4026.7023,N,07520.5942,W,2,11,0.75,149.5,M,-33.9,M,0000,0000*5A
$GPRMC,173436.000,A,4026.7023,N,07520.5942,W,0.29,342.91,100612,,,D*73
$GPGGA,173437.000,4026.7023,N,07520.5941,W,$PMTK001,314,3*36
$PMTK001,220,3*30
$PMTK001,185,3*3C
$GPGGA,173436.000,4026.7023,N,07520.5942,W,2,11,0.75,149.5,M,-33.9,M,0000,0000*5A
$GPRMC,173436.000,A,4026.7023,N,07520.5942,W,0.29,342.91,100612,,,D*73
$GPGGA,173437.000,4026.7023,N,07520.5941,W,$PMTK001,314,3*36
$PMTK001,220,3*30
$PMTK001,185,3*3C
$GPGGA,173436.000,4026.7023,N,07520.5942,W,2,11,0.75,149.5,M,-33.9,M,0000,0000*5A
$GPRMC,173436.000,A,4026.7023,N,07520.5942,W,0.29,342.91,100612,,,D*73
$GPGGA,173437.000,4026.7023,N,07520.5941,W,$PMTK001,314,3*36
$PMTK001,220,3*30
$PMTK001,185,3*3C
$GPGGA,173436.000,4026.7023,N,07520.5942,W,2,11,0.75,149.5,M,-33.9,M,0000,0000*5A
$GPRMC,173436.000,A,4026.7023,N,07520.5942,W,0.29,342.91,100612,,,D*73
$GPGGA,173437.000,4026.7023,N,07520.5941,W,$PMTK001,314,3*36
$PMTK001,220,3*30
$PMTK001,185,3*3C
$GPGGA,173436.000,4026.7023,N,07520.5942,W,2,11,0.75,149.5,M,-33.9,M,0000,0000*5A
$GPRMC,173436.000,A,4026.7023,N,07520.5942,W,0.29,342.91,100612,,,D*73
$GPGGA,173437.000,4026.7023,N,07520.5941,W,$PMTK001,314,3*36
$PMTK001,220,3*30
$PMTK001,185,3*3C
$GPGGA,173436.000,4026.7023,N,07520.5942,W,2,11,0.75,149.5,M,-33.9,M,0000,0000*5A
$GPRMC,173436.000,A,4026.7023,N,07520.5942,W,0.29,342.91,100612,,,D*73
$GPGGA,173437.000,4026.7023,N,07520.5941,W,$PMTK001,314,3*36
$PMTK001,220,3*30
$PMTK001,185,3*3C
$GPGGA,173436.000,4026.7023,N,07520.5942,W,2,11,0.75,149.5,M,-33.9,M,0000,0000*5A
$GPRMC,173436.000,A,4026.7023,N,07520.5942,W,0.29,342.91,100612,,,D*73
$GPGGA,173437.000,4026.7023,N,07520.5941,W,$PMTK001,314,3*36
$PMTK001,220,3*30
$PMTK001,185,3*3C
$GPGGA,173436.000,4026.7023,N,07520.5942,W,2,11,0.75,149.5,M,-33.9,M,0000,0000*5A
$GPRMC,173436.000,A,4026.7023,N,07520.5942,W,0.29,342.91,100612,,,D*73
$GPGGA,173437.000,4026.7023,N,07520.5941,W,$PMTK001,314,3*36
$PMTK001,220,3*30
$PMTK001,185,3*3C
$GPGGA,173436.000,4026.7023,N,07520.5942,W,2,11,0.75,149.5,M,-33.9,M,0000,0000*5A
$GPRMC,173436.000,A,4026.7023,N,07520.5942,W,0.29,342.91,100612,,,D*73
$GPGGA,173437.000,4026.7023,N,07520.5941,W,$PMTK001,314,3*36
$PMTK001,220,3*30
$PMTK001,185,3*3C
$GPGGA,173436.000,4026.7023,N,07520.5942,W,2,11,0.75,149.5,M,-33.9,M,0000,0000*5A
$GPRMC,173436.000,A,4026.7023,N,07520.5942,W,0.29,342.91,100612,,,D*73
$GPGGA,173437.000,4026.7023,N,07520.5941,W,$PMTK001,314,3*36
$PMTK001,220,3*30
$PMTK001,185,3*3C
$GPGGA,173436.000,4026.7023,N,07520.5942,W,2,11,0.75,149.5,M,-33.9,M,0000,0000*5A
$GPRMC,173436.000,A,4026.7023,N,07520.5942,W,0.29,342.91,100612,,,D*73
$GPGGA,173437.000,4026.7023,N,07520.5941,W,$PMTK001,314,3*36
$PMTK001,220,3*30
$PMTK001,185,3*3C
$GPGGA,173436.000,4026.7023,N,07520.5942,W,2,11,0.75,149.5,M,-33.9,M,0000,0000*5A
$GPRMC,173436.000,A,4026.7023,N,07520.5942,W,0.29,342.91,100612,,,D*73
$GPGGA,173437.000,4026.7023,N,07520.5941,W,$PMTK001,314,3*36
$PMTK001,220,3*30
$PMTK001,185,3*3C
$GPGGA,173436.000,4026.7023,N,07520.5942,W,2,11,0.75,149.5,M,-33.9,M,0000,0000*5A
$GPRMC,173436.000,A,4026.7023,N,07520.5942,W,0.29,342.91,100612,,,D*73
$GPGGA,173437.000,4026.7023,N,07520.5941,W,$PMTK001,314,3*36
$PMTK001,220,3*30
$PMTK001,185,3*3C
$GPGGA,173436.000,4026.7023,N,07520.5942,W,2,11,0.75,149.5,M,-33.9,M,0000,0000*5A
$GPRMC,173436.000,A,4026.7023,N,07520.5942,W,0.29,342.91,100612,,,D*73
$GPGGA,173437.000,4026.7023,N,07520.5941,W,$PMTK001,314,3*36
$PMTK001,220,3*30
$PMTK001,185,3*3C
$GPGGA,173436.000,4026.7023,N,07520.5942,W,2,11,0.75,149.5,M,-33.9,M,0000,0000*5A
$GPRMC,173436.000,A,4026.7023,N,07520.5942,W,0.29,342.91,100612,,,D*73
$GPGGA,173437.000,4026.7023,N,07520.5941,W,$PMTK001,314,3*36
$PMTK001,220,3*30
$PMTK001,185,3*3C
$GPGGA,173436.000,4026.7023,N,07520.5942,W,2,11,0.75,149.5,M,-33.9,M,0000,0000*5A
$GPRMC,173436.000,A,4026.7023,N,07520.5942,W,0.29,342.91,100612,,,D*73
$GPGGA,173437.000,4026.7023,N,07520.5941,W,$PMTK001,314,3*36
$PMTK001,220,3*30
$PMTK001,185,3*3C
$GPGGA,173436.000,4026.7023,N,07520.5942,W,2,11,0.75,149.5,M,-33.9,M,0000,0000*5A
$GPRMC,173436.000,A,4026.7023,N,07520.5942,W,0.29,342.91,100612,,,D*73
$GPGGA,173437.000,4026.7023,N,07520.5941,W,$PMTK001,314,3*36
$PMTK001,220,3*30
$PMTK001,185,3*3C
$GPGGA,173436.000,4026.7023,N,07520.5942,W,2,11,0.75,149.5,M,-33.9,M,0000,0000*5A
$GPRMC,173436.000,A,4026.7023,N,07520.5942,W,0.29,342.91,100612,,,D*73
$GPGGA,173437.000,4026.7023,N,07520.5941,W,$PMTK001,314,3*36
$PMTK001,220,3*30
$PMTK001,185,3*3C
$GPGGA,173436.000,4026.7023,N,07520.5942,W,2,11,0.75,149.5,M,-33.9,M,0000,0000*5A
$GPRMC,173436.000,A,4026.7023,N,07520.5942,W,0.29,342.91,100612,,,D*73
$GPGGA,173437.000,4026.7023,N,07520.5941,W,$PMTK001,314,3*36
$PMTK001,220,3*30
$PMTK001,185,3*3C
$GPGGA,173436.000,4026.7023,N,07520.5942,W,2,11,0.75,149.5,M,-33.9,M,0000,0000*5A
$GPRMC,173436.000,A,4026.7023,N,07520.5942,W,0.29,342.91,100612,,,D*73
$GPGGA,173437.000,4026.7023,N,07520.5941,W,$PMTK001,314,3*36
$PMTK001,220,3*30
$PMTK001,185,3*3C
$GPGGA,173436.000,4026.7023,N,07520.5942,W,2,11,0.75,149.5,M,-33.9,M,0000,0000*5A
$GPRMC,173436.000,A,4026.7023,N,07520.5942,W,0.29,342.91,100612,,,D*73
$GPGGA,173437.000,4026.7023,N,07520.5941,W,$PMTK001,314,3*36
$PMTK001,220,3*30
$PMTK001,185,3*3C
$GPGGA,173436.000,4026.7023,N,07520.5942,W,2,11,0.75,149.5,M,-33.9,M,0000,0000*5A
$GPRMC,173436.000,A,4026.7023,N,07520.5942,W,0.29,342.91,100612,,,D*73
$GPGGA,173437.000,4026.7023,N,07520.5941,W,$PMTK001,314,3*36
$PMTK001,220,3*30
$PMTK001,185,3*3C
$GPGGA,173436.000,4026.7023,N,07520.5942,W,2,11,0.75,149.5,M,-33.9,M,0000,0000*5A
$GPRMC,173436.000,A,4026.7023,N,07520.5942,W,0.29,342.91,100612,,,D*73
$GPGGA,173437.000,4026.7023,N,07520.5941,W,$PMTK001,314,3*36
$PMTK001,220,3*30
$PMTK001,185,3*3C
$GPGGA,173436.000,4026.7023,N,07520.5942,W,2,11,0.75,149.5,M,-33.9,M,0000,0000*5A
$GPRMC,173436.000,A,4026.7023,N,07520.5942,W,0.29,342.91,100612,,,D*73
$GPGGA,173437.000,4026.7023,N,07520.5941,W,$PMTK001,314,3*36
$PMTK001,220,3*30
$PMTK001,185,3*3C
$GPGGA,173436.000,4026.7023,N,07520.5942,W,2,11,0.75,149.5,M,-33.9,M,0000,0000*5A
$GPRMC,173436.000,A,4026.7023,N,07520.5942,W,0.29,342.91,100612,,,D*73
$GPGGA,173437.000,4026.7023,N,07520.5941,W,$PMTK001,314,3*36
$PMTK001,220,3*30
$PMTK001,185,3*3C
$GPGGA,173436.000,4026.7023,N,07520.5942,W,2,11,0.75,149.5,M,-33.9,M,0000,0000*5A
$GPRMC,173436.000,A,4026.7023,N,07520.5942,W,0.29,342.91,100612,,,D*73
$GPGGA,173437.000,4026.7023,N,07520.5941,W,$PMTK001,314,3*36
$PMTK001,220,3*30
$PMTK001,185,3*3C
$GPGGA,173436.000,4026.7023,N,07520.5942,W,2,11,0.75,149.5,M,-33.9,M,0000,0000*5A
$GPRMC,173436.000,A,4026.7023,N,07520.5942,W,0.29,342.91,100612,,,D*73
$GPGGA,173437.000,4026.7023,N,07520.5941,W,$PMTK001,314,3*36
$PMTK001,220,3*30
$PMTK001,185,3*3C
$GPGGA,173436.000,4026.7023,N,07520.5942,W,2,11,0.75,149.5,M,-33.9,M,0000,0000*5A
$GPRMC,173436.000,A,4026.7023,N,07520.5942,W,0.29,342.91,100612,,,D*73
$GPGGA,173437.000,4026.7023,N,07520.5941,W,$PMTK001,314,3*36
$PMTK001,220,3*30
$PMTK001,185,3*3C
$GPGGA,173436.000,4026.7023,N,07520.5942,W,2,11,0.75,149.5,M,-33.9,M,0000,0000*5A
$GPRMC,173436.000,A,4026.7023,N,07520.5942,W,0.29,342.91,100612,,,D*73
$GPGGA,173437.000,4026.7023,N,07520.5941,W,$PMTK001,314,3*36
$PMTK001,220,3*30
$PMTK001,185,3*3C
$GPGGA,173436.000,4026.7023,N,07520.5942,W,2,11,0.75,149.5,M,-33.9,M,0000,0000*5A
$GPRMC,173436.000,A,4026.7023,N,07520.5942,W,0.29,342.91,100612,,,D*73
$GPGGA,173437.000,4026.7023,N,07520.5941,W,$PMTK001,314,3*36
$PMTK001,220,3*30
$PMTK001,185,3*3C
$GPGGA,173436.000,4026.7023,N,07520.5942,W,2,11,0.75,149.5,M,-33.9,M,0000,0000*5A
$GPRMC,173436.000,A,4026.7023,N,07520.5942,W,0.29,342.91,100612,,,D*73
$GPGGA,173437.000,4026.7023,N,07520.5941,W,$PMTK001,314,3*36
$PMTK001,220,3*30
$PMTK001,185,3*3C
$GPGGA,173436.000,4026.7023,N,07520.5942,W,2,11,0.75,149.5,M,-33.9,M,0000,0000*5A
$GPRMC,173436.000,A,4026.7023,N,07520.5942,W,0.29,342.91,100612,,,D*73
$GPGGA,173437.000,4026.7023,N,07520.5941,W,$PMTK001,314,3*36
$PMTK001,220,3*30
$PMTK001,185,3*3C
$GPGGA,173436.000,4026.7023,N,07520.5942,W,2,11,0.75,149.5,M,-33.9,M,0000,0000*5A
$GPRMC,173436.000,A,4026.7023,N,07520.5942,W,0.29,342.91,100612,,,D*73
$GPGGA,173437.000,4026.7023,N,07520.5941,W,$PMTK001,314,3*36
$PMTK001,220,3*30
$PMTK001,185,3*3C
$GPGGA,173436.000,4026.7023,N,07520.5942,W,2,11,0.75,149.5,M,-33.9,M,0000,0000*5A
$GPRMC,173436.000,A,4026.7023,N,07520.5942,W,0.29,342.91,100612,,,D*73
$GPGGA,173437.000,4026.7023,N,07520.5941,W,$PMTK001,314,3*36
$PMTK001,220,3*30
$PMTK001,185,3*3C
$GPGGA,173436.000,4026.7023,N,07520.5942,W,2,11,0.75,149.5,M,-33.9,M,0000,0000*5A
$GPRMC,173436.000,A,4026.7023,N,07520.5942,W,0.29,342.91,100612,,,D*73
$GPGGA,173437.000,4026.7023,N,07520.5941,W,$PMTK001,314,3*36
$PMTK001,220,3*30
$PMTK001,185,3*3C
$GPGGA,173436.000,4026.7023,N,07520.5942,W,2,11,0.75,149.5,M,-33.9,M,0000,0000*5A
$GPRMC,173436.000,A,4026.7023,N,07520.5942,W,0.29,342.91,100612,,,D*73
$GPGGA,173437.000,4026.7023,N,07520.5941,W,$PMTK001,314,3*36
$PMTK001,220,3*30
$PMTK001,185,3*3C
$GPGGA,173436.000,4026.7023,N,07520.5942,W,2,11,0.75,149.5,M,-33.9,M,0000,0000*5A
$GPRMC,173436.000,A,4026.7023,N,07520.5942,W,0.29,342.91,100612,,,D*73
$GPGGA,173437.000,4026.7023,N,07520.5941,W,$PMTK001,314,3*36
$PMTK001,220,3*30
$PMTK001,185,3*3C
$GPGGA,173436.000,4026.7023,N,07520.5942,W,2,11,0.75,149.5,M,-33.9,M,0000,0000*5A
$GPRMC,173436.000,A,4026.7023,N,07520.5942,W,0.29,342.91,100612,,,D*73
$GPGGA,173437.000,4026.7023,N,07520.5941,W,$PMTK001,314,3*36
$PMTK001,220,3*30
$PMTK001,185,3*3C
$GPGGA,173436.000,4026.7023,N,07520.5942,W,2,11,0.75,149.5,M,-33.9,M,0000,0000*5A
$GPRMC,173436.000,A,4026.7023,N,07520.5942,W,0.29,342.91,100612,,,D*73
$GPGGA,173437.000,4026.7023,N,07520.5941,W,$PMTK001,314,3*36
$PMTK001,220,3*30
$PMTK001,185,3*3C
$GPGGA,173436.000,4026.7023,N,07520.5942,W,2,11,0.75,149.5,M,-33.9,M,0000,0000*5A
$GPRMC,173436.000,A,4026.7023,N,07520.5942,W,0.29,342.91,100612,,,D*73
$GPGGA,173437.000,4026.7023,N,07520.5941,W,$PMTK001,314,3*36
$PMTK001,220,3*30
$PMTK001,185,3*3C
$GPGGA,173436.000,4026.7023,N,07520.5942,W,2,11,0.75,149.5,M,-33.9,M,0000,0000*5A
$GPRMC,173436.000,A,4026.7023,N,07520.5942,W,0.29,342.91,100612,,,D*73
$GPGGA,173437.000,4026.7023,N,07520.5941,W,$PMTK001,314,3*36
$PMTK001,220,3*30
$PMTK001,185,3*3C
$GPGGA,173436.000,4026.7023,N,07520.5942,W,2,11,0.75,149.5,M,-33.9,M,0000,0000*5A
$GPRMC,173436.000,A,4026.7023,N,07520.5942,W,0.29,342.91,100612,,,D*73
$GPGGA,173437.000,4026.7023,N,07520.5941,W,