$PMTK001,314,3*36
$PMTK001,220,3*30
$PMTK001,185,3*3C
$GPGGA,172615.000,4026.6996,N,07520.5945,W,2,11,0.75,148.1,M,-33.9,M,0000,0000*5C
$GPRMC,172615.000,A,4026.6996,N,07520.5945,W,0.27,98.22,100612,,,D*42
$GPGGA,172616.000,4026.6996,N,07520.5946,W,2$PMTK001,314,3*36
$PMTK001,220,3*30
$PMTK001,185,3*3C
$GPGGA,172615.000,4026.6996,N,07520.5945,W,2,11,0.75,148.1,M,-33.9,M,0000,0000*5C
$GPRMC,172615.000,A,4026.6996,N,07520.5945,W,0.27,98.22,100612,,,D*42
$GPGGA,172616.000,4026.6996,N,07520.5946,W,2$PMTK001,314,3*36
$PMTK001,220,3*30
$PMTK001,185,3*3C
$GPGGA,172615.000,4026.6996,N,07520.5945,W,2,11,0.75,148.1,M,-33.9,M,0000,0000*5C
$GPRMC,172615.000,A,4026.6996,N,07520.5945,W,0.27,98.22,100612,,,D*42
$GPGGA,172616.000,4026.6996,N,07520.5946,W,2$PMTK001,314,3*36
$PMTK001,220,3*30
$PMTK001,185,3*3C
$GPGGA,172615.000,4026.6996,N,07520.5945,W,2,11,0.75,148.1,M,-33.9,M,0000,0000*5C
$GPRMC,172615.000,A,4026.6996,N,07520.5945,W,0.27,98.22,100612,,,D*42
$GPGGA,172616.000,4026.6996,N,07520.5946,W,2$PMTK001,314,3*36
$PMTK001,220,3*30
$PMTK001,185,3*3C
$GPGGA,172615.000,4026.6996,N,07520.5945,W,2,11,0.75,148.1,M,-33.9,M,0000,0000*5C
$GPRMC,172615.000,A,4026.6996,N,07520.5945,W,0.27,98.22,100612,,,D*42
$GPGGA,172616.000,4026.6996,N,07520.5946,W,2$PMTK001,314,3*36
$PMTK001,220,3*30
$PMTK001,185,3*3C
$GPGGA,172615.000,4026.6996,N,07520.5945,W,2,11,0.75,148.1,M,-33.9,M,0000,0000*5C
$GPRMC,172615.000,A,4026.6996,N,07520.5945,W,0.27,98.22,100612,,,D*42
$GPGGA,172616.000,4026.6996,N,07520.5946,W,2$PMTK001,314,3*36
$PMTK001,220,3*30
$PMTK001,185,3*3C
$GPGGA,172615.000,4026.6996,N,07520.5945,W,2,11,0.75,148.1,M,-33.9,M,0000,0000*5C
$GPRMC,172615.000,A,4026.6996,N,07520.5945,W,0.27,98.22,100612,,,D*42
$GPGGA,172616.000,4026.6996,N,07520.5946,W,2$PMTK001,314,3*36
$PMTK001,220,3*30
$PMTK001,185,3*3C
$GPGGA,172615.000,4026.6996,N,07520.5945,W,2,11,0.75,148.1,M,-33.9,M,0000,0000*5C
$GPRMC,172615.000,A,4026.6996,N,07520.5945,W,0.27,98.22,100612,,,D*42
$GPGGA,172616.000,4026.6996,N,07520.5946,W,2$PMTK001,314,3*36
$PMTK001,220,3*30
$PMTK001,185,3*3C
$GPGGA,172615.000,4026.6996,N,07520.5945,W,2,11,0.75,148.1,M,-33.9,M,0000,0000*5C
$GPRMC,172615.000,A,4026.6996,N,07520.5945,W,0.27,98.22,100612,,,D*42
$GPGGA,172616.000,4026.6996,N,07520.5946,W,2$PMTK001,314,3*36
$PMTK001,220,3*30
$PMTK001,185,3*3C
$GPGGA,172615.000,4026.6996,N,07520.5945,W,2,11,0.75,148.1,M,-33.9,M,0000,0000*5C
$GPRMC,172615.000,A,4026.6996,N,07520.5945,W,0.27,98.22,100612,,,D*42
$GPGGA,172616.000,4026.6996,N,07520.5946,W,2$PMTK001,314,3*36
$PMTK001,220,3*30
$PMTK001,185,3*3C
$GPGGA,172615.000,4026.6996,N,07520.5945,W,2,11,0.75,148.1,M,-33.9,M,0000,0000*5C
$GPRMC,172615.000,A,4026.6996,N,07520.5945,W,0.27,98.22,100612,,,D*42
$GPGGA,172616.000,4026.6996,N,07520.5946,W,2$PMTK001,314,3*36
$PMTK001,220,3*30
$PMTK001,185,3*3C
$GPGGA,172615.000,4026.6996,N,07520.5945,W,2,11,0.75,148.1,M,-33.9,M,0000,0000*5C
$GPRMC,172615.000,A,4026.6996,N,07520.5945,W,0.27,98.22,100612,,,D*42
$GPGGA,172616.000,4026.6996,N,07520.5946,W,2$PMTK001,314,3*36
$PMTK001,220,3*30
$PMTK001,185,3*3C
$GPGGA,172615.000,4026.6996,N,07520.5945,W,2,11,0.75,148.1,M,-33.9,M,0000,0000*5C
$GPRMC,172615.000,A,4026.6996,N,07520.5945,W,0.27,98.22,100612,,,D*42
$GPGGA,172616.000,4026.6996,N,07520.5946,W,2$PMTK001,314,3*36
$PMTK001,220,3*30
$PMTK001,185,3*3C
$GPGGA,172615.000,4026.6996,N,07520.5945,W,2,11,0.75,148.1,M,-33.9,M,0000,0000*5C
$GPRMC,172615.000,A,4026.6996,N,07520.5945,W,0.27,98.22,100612,,,D*42
$GPGGA,172616.000,4026.6996,N,07520.5946,W,2$PMTK001,314,3*36
$PMTK001,220,3*30
$PMTK001,185,3*3C
$GPGGA,172615.000,4026.6996,N,07520.5945,W,2,11,0.75,148.1,M,-33.9,M,0000,0000*5C
$GPRMC,172615.000,A,4026.6996,N,07520.5945,W,0.27,98.22,100612,,,D*42
$GPGGA,172616.000,4026.6996,N,07520.5946,W,2$PMTK001,314,3*36
$PMTK001,220,3*30
$PMTK001,185,3*3C
$GPGGA,172615.000,4026.6996,N,07520.5945,W,2,11,0.75,148.1,M,-33.9,M,0000,0000*5C
$GPRMC,172615.000,A,4026.6996,N,07520.5945,W,0.27,98.22,100612,,,D*42
$GPGGA,172616.000,4026.6996,N,07520.5946,W,2$PMTK001,314,3*36
$PMTK001,220,3*30
$PMTK001,185,3*3C
$GPGGA,172615.000,4026.6996,N,07520.5945,W,2,11,0.75,148.1,M,-33.9,M,0000,0000*5C
$GPRMC,172615.000,A,4026.6996,N,07520.5945,W,0.27,98.22,100612,,,D*42
$GPGGA,172616.000,4026.6996,N,07520.5946,W,2$PMTK001,314,3*36
$PMTK001,220,3*30
$PMTK001,185,3*3C
$GPGGA,172615.000,4026.6996,N,07520.5945,W,2,11,0.75,148.1,M,-33.9,M,0000,0000*5C
$GPRMC,172615.000,A,4026.6996,N,07520.5945,W,0.27,98.22,100612,,,D*42
$GPGGA,172616.000,4026.6996,N,07520.5946,W,2$PMTK001,314,3*36
$PMTK001,220,3*30
$PMTK001,185,3*3C
$GPGGA,172615.000,4026.6996,N,07520.5945,W,2,11,0.75,148.1,M,-33.9,M,0000,0000*5C
$GPRMC,172615.000,A,4026.6996,N,07520.5945,W,0.27,98.22,100612,,,D*42
$GPGGA,172616.000,4026.6996,N,07520.5946,W,2$PMTK001,314,3*36
$PMTK001,220,3*30
$PMTK001,185,3*3C
$GPGGA,172615.000,4026.6996,N,07520.5945,W,2,11,0.75,148.1,M,-33.9,M,0000,0000*5C
$GPRMC,172615.000,A,4026.6996,N,07520.5945,W,0.27,98.22,100612,,,D*42
$GPGGA,172616.000,4026.6996,N,07520.5946,W,2$PMTK001,314,3*36
$PMTK001,220,3*30
$PMTK001,185,3*3C
$GPGGA,172615.000,4026.6996,N,07520.5945,W,2,11,0.75,148.1,M,-33.9,M,0000,0000*5C
$GPRMC,172615.000,A,4026.6996,N,07520.5945,W,0.27,98.22,100612,,,D*42
$GPGGA,172616.000,4026.6996,N,07520.5946,W,2$PMTK001,314,3*36
$PMTK001,220,3*30
$PMTK001,185,3*3C
$GPGGA,172615.000,4026.6996,N,07520.5945,W,2,11,0.75,148.1,M,-33.9,M,0000,0000*5C
$GPRMC,172615.000,A,4026.6996,N,07520.5945,W,0.27,98.22,100612,,,D*42
$GPGGA,172616.000,4026.6996,N,07520.5946,W,2$PMTK001,314,3*36
$PMTK001,220,3*30
$PMTK001,185,3*3C
$GPGGA,172615.000,4026.6996,N,07520.5945,W,2,11,0.75,148.1,M,-33.9,M,0000,0000*5C
$GPRMC,172615.000,A,4026.6996,N,07520.5945,W,0.27,98.22,100612,,,D*42
$GPGGA,172616.000,4026.6996,N,07520.5946,W,2$PMTK001,314,3*36
$PMTK001,220,3*30
$PMTK001,185,3*3C
$GPGGA,172615.000,4026.6996,N,07520.5945,W,2,11,0.75,148.1,M,-33.9,M,0000,0000*5C
$GPRMC,172615.000,A,4026.6996,N,07520.5945,W,0.27,98.22,100612,,,D*42
$GPGGA,172616.000,4026.6996,N,07520.5946,W,2$PMTK001,314,3*36
$PMTK001,220,3*30
$PMTK001,185,3*3C
$GPGGA,172615.000,4026.6996,N,07520.5945,W,2,11,0.75,148.1,M,-33.9,M,0000,0000*5C
$GPRMC,172615.000,A,4026.6996,N,07520.5945,W,0.27,98.22,100612,,,D*42
$GPGGA,172616.000,4026.6996,N,07520.5946,W,2$PMTK001,314,3*36
$PMTK001,220,3*30
$PMTK001,185,3*3C
$GPGGA,172615.000,4026.6996,N,07520.5945,W,2,11,0.75,148.1,M,-33.9,M,0000,0000*5C
$GPRMC,172615.000,A,4026.6996,N,07520.5945,W,0.27,98.22,100612,,,D*42
$GPGGA,172616.000,4026.6996,N,07520.5946,W,2$PMTK001,314,3*36
$PMTK001,220,3*30
$PMTK001,185,3*3C
$GPGGA,172615.000,4026.6996,N,07520.5945,W,2,11,0.75,148.1,M,-33.9,M,0000,0000*5C
$GPRMC,172615.000,A,4026.6996,N,07520.5945,W,0.27,98.22,100612,,,D*42
$GPGGA,172616.000,4026.6996,N,07520.5946,W,2$PMTK001,314,3*36
$PMTK001,220,3*30
$PMTK001,185,3*3C
$GPGGA,172615.000,4026.6996,N,07520.5945,W,2,11,0.75,148.1,M,-33.9,M,0000,0000*5C
$GPRMC,172615.000,A,4026.6996,N,07520.5945,W,0.27,98.22,100612,,,D*42
$GPGGA,172616.000,4026.6996,N,07520.5946,W,2$PMTK001,314,3*36
$PMTK001,220,3*30
$PMTK001,185,3*3C
$GPGGA,172615.000,4026.6996,N,07520.5945,W,2,11,0.75,148.1,M,-33.9,M,0000,0000*5C
$GPRMC,172615.000,A,4026.6996,N,07520.5945,W,0.27,98.22,100612,,,D*42
$GPGGA,172616.000,4026.6996,N,07520.5946,W,2$PMTK001,314,3*36
$PMTK001,220,3*30
$PMTK001,185,3*3C
$GPGGA,172615.000,4026.6996,N,07520.5945,W,2,11,0.75,148.1,M,-33.9,M,0000,0000*5C
$GPRMC,172615.000,A,4026.6996,N,07520.5945,W,0.27,98.22,100612,,,D*42
$GPGGA,172616.000,4026.6996,N,07520.5946,W,2$PMTK001,314,3*36
$PMTK001,220,3*30
$PMTK001,185,3*3C
$GPGGA,172615.000,4026.6996,N,07520.5945,W,2,11,0.75,148.1,M,-33.9,M,0000,0000*5C
$GPRMC,172615.000,A,4026.6996,N,07520.5945,W,0.27,98.22,100612,,,D*42
$GPGGA,172616.000,4026.6996,N,07520.5946,W,2$PMTK001,314,3*36
$PMTK001,220,3*30
$PMTK001,185,3*3C
$GPGGA,172615.000,4026.6996,N,07520.5945,W,2,11,0.75,148.1,M,-33.9,M,0000,0000*5C
$GPRMC,172615.000,A,4026.6996,N,07520.5945,W,0.27,98.22,100612,,,D*42
$GPGGA,172616.000,4026.6996,N,07520.5946,W,2$PMTK001,314,3*36
$PMTK001,220,3*30
$PMTK001,185,3*3C
$GPGGA,172615.000,4026.6996,N,07520.5945,W,2,11,0.75,148.1,M,-33.9,M,0000,0000*5C
$GPRMC,172615.000,A,4026.6996,N,07520.5945,W,0.27,98.22,100612,,,D*42
$GPGGA,172616.000,4026.6996,N,07520.5946,W,2$PMTK001,314,3*36
$PMTK001,220,3*30
$PMTK001,185,3*3C
$GPGGA,172615.000,4026.6996,N,07520.5945,W,2,11,0.75,148.1,M,-33.9,M,0000,0000*5C
$GPRMC,172615.000,A,4026.6996,N,07520.5945,W,0.27,98.22,100612,,,D*42
$GPGGA,172616.000,4026.6996,N,07520.5946,W,2$PMTK001,314,3*36
$PMTK001,220,3*30
$PMTK001,185,3*3C
$GPGGA,172615.000,4026.6996,N,07520.5945,W,2,11,0.75,148.1,M,-33.9,M,0000,0000*5C
$GPRMC,172615.000,A,4026.6996,N,07520.5945,W,0.27,98.22,100612,,,D*42
$GPGGA,172616.000,4026.6996,N,07520.5946,W,2$PMTK001,314,3*36
$PMTK001,220,3*30
$PMTK001,185,3*3C
$GPGGA,172615.000,4026.6996,N,07520.5945,W,2,11,0.75,148.1,M,-33.9,M,0000,0000*5C
$GPRMC,172615.000,A,4026.6996,N,07520.5945,W,0.27,98.22,100612,,,D*42
$GPGGA,172616.000,4026.6996,N,07520.5946,W,2$PMTK001,314,3*36
$PMTK001,220,3*30
$PMTK001,185,3*3C
$GPGGA,172615.000,4026.6996,N,07520.5945,W,2,11,0.75,148.1,M,-33.9,M,0000,0000*5C
$GPRMC,172615.000,A,4026.6996,N,07520.5945,W,0.27,98.22,100612,,,D*42
$GPGGA,172616.000,4026.6996,N,07520.5946,W,2$PMTK001,314,3*36
$PMTK001,220,3*30
$PMTK001,185,3*3C
$GPGGA,172615.000,4026.6996,N,07520.5945,W,2,11,0.75,148.1,M,-33.9,M,0000,0000*5C
$GPRMC,172615.000,A,4026.6996,N,07520.5945,W,0.27,98.22,100612,,,D*42
$GPGGA,172616.000,4026.6996,N,07520.5946,W,2$PMTK001,314,3*36
$PMTK001,220,3*30
$PMTK001,185,3*3C
$GPGGA,172615.000,4026.6996,N,07520.5945,W,2,11,0.75,148.1,M,-33.9,M,0000,0000*5C
$GPRMC,172615.000,A,4026.6996,N,07520.5945,W,0.27,98.22,100612,,,D*42
$GPGGA,172616.000,4026.6996,N,07520.5946,W,2$PMTK001,314,3*36
$PMTK001,220,3*30
$PMTK001,185,3*3C
$GPGGA,172615.000,4026.6996,N,07520.5945,W,2,11,0.75,148.1,M,-33.9,M,0000,0000*5C
$GPRMC,172615.000,A,4026.6996,N,07520.5945,W,0.27,98.22,100612,,,D*42
$GPGGA,172616.000,4026.6996,N,07520.5946,W,2$PMTK001,314,3*36
$PMTK001,220,3*30
$PMTK001,185,3*3C
$GPGGA,172615.000,4026.6996,N,07520.5945,W,2,11,0.75,148.1,M,-33.9,M,0000,0000*5C
$GPRMC,172615.000,A,4026.6996,N,07520.5945,W,0.27,98.22,100612,,,D*42
$GPGGA,172616.000,4026.6996,N,07520.5946,W,2$PMTK001,314,3*36
$PMTK001,220,3*30
$PMTK001,185,3*3C
$GPGGA,172615.000,4026.6996,N,07520.5945,W,2,11,0.75,148.1,M,-33.9,M,0000,0000*5C
$GPRMC,172615.000,A,4026.6996,N,07520.5945,W,0.27,98.22,100612,,,D*42
$GPGGA,172616.000,4026.6996,N,07520.5946,W,2$PMTK001,314,3*36
$PMTK001,220,3*30
$PMTK001,185,3*3C
$GPGGA,172615.000,4026.6996,N,07520.5945,W,2,11,0.75,148.1,M,-33.9,M,0000,0000*5C
$GPRMC,172615.000,A,4026.6996,N,07520.5945,W,0.27,98.22,100612,,,D*42
$GPGGA,172616.000,4026.6996,N,07520.5946,W,2$PMTK001,314,3*36
$PMTK001,220,3*30
$PMTK001,185,3*3C
$GPGGA,172615.000,4026.6996,N,07520.5945,W,2,11,0.75,148.1,M,-33.9,M,0000,0000*5C
$GPRMC,172615.000,A,4026.6996,N,07520.5945,W,0.27,98.22,100612,,,D*42
$GPGGA,172616.000,4026.6996,N,07520.5946,W,2$PMTK001,314,3*36
$PMTK001,220,3*30
$PMTK001,185,3*3C
$GPGGA,172615.000,4026.6996,N,07520.5945,W,2,11,0.75,148.1,M,-33.9,M,0000,0000*5C
$GPRMC,172615.000,A,4026.6996,N,07520.5945,W,0.27,98.22,100612,,,D*42
$GPGGA,172616.000,4026.6996,N,07520.5946,W,2$PMTK001,314,3*36
$PMTK001,220,3*30
$PMTK001,185,3*3C
$GPGGA,172615.000,4026.6996,N,07520.5945,W,2,11,0.75,148.1,M,-33.9,M,0000,0000*5C
$GPRMC,172615.000,A,4026.6996,N,07520.5945,W,0.27,98.22,100612,,,D*42
$GPGGA,172616.000,4026.6996,N,07520.5946,W,2$PMTK001,314,3*36
$PMTK001,220,3*30
$PMTK001,185,3*3C
$GPGGA,172615.000,4026.6996,N,07520.5945,W,2,11,0.75,148.1,M,-33.9,M,0000,0000*5C
$GPRMC,172615.000,A,4026.6996,N,07520.5945,W,0.27,98.22,100612,,,D*42
$GPGGA,172616.000,4026.6996,N,07520.5946,W,2$PMTK001,314,3*36
$PMTK001,220,3*30
$PMTK001,185,3*3C
$GPGGA,172615.000,4026.6996,N,07520.5945,W,2,11,0.75,148.1,M,-33.9,M,0000,0000*5C
$GPRMC,172615.000,A,4026.6996,N,07520.5945,W,0.27,98.22,100612,,,D*42
$GPGGA,172616.000,4026.6996,N,07520.5946,W,2$PMTK001,314,3*36
$PMTK001,220,3*30
$PMTK001,185,3*3C
$GPGGA,172615.000,4026.6996,N,07520.5945,W,2,11,0.75,148.1,M,-33.9,M,0000,0000*5C
$GPRMC,172615.000,A,4026.6996,N,07520.5945,W,0.27,98.22,100612,,,D*42
$GPGGA,172616.000,4026.6996,N,07520.5946,W,2$PMTK001,314,3*36
$PMTK001,220,3*30
$PMTK001,185,3*3C
$GPGGA,172615.000,4026.6996,N,07520.5945,W,2,11,0.75,148.1,M,-33.9,M,0000,0000*5C
$GPRMC,172615.000,A,4026.6996,N,07520.5945,W,0.27,98.22,100612,,,D*42
$GPGGA,172616.000,4026.6996,N,07520.5946,W,2$PMTK001,314,3*36
$PMTK001,220,3*30
$PMTK001,185,3*3C
$GPGGA,172615.000,4026.6996,N,07520.5945,W,2,11,0.75,148.1,M,-33.9,M,0000,0000*5C
$GPRMC,172615.000,A,4026.6996,N,07520.5945,W,0.27,98.22,100612,,,D*42
$GPGGA,172616.000,4026.6996,N,07520.5946,W,2$PMTK001,314,3*36
$PMTK001,220,3*30
$PMTK001,185,3*3C
$GPGGA,172615.000,4026.6996,N,07520.5945,W,2,11,0.75,148.1,M,-33.9,M,0000,0000*5C
$GPRMC,172615.000,A,4026.6996,N,07520.5945,W,0.27,98.22,100612,,,D*42
$GPGGA,172616.000,4026.6996,N,07520.5946,W,2$PMTK001,314,3*36
$PMTK001,220,3*30
$PMTK001,185,3*3C
$GPGGA,172615.000,4026.6996,N,07520.5945,W,2,11,0.75,148.1,M,-33.9,M,0000,0000*5C
$GPRMC,172615.000,A,4026.6996,N,07520.5945,W,0.27,98.22,100612,,,D*42
$GPGGA,172616.000,4026.6996,N,07520.5946,W,2$PMTK001,314,3*36
$PMTK001,220,3*30
$PMTK001,185,3*3C
$GPGGA,172615.000,4026.6996,N,07520.5945,W,2,11,0.75,148.1,M,-33.9,M,0000,0000*5C
$GPRMC,172615.000,A,4026.6996,N,07520.5945,W,0.27,98.22,100612,,,D*42
$GPGGA,172616.000,4026.6996,N,07520.5946,W,2$PMTK001,314,3*36
$PMTK001,220,3*30
$PMTK001,185,3*3C
$GPGGA,172615.000,4026.6996,N,07520.5945,W,2,11,0.75,148.1,M,-33.9,M,0000,0000*5C
$GPRMC,172615.000,A,4026.6996,N,07520.5945,W,0.27,98.22,100612,,,D*42
$GPGGA,172616.000,4026.6996,N,07520.5946,W,2$PMTK001,314,3*36
$PMTK001,220,3*30
$PMTK001,185,3*3C
$GPGGA,172615.000,4026.6996,N,07520.5945,W,2,11,0.75,148.1,M,-33.9,M,0000,0000*5C
$GPRMC,172615.000,A,4026.6996,N,07520.5945,W,0.27,98.22,100612,,,D*42
$GPGGA,172616.000,4026.6996,N,07520.5946,W,2$PMTK001,314,3*36
$PMTK001,220,3*30
$PMTK001,185,3*3C
$GPGGA,172615.000,4026.6996,N,07520.5945,W,2,11,0.75,148.1,M,-33.9,M,0000,0000*5C
$GPRMC,172615.000,A,4026.6996,N,07520.5945,W,0.27,98.22,100612,,,D*42
$GPGGA,172616.000,4026.6996,N,07520.5946,W,2$PMTK001,314,3*36
$PMTK001,220,3*30
$PMTK001,185,3*3C
$GPGGA,172615.000,4026.6996,N,07520.5945,W,2,11,0.75,148.1,M,-33.9,M,0000,0000*5C
$GPRMC,172615.000,A,4026.6996,N,07520.5945,W,0.27,98.22,100612,,,D*42
$GPGGA,172616.000,4026.6996,N,07520.5946,W,2