$GPGGA,165127.000,4026.7001,N,07520.5978,W,2,9,0.92,153.7,M,-33.9,M,0000,0000*68
$GPRMC,165127.000,A,4026.7001,N,07520.5978,W,0.05,21.72,100612,,,D*4D
$PMTK001,314,3*36
$PMTK001,220,3*30
$PMTK001,185,3*3C
$GPGGA,165128.000,4026.7002,N,07520.5978,W,2,$GPGGA,165127.000,4026.7001,N,07520.5978,W,2,9,0.92,153.7,M,-33.9,M,0000,0000*68
$GPRMC,165127.000,A,4026.7001,N,07520.5978,W,0.05,21.72,100612,,,D*4D
$PMTK001,314,3*36
$PMTK001,220,3*30
$PMTK001,185,3*3C
$GPGGA,165128.000,4026.7002,N,07520.5978,W,2,$GPGGA,165127.000,4026.7001,N,07520.5978,W,2,9,0.92,153.7,M,-33.9,M,0000,0000*68
$GPRMC,165127.000,A,4026.7001,N,07520.5978,W,0.05,21.72,100612,,,D*4D
$PMTK001,314,3*36
$PMTK001,220,3*30
$PMTK001,185,3*3C
$GPGGA,165128.000,4026.7002,N,07520.5978,W,2,$GPGGA,165127.000,4026.7001,N,07520.5978,W,2,9,0.92,153.7,M,-33.9,M,0000,0000*68
$GPRMC,165127.000,A,4026.7001,N,07520.5978,W,0.05,21.72,100612,,,D*4D
$PMTK001,314,3*36
$PMTK001,220,3*30
$PMTK001,185,3*3C
$GPGGA,165128.000,4026.7002,N,07520.5978,W,2,$GPGGA,165127.000,4026.7001,N,07520.5978,W,2,9,0.92,153.7,M,-33.9,M,0000,0000*68
$GPRMC,165127.000,A,4026.7001,N,07520.5978,W,0.05,21.72,100612,,,D*4D
$PMTK001,314,3*36
$PMTK001,220,3*30
$PMTK001,185,3*3C
$GPGGA,165128.000,4026.7002,N,07520.5978,W,2,$GPGGA,165127.000,4026.7001,N,07520.5978,W,2,9,0.92,153.7,M,-33.9,M,0000,0000*68
$GPRMC,165127.000,A,4026.7001,N,07520.5978,W,0.05,21.72,100612,,,D*4D
$PMTK001,314,3*36
$PMTK001,220,3*30
$PMTK001,185,3*3C
$GPGGA,165128.000,4026.7002,N,07520.5978,W,2,$GPGGA,165127.000,4026.7001,N,07520.5978,W,2,9,0.92,153.7,M,-33.9,M,0000,0000*68
$GPRMC,165127.000,A,4026.7001,N,07520.5978,W,0.05,21.72,100612,,,D*4D
$PMTK001,314,3*36
$PMTK001,220,3*30
$PMTK001,185,3*3C
$GPGGA,165128.000,4026.7002,N,07520.5978,W,2,$GPGGA,165127.000,4026.7001,N,07520.5978,W,2,9,0.92,153.7,M,-33.9,M,0000,0000*68
$GPRMC,165127.000,A,4026.7001,N,07520.5978,W,0.05,21.72,100612,,,D*4D
$PMTK001,314,3*36
$PMTK001,220,3*30
$PMTK001,185,3*3C
$GPGGA,165128.000,4026.7002,N,07520.5978,W,2,$GPGGA,165127.000,4026.7001,N,07520.5978,W,2,9,0.92,153.7,M,-33.9,M,0000,0000*68
$GPRMC,165127.000,A,4026.7001,N,07520.5978,W,0.05,21.72,100612,,,D*4D
$PMTK001,314,3*36
$PMTK001,220,3*30
$PMTK001,185,3*3C
$GPGGA,165128.000,4026.7002,N,07520.5978,W,2,$GPGGA,165127.000,4026.7001,N,07520.5978,W,2,9,0.92,153.7,M,-33.9,M,0000,0000*68
$GPRMC,165127.000,A,4026.7001,N,07520.5978,W,0.05,21.72,100612,,,D*4D
$PMTK001,314,3*36
$PMTK001,220,3*30
$PMTK001,185,3*3C
$GPGGA,165128.000,4026.7002,N,07520.5978,W,2,$GPGGA,165127.000,4026.7001,N,07520.5978,W,2,9,0.92,153.7,M,-33.9,M,0000,0000*68
$GPRMC,165127.000,A,4026.7001,N,07520.5978,W,0.05,21.72,100612,,,D*4D
$PMTK001,314,3*36
$PMTK001,220,3*30
$PMTK001,185,3*3C
$GPGGA,165128.000,4026.7002,N,07520.5978,W,2,$GPGGA,165127.000,4026.7001,N,07520.5978,W,2,9,0.92,153.7,M,-33.9,M,0000,0000*68
$GPRMC,165127.000,A,4026.7001,N,07520.5978,W,0.05,21.72,100612,,,D*4D
$PMTK001,314,3*36
$PMTK001,220,3*30
$PMTK001,185,3*3C
$GPGGA,165128.000,4026.7002,N,07520.5978,W,2,$GPGGA,165127.000,4026.7001,N,07520.5978,W,2,9,0.92,153.7,M,-33.9,M,0000,0000*68
$GPRMC,165127.000,A,4026.7001,N,07520.5978,W,0.05,21.72,100612,,,D*4D
$PMTK001,314,3*36
$PMTK001,220,3*30
$PMTK001,185,3*3C
$GPGGA,165128.000,4026.7002,N,07520.5978,W,2,$GPGGA,165127.000,4026.7001,N,07520.5978,W,2,9,0.92,153.7,M,-33.9,M,0000,0000*68
$GPRMC,165127.000,A,4026.7001,N,07520.5978,W,0.05,21.72,100612,,,D*4D
$PMTK001,314,3*36
$PMTK001,220,3*30
$PMTK001,185,3*3C
$GPGGA,165128.000,4026.7002,N,07520.5978,W,2,$GPGGA,165127.000,4026.7001,N,07520.5978,W,2,9,0.92,153.7,M,-33.9,M,0000,0000*68
$GPRMC,165127.000,A,4026.7001,N,07520.5978,W,0.05,21.72,100612,,,D*4D
$PMTK001,314,3*36
$PMTK001,220,3*30
$PMTK001,185,3*3C
$GPGGA,165128.000,4026.7002,N,07520.5978,W,2,$GPGGA,165127.000,4026.7001,N,07520.5978,W,2,9,0.92,153.7,M,-33.9,M,0000,0000*68
$GPRMC,165127.000,A,4026.7001,N,07520.5978,W,0.05,21.72,100612,,,D*4D
$PMTK001,314,3*36
$PMTK001,220,3*30
$PMTK001,185,3*3C
$GPGGA,165128.000,4026.7002,N,07520.5978,W,2,$GPGGA,165127.000,4026.7001,N,07520.5978,W,2,9,0.92,153.7,M,-33.9,M,0000,0000*68
$GPRMC,165127.000,A,4026.7001,N,07520.5978,W,0.05,21.72,100612,,,D*4D
$PMTK001,314,3*36
$PMTK001,220,3*30
$PMTK001,185,3*3C
$GPGGA,165128.000,4026.7002,N,07520.5978,W,2,$GPGGA,165127.000,4026.7001,N,07520.5978,W,2,9,0.92,153.7,M,-33.9,M,0000,0000*68
$GPRMC,165127.000,A,4026.7001,N,07520.5978,W,0.05,21.72,100612,,,D*4D
$PMTK001,314,3*36
$PMTK001,220,3*30
$PMTK001,185,3*3C
$GPGGA,165128.000,4026.7002,N,07520.5978,W,2,$GPGGA,165127.000,4026.7001,N,07520.5978,W,2,9,0.92,153.7,M,-33.9,M,0000,0000*68
$GPRMC,165127.000,A,4026.7001,N,07520.5978,W,0.05,21.72,100612,,,D*4D
$PMTK001,314,3*36
$PMTK001,220,3*30
$PMTK001,185,3*3C
$GPGGA,165128.000,4026.7002,N,07520.5978,W,2,$GPGGA,165127.000,4026.7001,N,07520.5978,W,2,9,0.92,153.7,M,-33.9,M,0000,0000*68
$GPRMC,165127.000,A,4026.7001,N,07520.5978,W,0.05,21.72,100612,,,D*4D
$PMTK001,314,3*36
$PMTK001,220,3*30
$PMTK001,185,3*3C
$GPGGA,165128.000,4026.7002,N,07520.5978,W,2,$GPGGA,165127.000,4026.7001,N,07520.5978,W,2,9,0.92,153.7,M,-33.9,M,0000,0000*68
$GPRMC,165127.000,A,4026.7001,N,07520.5978,W,0.05,21.72,100612,,,D*4D
$PMTK001,314,3*36
$PMTK001,220,3*30
$PMTK001,185,3*3C
$GPGGA,165128.000,4026.7002,N,07520.5978,W,2,$GPGGA,165127.000,4026.7001,N,07520.5978,W,2,9,0.92,153.7,M,-33.9,M,0000,0000*68
$GPRMC,165127.000,A,4026.7001,N,07520.5978,W,0.05,21.72,100612,,,D*4D
$PMTK001,314,3*36
$PMTK001,220,3*30
$PMTK001,185,3*3C
$GPGGA,165128.000,4026.7002,N,07520.5978,W,2,$GPGGA,165127.000,4026.7001,N,07520.5978,W,2,9,0.92,153.7,M,-33.9,M,0000,0000*68
$GPRMC,165127.000,A,4026.7001,N,07520.5978,W,0.05,21.72,100612,,,D*4D
$PMTK001,314,3*36
$PMTK001,220,3*30
$PMTK001,185,3*3C
$GPGGA,165128.000,4026.7002,N,07520.5978,W,2,$GPGGA,165127.000,4026.7001,N,07520.5978,W,2,9,0.92,153.7,M,-33.9,M,0000,0000*68
$GPRMC,165127.000,A,4026.7001,N,07520.5978,W,0.05,21.72,100612,,,D*4D
$PMTK001,314,3*36
$PMTK001,220,3*30
$PMTK001,185,3*3C
$GPGGA,165128.000,4026.7002,N,07520.5978,W,2,$GPGGA,165127.000,4026.7001,N,07520.5978,W,2,9,0.92,153.7,M,-33.9,M,0000,0000*68
$GPRMC,165127.000,A,4026.7001,N,07520.5978,W,0.05,21.72,100612,,,D*4D
$PMTK001,314,3*36
$PMTK001,220,3*30
$PMTK001,185,3*3C
$GPGGA,165128.000,4026.7002,N,07520.5978,W,2,$GPGGA,165127.000,4026.7001,N,07520.5978,W,2,9,0.92,153.7,M,-33.9,M,0000,0000*68
$GPRMC,165127.000,A,4026.7001,N,07520.5978,W,0.05,21.72,100612,,,D*4D
$PMTK001,314,3*36
$PMTK001,220,3*30
$PMTK001,185,3*3C
$GPGGA,165128.000,4026.7002,N,07520.5978,W,2,$GPGGA,165127.000,4026.7001,N,07520.5978,W,2,9,0.92,153.7,M,-33.9,M,0000,0000*68
$GPRMC,165127.000,A,4026.7001,N,07520.5978,W,0.05,21.72,100612,,,D*4D
$PMTK001,314,3*36
$PMTK001,220,3*30
$PMTK001,185,3*3C
$GPGGA,165128.000,4026.7002,N,07520.5978,W,2,$GPGGA,165127.000,4026.7001,N,07520.5978,W,2,9,0.92,153.7,M,-33.9,M,0000,0000*68
$GPRMC,165127.000,A,4026.7001,N,07520.5978,W,0.05,21.72,100612,,,D*4D
$PMTK001,314,3*36
$PMTK001,220,3*30
$PMTK001,185,3*3C
$GPGGA,165128.000,4026.7002,N,07520.5978,W,2,$GPGGA,165127.000,4026.7001,N,07520.5978,W,2,9,0.92,153.7,M,-33.9,M,0000,0000*68
$GPRMC,165127.000,A,4026.7001,N,07520.5978,W,0.05,21.72,100612,,,D*4D
$PMTK001,314,3*36
$PMTK001,220,3*30
$PMTK001,185,3*3C
$GPGGA,165128.000,4026.7002,N,07520.5978,W,2,$GPGGA,165127.000,4026.7001,N,07520.5978,W,2,9,0.92,153.7,M,-33.9,M,0000,0000*68
$GPRMC,165127.000,A,4026.7001,N,07520.5978,W,0.05,21.72,100612,,,D*4D
$PMTK001,314,3*36
$PMTK001,220,3*30
$PMTK001,185,3*3C
$GPGGA,165128.000,4026.7002,N,07520.5978,W,2,$GPGGA,165127.000,4026.7001,N,07520.5978,W,2,9,0.92,153.7,M,-33.9,M,0000,0000*68
$GPRMC,165127.000,A,4026.7001,N,07520.5978,W,0.05,21.72,100612,,,D*4D
$PMTK001,314,3*36
$PMTK001,220,3*30
$PMTK001,185,3*3C
$GPGGA,165128.000,4026.7002,N,07520.5978,W,2,$GPGGA,165127.000,4026.7001,N,07520.5978,W,2,9,0.92,153.7,M,-33.9,M,0000,0000*68
$GPRMC,165127.000,A,4026.7001,N,07520.5978,W,0.05,21.72,100612,,,D*4D
$PMTK001,314,3*36
$PMTK001,220,3*30
$PMTK001,185,3*3C
$GPGGA,165128.000,4026.7002,N,07520.5978,W,2,$GPGGA,165127.000,4026.7001,N,07520.5978,W,2,9,0.92,153.7,M,-33.9,M,0000,0000*68
$GPRMC,165127.000,A,4026.7001,N,07520.5978,W,0.05,21.72,100612,,,D*4D
$PMTK001,314,3*36
$PMTK001,220,3*30
$PMTK001,185,3*3C
$GPGGA,165128.000,4026.7002,N,07520.5978,W,2,$GPGGA,165127.000,4026.7001,N,07520.5978,W,2,9,0.92,153.7,M,-33.9,M,0000,0000*68
$GPRMC,165127.000,A,4026.7001,N,07520.5978,W,0.05,21.72,100612,,,D*4D
$PMTK001,314,3*36
$PMTK001,220,3*30
$PMTK001,185,3*3C
$GPGGA,165128.000,4026.7002,N,07520.5978,W,2,$GPGGA,165127.000,4026.7001,N,07520.5978,W,2,9,0.92,153.7,M,-33.9,M,0000,0000*68
$GPRMC,165127.000,A,4026.7001,N,07520.5978,W,0.05,21.72,100612,,,D*4D
$PMTK001,314,3*36
$PMTK001,220,3*30
$PMTK001,185,3*3C
$GPGGA,165128.000,4026.7002,N,07520.5978,W,2,$GPGGA,165127.000,4026.7001,N,07520.5978,W,2,9,0.92,153.7,M,-33.9,M,0000,0000*68
$GPRMC,165127.000,A,4026.7001,N,07520.5978,W,0.05,21.72,100612,,,D*4D
$PMTK001,314,3*36
$PMTK001,220,3*30
$PMTK001,185,3*3C
$GPGGA,165128.000,4026.7002,N,07520.5978,W,2,$GPGGA,165127.000,4026.7001,N,07520.5978,W,2,9,0.92,153.7,M,-33.9,M,0000,0000*68
$GPRMC,165127.000,A,4026.7001,N,07520.5978,W,0.05,21.72,100612,,,D*4D
$PMTK001,314,3*36
$PMTK001,220,3*30
$PMTK001,185,3*3C
$GPGGA,165128.000,4026.7002,N,07520.5978,W,2,$GPGGA,165127.000,4026.7001,N,07520.5978,W,2,9,0.92,153.7,M,-33.9,M,0000,0000*68
$GPRMC,165127.000,A,4026.7001,N,07520.5978,W,0.05,21.72,100612,,,D*4D
$PMTK001,314,3*36
$PMTK001,220,3*30
$PMTK001,185,3*3C
$GPGGA,165128.000,4026.7002,N,07520.5978,W,2,$GPGGA,165127.000,4026.7001,N,07520.5978,W,2,9,0.92,153.7,M,-33.9,M,0000,0000*68
$GPRMC,165127.000,A,4026.7001,N,07520.5978,W,0.05,21.72,100612,,,D*4D
$PMTK001,314,3*36
$PMTK001,220,3*30
$PMTK001,185,3*3C
$GPGGA,165128.000,4026.7002,N,07520.5978,W,2,$GPGGA,165127.000,4026.7001,N,07520.5978,W,2,9,0.92,153.7,M,-33.9,M,0000,0000*68
$GPRMC,165127.000,A,4026.7001,N,07520.5978,W,0.05,21.72,100612,,,D*4D
$PMTK001,314,3*36
$PMTK001,220,3*30
$PMTK001,185,3*3C
$GPGGA,165128.000,4026.7002,N,07520.5978,W,2,$GPGGA,165127.000,4026.7001,N,07520.5978,W,2,9,0.92,153.7,M,-33.9,M,0000,0000*68
$GPRMC,165127.000,A,4026.7001,N,07520.5978,W,0.05,21.72,100612,,,D*4D
$PMTK001,314,3*36
$PMTK001,220,3*30
$PMTK001,185,3*3C
$GPGGA,165128.000,4026.7002,N,07520.5978,W,2,$GPGGA,165127.000,4026.7001,N,07520.5978,W,2,9,0.92,153.7,M,-33.9,M,0000,0000*68
$GPRMC,165127.000,A,4026.7001,N,07520.5978,W,0.05,21.72,100612,,,D*4D
$PMTK001,314,3*36
$PMTK001,220,3*30
$PMTK001,185,3*3C
$GPGGA,165128.000,4026.7002,N,07520.5978,W,2,$GPGGA,165127.000,4026.7001,N,07520.5978,W,2,9,0.92,153.7,M,-33.9,M,0000,0000*68
$GPRMC,165127.000,A,4026.7001,N,07520.5978,W,0.05,21.72,100612,,,D*4D
$PMTK001,314,3*36
$PMTK001,220,3*30
$PMTK001,185,3*3C
$GPGGA,165128.000,4026.7002,N,07520.5978,W,2,$GPGGA,165127.000,4026.7001,N,07520.5978,W,2,9,0.92,153.7,M,-33.9,M,0000,0000*68
$GPRMC,165127.000,A,4026.7001,N,07520.5978,W,0.05,21.72,100612,,,D*4D
$PMTK001,314,3*36
$PMTK001,220,3*30
$PMTK001,185,3*3C
$GPGGA,165128.000,4026.7002,N,07520.5978,W,2,$GPGGA,165127.000,4026.7001,N,07520.5978,W,2,9,0.92,153.7,M,-33.9,M,0000,0000*68
$GPRMC,165127.000,A,4026.7001,N,07520.5978,W,0.05,21.72,100612,,,D*4D
$PMTK001,314,3*36
$PMTK001,220,3*30
$PMTK001,185,3*3C
$GPGGA,165128.000,4026.7002,N,07520.5978,W,2,$GPGGA,165127.000,4026.7001,N,07520.5978,W,2,9,0.92,153.7,M,-33.9,M,0000,0000*68
$GPRMC,165127.000,A,4026.7001,N,07520.5978,W,0.05,21.72,100612,,,D*4D
$PMTK001,314,3*36
$PMTK001,220,3*30
$PMTK001,185,3*3C
$GPGGA,165128.000,4026.7002,N,07520.5978,W,2,$GPGGA,165127.000,4026.7001,N,07520.5978,W,2,9,0.92,153.7,M,-33.9,M,0000,0000*68
$GPRMC,165127.000,A,4026.7001,N,07520.5978,W,0.05,21.72,100612,,,D*4D
$PMTK001,314,3*36
$PMTK001,220,3*30
$PMTK001,185,3*3C
$GPGGA,165128.000,4026.7002,N,07520.5978,W,2,$GPGGA,165127.000,4026.7001,N,07520.5978,W,2,9,0.92,153.7,M,-33.9,M,0000,0000*68
$GPRMC,165127.000,A,4026.7001,N,07520.5978,W,0.05,21.72,100612,,,D*4D
$PMTK001,314,3*36
$PMTK001,220,3*30
$PMTK001,185,3*3C
$GPGGA,165128.000,4026.7002,N,07520.5978,W,2,$GPGGA,165127.000,4026.7001,N,07520.5978,W,2,9,0.92,153.7,M,-33.9,M,0000,0000*68
$GPRMC,165127.000,A,4026.7001,N,07520.5978,W,0.05,21.72,100612,,,D*4D
$PMTK001,314,3*36
$PMTK001,220,3*30
$PMTK001,185,3*3C
$GPGGA,165128.000,4026.7002,N,07520.5978,W,2,$GPGGA,165127.000,4026.7001,N,07520.5978,W,2,9,0.92,153.7,M,-33.9,M,0000,0000*68
$GPRMC,165127.000,A,4026.7001,N,07520.5978,W,0.05,21.72,100612,,,D*4D
$PMTK001,314,3*36
$PMTK001,220,3*30
$PMTK001,185,3*3C
$GPGGA,165128.000,4026.7002,N,07520.5978,W,2,$GPGGA,165127.000,4026.7001,N,07520.5978,W,2,9,0.92,153.7,M,-33.9,M,0000,0000*68
$GPRMC,165127.000,A,4026.7001,N,07520.5978,W,0.05,21.72,100612,,,D*4D
$PMTK001,314,3*36
$PMTK001,220,3*30
$PMTK001,185,3*3C
$GPGGA,165128.000,4026.7002,N,07520.5978,W,2,$GPGGA,165127.000,4026.7001,N,07520.5978,W,2,9,0.92,153.7,M,-33.9,M,0000,0000*68
$GPRMC,165127.000,A,4026.7001,N,07520.5978,W,0.05,21.72,100612,,,D*4D
$PMTK001,314,3*36
$PMTK001,220,3*30
$PMTK001,185,3*3C
$GPGGA,165128.000,4026.7002,N,07520.5978,W,2,$GPGGA,165127.000,4026.7001,N,07520.5978,W,2,9,0.92,153.7,M,-33.9,M,0000,0000*68
$GPRMC,165127.000,A,4026.7001,N,07520.5978,W,0.05,21.72,100612,,,D*4D
$PMTK001,314,3*36
$PMTK001,220,3*30
$PMTK001,185,3*3C
$GPGGA,165128.000,4026.7002,N,07520.5978,W,2,$GPGGA,165127.000,4026.7001,N,07520.5978,W,2,9,0.92,153.7,M,-33.9,M,0000,0000*68
$GPRMC,165127.000,A,4026.7001,N,07520.5978,W,0.05,21.72,100612,,,D*4D
$PMTK001,314,3*36
$PMTK001,220,3*30
$PMTK001,185,3*3C
$GPGGA,165128.000,4026.7002,N,07520.5978,W,2,$GPGGA,165127.000,4026.7001,N,07520.5978,W,2,9,0.92,153.7,M,-33.9,M,0000,0000*68
$GPRMC,165127.000,A,4026.7001,N,07520.5978,W,0.05,21.72,100612,,,D*4D
$PMTK001,314,3*36
$PMTK001,220,3*30
$PMTK001,185,3*3C
$GPGGA,165128.000,4026.7002,N,07520.5978,W,2,$GPGGA,165127.000,4026.7001,N,07520.5978,W,2,9,0.92,153.7,M,-33.9,M,0000,0000*68
$GPRMC,165127.000,A,4026.7001,N,07520.5978,W,0.05,21.72,100612,,,D*4D
$PMTK001,314,3*36
$PMTK001,220,3*30
$PMTK001,185,3*3C
$GPGGA,165128.000,4026.7002,N,07520.5978,W,2,$GPGGA,165127.000,4026.7001,N,07520.5978,W,2,9,0.92,153.7,M,-33.9,M,0000,0000*68
$GPRMC,165127.000,A,4026.7001,N,07520.5978,W,0.05,21.72,100612,,,D*4D
$PMTK001,314,3*36
$PMTK001,220,3*30
$PMTK001,185,3*3C
$GPGGA,165128.000,4026.7002,N,07520.5978,W,2,$GPGGA,165127.000,4026.7001,N,07520.5978,W,2,9,0.92,153.7,M,-33.9,M,0000,0000*68
$GPRMC,165127.000,A,4026.7001,N,07520.5978,W,0.05,21.72,100612,,,D*4D
$PMTK001,314,3*36
$PMTK001,220,3*30
$PMTK001,185,3*3C
$GPGGA,165128.000,4026.7002,N,07520.5978,W,2,