$PMTK001,314,3*36
$PMTK001,220,3*30
$PMTK001,185,3*3C
$GPGGA,164104.391,,,,,0,2,,,M,,M,,*47
$GPRMC,164104.391,V,,,,,0.12,0.00,100612,,,N*47
$GPGGA,164105.383,4026.7028,N,07520.5906,W,1,9,0.92,148.9,M,-33.9,M,,*64
$GPRMC,164105.383,A,4026.7028,N,0752$PMTK001,314,3*36
$PMTK001,220,3*30
$PMTK001,185,3*3C
$GPGGA,164104.391,,,,,0,2,,,M,,M,,*47
$GPRMC,164104.391,V,,,,,0.12,0.00,100612,,,N*47
$GPGGA,164105.383,4026.7028,N,07520.5906,W,1,9,0.92,148.9,M,-33.9,M,,*64
$GPRMC,164105.383,A,4026.7028,N,0752$PMTK001,314,3*36
$PMTK001,220,3*30
$PMTK001,185,3*3C
$GPGGA,164104.391,,,,,0,2,,,M,,M,,*47
$GPRMC,164104.391,V,,,,,0.12,0.00,100612,,,N*47
$GPGGA,164105.383,4026.7028,N,07520.5906,W,1,9,0.92,148.9,M,-33.9,M,,*64
$GPRMC,164105.383,A,4026.7028,N,0752$PMTK001,314,3*36
$PMTK001,220,3*30
$PMTK001,185,3*3C
$GPGGA,164104.391,,,,,0,2,,,M,,M,,*47
$GPRMC,164104.391,V,,,,,0.12,0.00,100612,,,N*47
$GPGGA,164105.383,4026.7028,N,07520.5906,W,1,9,0.92,148.9,M,-33.9,M,,*64
$GPRMC,164105.383,A,4026.7028,N,0752$PMTK001,314,3*36
$PMTK001,220,3*30
$PMTK001,185,3*3C
$GPGGA,164104.391,,,,,0,2,,,M,,M,,*47
$GPRMC,164104.391,V,,,,,0.12,0.00,100612,,,N*47
$GPGGA,164105.383,4026.7028,N,07520.5906,W,1,9,0.92,148.9,M,-33.9,M,,*64
$GPRMC,164105.383,A,4026.7028,N,0752$PMTK001,314,3*36
$PMTK001,220,3*30
$PMTK001,185,3*3C
$GPGGA,164104.391,,,,,0,2,,,M,,M,,*47
$GPRMC,164104.391,V,,,,,0.12,0.00,100612,,,N*47
$GPGGA,164105.383,4026.7028,N,07520.5906,W,1,9,0.92,148.9,M,-33.9,M,,*64
$GPRMC,164105.383,A,4026.7028,N,0752$PMTK001,314,3*36
$PMTK001,220,3*30
$PMTK001,185,3*3C
$GPGGA,164104.391,,,,,0,2,,,M,,M,,*47
$GPRMC,164104.391,V,,,,,0.12,0.00,100612,,,N*47
$GPGGA,164105.383,4026.7028,N,07520.5906,W,1,9,0.92,148.9,M,-33.9,M,,*64
$GPRMC,164105.383,A,4026.7028,N,0752$PMTK001,314,3*36
$PMTK001,220,3*30
$PMTK001,185,3*3C
$GPGGA,164104.391,,,,,0,2,,,M,,M,,*47
$GPRMC,164104.391,V,,,,,0.12,0.00,100612,,,N*47
$GPGGA,164105.383,4026.7028,N,07520.5906,W,1,9,0.92,148.9,M,-33.9,M,,*64
$GPRMC,164105.383,A,4026.7028,N,0752$PMTK001,314,3*36
$PMTK001,220,3*30
$PMTK001,185,3*3C
$GPGGA,164104.391,,,,,0,2,,,M,,M,,*47
$GPRMC,164104.391,V,,,,,0.12,0.00,100612,,,N*47
$GPGGA,164105.383,4026.7028,N,07520.5906,W,1,9,0.92,148.9,M,-33.9,M,,*64
$GPRMC,164105.383,A,4026.7028,N,0752$PMTK001,314,3*36
$PMTK001,220,3*30
$PMTK001,185,3*3C
$GPGGA,164104.391,,,,,0,2,,,M,,M,,*47
$GPRMC,164104.391,V,,,,,0.12,0.00,100612,,,N*47
$GPGGA,164105.383,4026.7028,N,07520.5906,W,1,9,0.92,148.9,M,-33.9,M,,*64
$GPRMC,164105.383,A,4026.7028,N,0752$PMTK001,314,3*36
$PMTK001,220,3*30
$PMTK001,185,3*3C
$GPGGA,164104.391,,,,,0,2,,,M,,M,,*47
$GPRMC,164104.391,V,,,,,0.12,0.00,100612,,,N*47
$GPGGA,164105.383,4026.7028,N,07520.5906,W,1,9,0.92,148.9,M,-33.9,M,,*64
$GPRMC,164105.383,A,4026.7028,N,0752$PMTK001,314,3*36
$PMTK001,220,3*30
$PMTK001,185,3*3C
$GPGGA,164104.391,,,,,0,2,,,M,,M,,*47
$GPRMC,164104.391,V,,,,,0.12,0.00,100612,,,N*47
$GPGGA,164105.383,4026.7028,N,07520.5906,W,1,9,0.92,148.9,M,-33.9,M,,*64
$GPRMC,164105.383,A,4026.7028,N,0752$PMTK001,314,3*36
$PMTK001,220,3*30
$PMTK001,185,3*3C
$GPGGA,164104.391,,,,,0,2,,,M,,M,,*47
$GPRMC,164104.391,V,,,,,0.12,0.00,100612,,,N*47
$GPGGA,164105.383,4026.7028,N,07520.5906,W,1,9,0.92,148.9,M,-33.9,M,,*64
$GPRMC,164105.383,A,4026.7028,N,0752$PMTK001,314,3*36
$PMTK001,220,3*30
$PMTK001,185,3*3C
$GPGGA,164104.391,,,,,0,2,,,M,,M,,*47
$GPRMC,164104.391,V,,,,,0.12,0.00,100612,,,N*47
$GPGGA,164105.383,4026.7028,N,07520.5906,W,1,9,0.92,148.9,M,-33.9,M,,*64
$GPRMC,164105.383,A,4026.7028,N,0752$PMTK001,314,3*36
$PMTK001,220,3*30
$PMTK001,185,3*3C
$GPGGA,164104.391,,,,,0,2,,,M,,M,,*47
$GPRMC,164104.391,V,,,,,0.12,0.00,100612,,,N*47
$GPGGA,164105.383,4026.7028,N,07520.5906,W,1,9,0.92,148.9,M,-33.9,M,,*64
$GPRMC,164105.383,A,4026.7028,N,0752$PMTK001,314,3*36
$PMTK001,220,3*30
$PMTK001,185,3*3C
$GPGGA,164104.391,,,,,0,2,,,M,,M,,*47
$GPRMC,164104.391,V,,,,,0.12,0.00,100612,,,N*47
$GPGGA,164105.383,4026.7028,N,07520.5906,W,1,9,0.92,148.9,M,-33.9,M,,*64
$GPRMC,164105.383,A,4026.7028,N,0752$PMTK001,314,3*36
$PMTK001,220,3*30
$PMTK001,185,3*3C
$GPGGA,164104.391,,,,,0,2,,,M,,M,,*47
$GPRMC,164104.391,V,,,,,0.12,0.00,100612,,,N*47
$GPGGA,164105.383,4026.7028,N,07520.5906,W,1,9,0.92,148.9,M,-33.9,M,,*64
$GPRMC,164105.383,A,4026.7028,N,0752$PMTK001,314,3*36
$PMTK001,220,3*30
$PMTK001,185,3*3C
$GPGGA,164104.391,,,,,0,2,,,M,,M,,*47
$GPRMC,164104.391,V,,,,,0.12,0.00,100612,,,N*47
$GPGGA,164105.383,4026.7028,N,07520.5906,W,1,9,0.92,148.9,M,-33.9,M,,*64
$GPRMC,164105.383,A,4026.7028,N,0752$PMTK001,314,3*36
$PMTK001,220,3*30
$PMTK001,185,3*3C
$GPGGA,164104.391,,,,,0,2,,,M,,M,,*47
$GPRMC,164104.391,V,,,,,0.12,0.00,100612,,,N*47
$GPGGA,164105.383,4026.7028,N,07520.5906,W,1,9,0.92,148.9,M,-33.9,M,,*64
$GPRMC,164105.383,A,4026.7028,N,0752$PMTK001,314,3*36
$PMTK001,220,3*30
$PMTK001,185,3*3C
$GPGGA,164104.391,,,,,0,2,,,M,,M,,*47
$GPRMC,164104.391,V,,,,,0.12,0.00,100612,,,N*47
$GPGGA,164105.383,4026.7028,N,07520.5906,W,1,9,0.92,148.9,M,-33.9,M,,*64
$GPRMC,164105.383,A,4026.7028,N,0752$PMTK001,314,3*36
$PMTK001,220,3*30
$PMTK001,185,3*3C
$GPGGA,164104.391,,,,,0,2,,,M,,M,,*47
$GPRMC,164104.391,V,,,,,0.12,0.00,100612,,,N*47
$GPGGA,164105.383,4026.7028,N,07520.5906,W,1,9,0.92,148.9,M,-33.9,M,,*64
$GPRMC,164105.383,A,4026.7028,N,0752$PMTK001,314,3*36
$PMTK001,220,3*30
$PMTK001,185,3*3C
$GPGGA,164104.391,,,,,0,2,,,M,,M,,*47
$GPRMC,164104.391,V,,,,,0.12,0.00,100612,,,N*47
$GPGGA,164105.383,4026.7028,N,07520.5906,W,1,9,0.92,148.9,M,-33.9,M,,*64
$GPRMC,164105.383,A,4026.7028,N,0752$PMTK001,314,3*36
$PMTK001,220,3*30
$PMTK001,185,3*3C
$GPGGA,164104.391,,,,,0,2,,,M,,M,,*47
$GPRMC,164104.391,V,,,,,0.12,0.00,100612,,,N*47
$GPGGA,164105.383,4026.7028,N,07520.5906,W,1,9,0.92,148.9,M,-33.9,M,,*64
$GPRMC,164105.383,A,4026.7028,N,0752$PMTK001,314,3*36
$PMTK001,220,3*30
$PMTK001,185,3*3C
$GPGGA,164104.391,,,,,0,2,,,M,,M,,*47
$GPRMC,164104.391,V,,,,,0.12,0.00,100612,,,N*47
$GPGGA,164105.383,4026.7028,N,07520.5906,W,1,9,0.92,148.9,M,-33.9,M,,*64
$GPRMC,164105.383,A,4026.7028,N,0752$PMTK001,314,3*36
$PMTK001,220,3*30
$PMTK001,185,3*3C
$GPGGA,164104.391,,,,,0,2,,,M,,M,,*47
$GPRMC,164104.391,V,,,,,0.12,0.00,100612,,,N*47
$GPGGA,164105.383,4026.7028,N,07520.5906,W,1,9,0.92,148.9,M,-33.9,M,,*64
$GPRMC,164105.383,A,4026.7028,N,0752$PMTK001,314,3*36
$PMTK001,220,3*30
$PMTK001,185,3*3C
$GPGGA,164104.391,,,,,0,2,,,M,,M,,*47
$GPRMC,164104.391,V,,,,,0.12,0.00,100612,,,N*47
$GPGGA,164105.383,4026.7028,N,07520.5906,W,1,9,0.92,148.9,M,-33.9,M,,*64
$GPRMC,164105.383,A,4026.7028,N,0752$PMTK001,314,3*36
$PMTK001,220,3*30
$PMTK001,185,3*3C
$GPGGA,164104.391,,,,,0,2,,,M,,M,,*47
$GPRMC,164104.391,V,,,,,0.12,0.00,100612,,,N*47
$GPGGA,164105.383,4026.7028,N,07520.5906,W,1,9,0.92,148.9,M,-33.9,M,,*64
$GPRMC,164105.383,A,4026.7028,N,0752$PMTK001,314,3*36
$PMTK001,220,3*30
$PMTK001,185,3*3C
$GPGGA,164104.391,,,,,0,2,,,M,,M,,*47
$GPRMC,164104.391,V,,,,,0.12,0.00,100612,,,N*47
$GPGGA,164105.383,4026.7028,N,07520.5906,W,1,9,0.92,148.9,M,-33.9,M,,*64
$GPRMC,164105.383,A,4026.7028,N,0752$PMTK001,314,3*36
$PMTK001,220,3*30
$PMTK001,185,3*3C
$GPGGA,164104.391,,,,,0,2,,,M,,M,,*47
$GPRMC,164104.391,V,,,,,0.12,0.00,100612,,,N*47
$GPGGA,164105.383,4026.7028,N,07520.5906,W,1,9,0.92,148.9,M,-33.9,M,,*64
$GPRMC,164105.383,A,4026.7028,N,0752$PMTK001,314,3*36
$PMTK001,220,3*30
$PMTK001,185,3*3C
$GPGGA,164104.391,,,,,0,2,,,M,,M,,*47
$GPRMC,164104.391,V,,,,,0.12,0.00,100612,,,N*47
$GPGGA,164105.383,4026.7028,N,07520.5906,W,1,9,0.92,148.9,M,-33.9,M,,*64
$GPRMC,164105.383,A,4026.7028,N,0752$PMTK001,314,3*36
$PMTK001,220,3*30
$PMTK001,185,3*3C
$GPGGA,164104.391,,,,,0,2,,,M,,M,,*47
$GPRMC,164104.391,V,,,,,0.12,0.00,100612,,,N*47
$GPGGA,164105.383,4026.7028,N,07520.5906,W,1,9,0.92,148.9,M,-33.9,M,,*64
$GPRMC,164105.383,A,4026.7028,N,0752$PMTK001,314,3*36
$PMTK001,220,3*30
$PMTK001,185,3*3C
$GPGGA,164104.391,,,,,0,2,,,M,,M,,*47
$GPRMC,164104.391,V,,,,,0.12,0.00,100612,,,N*47
$GPGGA,164105.383,4026.7028,N,07520.5906,W,1,9,0.92,148.9,M,-33.9,M,,*64
$GPRMC,164105.383,A,4026.7028,N,0752$PMTK001,314,3*36
$PMTK001,220,3*30
$PMTK001,185,3*3C
$GPGGA,164104.391,,,,,0,2,,,M,,M,,*47
$GPRMC,164104.391,V,,,,,0.12,0.00,100612,,,N*47
$GPGGA,164105.383,4026.7028,N,07520.5906,W,1,9,0.92,148.9,M,-33.9,M,,*64
$GPRMC,164105.383,A,4026.7028,N,0752$PMTK001,314,3*36
$PMTK001,220,3*30
$PMTK001,185,3*3C
$GPGGA,164104.391,,,,,0,2,,,M,,M,,*47
$GPRMC,164104.391,V,,,,,0.12,0.00,100612,,,N*47
$GPGGA,164105.383,4026.7028,N,07520.5906,W,1,9,0.92,148.9,M,-33.9,M,,*64
$GPRMC,164105.383,A,4026.7028,N,0752$PMTK001,314,3*36
$PMTK001,220,3*30
$PMTK001,185,3*3C
$GPGGA,164104.391,,,,,0,2,,,M,,M,,*47
$GPRMC,164104.391,V,,,,,0.12,0.00,100612,,,N*47
$GPGGA,164105.383,4026.7028,N,07520.5906,W,1,9,0.92,148.9,M,-33.9,M,,*64
$GPRMC,164105.383,A,4026.7028,N,0752$PMTK001,314,3*36
$PMTK001,220,3*30
$PMTK001,185,3*3C
$GPGGA,164104.391,,,,,0,2,,,M,,M,,*47
$GPRMC,164104.391,V,,,,,0.12,0.00,100612,,,N*47
$GPGGA,164105.383,4026.7028,N,07520.5906,W,1,9,0.92,148.9,M,-33.9,M,,*64
$GPRMC,164105.383,A,4026.7028,N,0752$PMTK001,314,3*36
$PMTK001,220,3*30
$PMTK001,185,3*3C
$GPGGA,164104.391,,,,,0,2,,,M,,M,,*47
$GPRMC,164104.391,V,,,,,0.12,0.00,100612,,,N*47
$GPGGA,164105.383,4026.7028,N,07520.5906,W,1,9,0.92,148.9,M,-33.9,M,,*64
$GPRMC,164105.383,A,4026.7028,N,0752$PMTK001,314,3*36
$PMTK001,220,3*30
$PMTK001,185,3*3C
$GPGGA,164104.391,,,,,0,2,,,M,,M,,*47
$GPRMC,164104.391,V,,,,,0.12,0.00,100612,,,N*47
$GPGGA,164105.383,4026.7028,N,07520.5906,W,1,9,0.92,148.9,M,-33.9,M,,*64
$GPRMC,164105.383,A,4026.7028,N,0752$PMTK001,314,3*36
$PMTK001,220,3*30
$PMTK001,185,3*3C
$GPGGA,164104.391,,,,,0,2,,,M,,M,,*47
$GPRMC,164104.391,V,,,,,0.12,0.00,100612,,,N*47
$GPGGA,164105.383,4026.7028,N,07520.5906,W,1,9,0.92,148.9,M,-33.9,M,,*64
$GPRMC,164105.383,A,4026.7028,N,0752$PMTK001,314,3*36
$PMTK001,220,3*30
$PMTK001,185,3*3C
$GPGGA,164104.391,,,,,0,2,,,M,,M,,*47
$GPRMC,164104.391,V,,,,,0.12,0.00,100612,,,N*47
$GPGGA,164105.383,4026.7028,N,07520.5906,W,1,9,0.92,148.9,M,-33.9,M,,*64
$GPRMC,164105.383,A,4026.7028,N,0752$PMTK001,314,3*36
$PMTK001,220,3*30
$PMTK001,185,3*3C
$GPGGA,164104.391,,,,,0,2,,,M,,M,,*47
$GPRMC,164104.391,V,,,,,0.12,0.00,100612,,,N*47
$GPGGA,164105.383,4026.7028,N,07520.5906,W,1,9,0.92,148.9,M,-33.9,M,,*64
$GPRMC,164105.383,A,4026.7028,N,0752$PMTK001,314,3*36
$PMTK001,220,3*30
$PMTK001,185,3*3C
$GPGGA,164104.391,,,,,0,2,,,M,,M,,*47
$GPRMC,164104.391,V,,,,,0.12,0.00,100612,,,N*47
$GPGGA,164105.383,4026.7028,N,07520.5906,W,1,9,0.92,148.9,M,-33.9,M,,*64
$GPRMC,164105.383,A,4026.7028,N,0752$PMTK001,314,3*36
$PMTK001,220,3*30
$PMTK001,185,3*3C
$GPGGA,164104.391,,,,,0,2,,,M,,M,,*47
$GPRMC,164104.391,V,,,,,0.12,0.00,100612,,,N*47
$GPGGA,164105.383,4026.7028,N,07520.5906,W,1,9,0.92,148.9,M,-33.9,M,,*64
$GPRMC,164105.383,A,4026.7028,N,0752$PMTK001,314,3*36
$PMTK001,220,3*30
$PMTK001,185,3*3C
$GPGGA,164104.391,,,,,0,2,,,M,,M,,*47
$GPRMC,164104.391,V,,,,,0.12,0.00,100612,,,N*47
$GPGGA,164105.383,4026.7028,N,07520.5906,W,1,9,0.92,148.9,M,-33.9,M,,*64
$GPRMC,164105.383,A,4026.7028,N,0752$PMTK001,314,3*36
$PMTK001,220,3*30
$PMTK001,185,3*3C
$GPGGA,164104.391,,,,,0,2,,,M,,M,,*47
$GPRMC,164104.391,V,,,,,0.12,0.00,100612,,,N*47
$GPGGA,164105.383,4026.7028,N,07520.5906,W,1,9,0.92,148.9,M,-33.9,M,,*64
$GPRMC,164105.383,A,4026.7028,N,0752$PMTK001,314,3*36
$PMTK001,220,3*30
$PMTK001,185,3*3C
$GPGGA,164104.391,,,,,0,2,,,M,,M,,*47
$GPRMC,164104.391,V,,,,,0.12,0.00,100612,,,N*47
$GPGGA,164105.383,4026.7028,N,07520.5906,W,1,9,0.92,148.9,M,-33.9,M,,*64
$GPRMC,164105.383,A,4026.7028,N,0752$PMTK001,314,3*36
$PMTK001,220,3*30
$PMTK001,185,3*3C
$GPGGA,164104.391,,,,,0,2,,,M,,M,,*47
$GPRMC,164104.391,V,,,,,0.12,0.00,100612,,,N*47
$GPGGA,164105.383,4026.7028,N,07520.5906,W,1,9,0.92,148.9,M,-33.9,M,,*64
$GPRMC,164105.383,A,4026.7028,N,0752$PMTK001,314,3*36
$PMTK001,220,3*30
$PMTK001,185,3*3C
$GPGGA,164104.391,,,,,0,2,,,M,,M,,*47
$GPRMC,164104.391,V,,,,,0.12,0.00,100612,,,N*47
$GPGGA,164105.383,4026.7028,N,07520.5906,W,1,9,0.92,148.9,M,-33.9,M,,*64
$GPRMC,164105.383,A,4026.7028,N,0752$PMTK001,314,3*36
$PMTK001,220,3*30
$PMTK001,185,3*3C
$GPGGA,164104.391,,,,,0,2,,,M,,M,,*47
$GPRMC,164104.391,V,,,,,0.12,0.00,100612,,,N*47
$GPGGA,164105.383,4026.7028,N,07520.5906,W,1,9,0.92,148.9,M,-33.9,M,,*64
$GPRMC,164105.383,A,4026.7028,N,0752$PMTK001,314,3*36
$PMTK001,220,3*30
$PMTK001,185,3*3C
$GPGGA,164104.391,,,,,0,2,,,M,,M,,*47
$GPRMC,164104.391,V,,,,,0.12,0.00,100612,,,N*47
$GPGGA,164105.383,4026.7028,N,07520.5906,W,1,9,0.92,148.9,M,-33.9,M,,*64
$GPRMC,164105.383,A,4026.7028,N,0752$PMTK001,314,3*36
$PMTK001,220,3*30
$PMTK001,185,3*3C
$GPGGA,164104.391,,,,,0,2,,,M,,M,,*47
$GPRMC,164104.391,V,,,,,0.12,0.00,100612,,,N*47
$GPGGA,164105.383,4026.7028,N,07520.5906,W,1,9,0.92,148.9,M,-33.9,M,,*64
$GPRMC,164105.383,A,4026.7028,N,0752$PMTK001,314,3*36
$PMTK001,220,3*30
$PMTK001,185,3*3C
$GPGGA,164104.391,,,,,0,2,,,M,,M,,*47
$GPRMC,164104.391,V,,,,,0.12,0.00,100612,,,N*47
$GPGGA,164105.383,4026.7028,N,07520.5906,W,1,9,0.92,148.9,M,-33.9,M,,*64
$GPRMC,164105.383,A,4026.7028,N,0752$PMTK001,314,3*36
$PMTK001,220,3*30
$PMTK001,185,3*3C
$GPGGA,164104.391,,,,,0,2,,,M,,M,,*47
$GPRMC,164104.391,V,,,,,0.12,0.00,100612,,,N*47
$GPGGA,164105.383,4026.7028,N,07520.5906,W,1,9,0.92,148.9,M,-33.9,M,,*64
$GPRMC,164105.383,A,4026.7028,N,0752$PMTK001,314,3*36
$PMTK001,220,3*30
$PMTK001,185,3*3C
$GPGGA,164104.391,,,,,0,2,,,M,,M,,*47
$GPRMC,164104.391,V,,,,,0.12,0.00,100612,,,N*47
$GPGGA,164105.383,4026.7028,N,07520.5906,W,1,9,0.92,148.9,M,-33.9,M,,*64
$GPRMC,164105.383,A,4026.7028,N,0752$PMTK001,314,3*36
$PMTK001,220,3*30
$PMTK001,185,3*3C
$GPGGA,164104.391,,,,,0,2,,,M,,M,,*47
$GPRMC,164104.391,V,,,,,0.12,0.00,100612,,,N*47
$GPGGA,164105.383,4026.7028,N,07520.5906,W,1,9,0.92,148.9,M,-33.9,M,,*64
$GPRMC,164105.383,A,4026.7028,N,0752$PMTK001,314,3*36
$PMTK001,220,3*30
$PMTK001,185,3*3C
$GPGGA,164104.391,,,,,0,2,,,M,,M,,*47
$GPRMC,164104.391,V,,,,,0.12,0.00,100612,,,N*47
$GPGGA,164105.383,4026.7028,N,07520.5906,W,1,9,0.92,148.9,M,-33.9,M,,*64
$GPRMC,164105.383,A,4026.7028,N,0752$PMTK001,314,3*36
$PMTK001,220,3*30
$PMTK001,185,3*3C
$GPGGA,164104.391,,,,,0,2,,,M,,M,,*47
$GPRMC,164104.391,V,,,,,0.12,0.00,100612,,,N*47
$GPGGA,164105.383,4026.7028,N,07520.5906,W,1,9,0.92,148.9,M,-33.9,M,,*64
$GPRMC,164105.383,A,4026.7028,N,0752$PMTK001,314,3*36
$PMTK001,220,3*30
$PMTK001,185,3*3C
$GPGGA,164104.391,,,,,0,2,,,M,,M,,*47
$GPRMC,164104.391,V,,,,,0.12,0.00,100612,,,N*47
$GPGGA,164105.383,4026.7028,N,07520.5906,W,1,9,0.92,148.9,M,-33.9,M,,*64
$GPRMC,164105.383,A,4026.7028,N,0752$PMTK001,314,3*36
$PMTK001,220,3*30
$PMTK001,185,3*3C
$GPGGA,164104.391,,,,,0,2,,,M,,M,,*47
$GPRMC,164104.391,V,,,,,0.12,0.00,100612,,,N*47
$GPGGA,164105.383,4026.7028,N,07520.5906,W,1,9,0.92,148.9,M,-33.9,M,,*64
$GPRMC,164105.383,A,4026.7028,N,0752$PMTK001,314,3*36
$PMTK001,220,3*30
$PMTK001,185,3*3C
$GPGGA,164104.391,,,,,0,2,,,M,,M,,*47
$GPRMC,164104.391,V,,,,,0.12,0.00,100612,,,N*47
$GPGGA,164105.383,4026.7028,N,07520.5906,W,1,9,0.92,148.9,M,-33.9,M,,*64
$GPRMC,164105.383,A,4026.7028,N,0752$PMTK001,314,3*36
$PMTK001,220,3*30
$PMTK001,185,3*3C
$GPGGA,164104.391,,,,,0,2,,,M,,M,,*47
$GPRMC,164104.391,V,,,,,0.12,0.00,100612,,,N*47
$GPGGA,164105.383,4026.7028,N,07520.5906,W,1,9,0.92,148.9,M,-33.9,M,,*64
$GPRMC,164105.383,A,4026.7028,N,0752$PMTK001,314,3*36
$PMTK001,220,3*30
$PMTK001,185,3*3C
$GPGGA,164104.391,,,,,0,2,,,M,,M,,*47
$GPRMC,164104.391,V,,,,,0.12,0.00,100612,,,N*47
$GPGGA,164105.383,4026.7028,N,07520.5906,W,1,9,0.92,148.9,M,-33.9,M,,*64
$GPRMC,164105.383,A,4026.7028,N,0752$PMTK001,314,3*36
$PMTK001,220,3*30
$PMTK001,185,3*3C
$GPGGA,164104.391,,,,,0,2,,,M,,M,,*47
$GPRMC,164104.391,V,,,,,0.12,0.00,100612,,,N*47
$GPGGA,164105.383,4026.7028,N,07520.5906,W,1,9,0.92,148.9,M,-33.9,M,,*64
$GPRMC,164105.383,A,4026.7028,N,0752$PMTK001,314,3*36
$PMTK001,220,3*30
$PMTK001,185,3*3C
$GPGGA,164104.391,,,,,0,2,,,M,,M,,*47
$GPRMC,164104.391,V,,,,,0.12,0.00,100612,,,N*47
$GPGGA,164105.383,4026.7028,N,07520.5906,W,1,9,0.92,148.9,M,-33.9,M,,*64
$GPRMC,164105.383,A,4026.7028,N,0752$PMTK001,314,3*36
$PMTK001,220,3*30
$PMTK001,185,3*3C
$GPGGA,164104.391,,,,,0,2,,,M,,M,,*47
$GPRMC,164104.391,V,,,,,0.12,0.00,100612,,,N*47
$GPGGA,164105.383,4026.7028,N,07520.5906,W,1,9,0.92,148.9,M,-33.9,M,,*64
$GPRMC,164105.383,A,4026.7028,N,0752$PMTK001,314,3*36
$PMTK001,220,3*30
$PMTK001,185,3*3C
$GPGGA,164104.391,,,,,0,2,,,M,,M,,*47
$GPRMC,164104.391,V,,,,,0.12,0.00,100612,,,N*47
$GPGGA,164105.383,4026.7028,N,07520.5906,W,1,9,0.92,148.9,M,-33.9,M,,*64
$GPRMC,164105.383,A,4026.7028,N,0752$PMTK001,314,3*36
$PMTK001,220,3*30
$PMTK001,185,3*3C
$GPGGA,164104.391,,,,,0,2,,,M,,M,,*47
$GPRMC,164104.391,V,,,,,0.12,0.00,100612,,,N*47
$GPGGA,164105.383,4026.7028,N,07520.5906,W,1,9,0.92,148.9,M,-33.9,M,,*64
$GPRMC,164105.383,A,4026.7028,N,0752$PMTK001,314,3*36
$PMTK001,220,3*30
$PMTK001,185,3*3C
$GPGGA,164104.391,,,,,0,2,,,M,,M,,*47
$GPRMC,164104.391,V,,,,,0.12,0.00,100612,,,N*47
$GPGGA,164105.383,4026.7028,N,07520.5906,W,1,9,0.92,148.9,M,-33.9,M,,*64
$GPRMC,164105.383,A,4026.7028,N,0752$PMTK001,314,3*36
$PMTK001,220,3*30
$PMTK001,185,3*3C
$GPGGA,164104.391,,,,,0,2,,,M,,M,,*47
$GPRMC,164104.391,V,,,,,0.12,0.00,100612,,,N*47
$GPGGA,164105.383,4026.7028,N,07520.5906,W,1,9,0.92,148.9,M,-33.9,M,,*64
$GPRMC,164105.383,A,4026.7028,N,0752$PMTK001,314,3*36
$PMTK001,220,3*30
$PMTK001,185,3*3C
$GPGGA,164104.391,,,,,0,2,,,M,,M,,*47
$GPRMC,164104.391,V,,,,,0.12,0.00,100612,,,N*47
$GPGGA,164105.383,4026.7028,N,07520.5906,W,1,9,0.92,148.9,M,-33.9,M,,*64
$GPRMC,164105.383,A,4026.7028,N,0752$PMTK001,314,3*36
$PMTK001,220,3*30
$PMTK001,185,3*3C
$GPGGA,164104.391,,,,,0,2,,,M,,M,,*47
$GPRMC,164104.391,V,,,,,0.12,0.00,100612,,,N*47
$GPGGA,164105.383,4026.7028,N,07520.5906,W,1,9,0.92,148.9,M,-33.9,M,,*64
$GPRMC,164105.383,A,4026.7028,N,0752$PMTK001,314,3*36
$PMTK001,220,3*30
$PMTK001,185,3*3C
$GPGGA,164104.391,,,,,0,2,,,M,,M,,*47
$GPRMC,164104.391,V,,,,,0.12,0.00,100612,,,N*47
$GPGGA,164105.383,4026.7028,N,07520.5906,W,1,9,0.92,148.9,M,-33.9,M,,*64
$GPRMC,164105.383,A,4026.7028,N,0752$PMTK001,314,3*36
$PMTK001,220,3*30
$PMTK001,185,3*3C
$GPGGA,164104.391,,,,,0,2,,,M,,M,,*47
$GPRMC,164104.391,V,,,,,0.12,0.00,100612,,,N*47
$GPGGA,164105.383,4026.7028,N,07520.5906,W,1,9,0.92,148.9,M,-33.9,M,,*64
$GPRMC,164105.383,A,4026.7028,N,0752$PMTK001,314,3*36
$PMTK001,220,3*30
$PMTK001,185,3*3C
$GPGGA,164104.391,,,,,0,2,,,M,,M,,*47
$GPRMC,164104.391,V,,,,,0.12,0.00,100612,,,N*47
$GPGGA,164105.383,4026.7028,N,07520.5906,W,1,9,0.92,148.9,M,-33.9,M,,*64
$GPRMC,164105.383,A,4026.7028,N,0752$PMTK001,314,3*36
$PMTK001,220,3*30
$PMTK001,185,3*3C
$GPGGA,164104.391,,,,,0,2,,,M,,M,,*47
$GPRMC,164104.391,V,,,,,0.12,0.00,100612,,,N*47
$GPGGA,164105.383,4026.7028,N,07520.5906,W,1,9,0.92,148.9,M,-33.9,M,,*64
$GPRMC,164105.383,A,4026.7028,N,0752$PMTK001,314,3*36
$PMTK001,220,3*30
$PMTK001,185,3*3C
$GPGGA,164104.391,,,,,0,2,,,M,,M,,*47
$GPRMC,164104.391,V,,,,,0.12,0.00,100612,,,N*47
$GPGGA,164105.383,4026.7028,N,07520.5906,W,1,9,0.92,148.9,M,-33.9,M,,*64
$GPRMC,164105.383,A,4026.7028,N,0752$PMTK001,314,3*36
$PMTK001,220,3*30
$PMTK001,185,3*3C
$GPGGA,164104.391,,,,,0,2,,,M,,M,,*47
$GPRMC,164104.391,V,,,,,0.12,0.00,100612,,,N*47
$GPGGA,164105.383,4026.7028,N,07520.5906,W,1,9,0.92,148.9,M,-33.9,M,,*64
$GPRMC,164105.383,A,4026.7028,N,0752$PMTK001,314,3*36
$PMTK001,220,3*30
$PMTK001,185,3*3C
$GPGGA,164104.391,,,,,0,2,,,M,,M,,*47
$GPRMC,164104.391,V,,,,,0.12,0.00,100612,,,N*47
$GPGGA,164105.383,4026.7028,N,07520.5906,W,1,9,0.92,148.9,M,-33.9,M,,*64
$GPRMC,164105.383,A,4026.7028,N,0752$PMTK001,314,3*36
$PMTK001,220,3*30
$PMTK001,185,3*3C
$GPGGA,164104.391,,,,,0,2,,,M,,M,,*47
$GPRMC,164104.391,V,,,,,0.12,0.00,100612,,,N*47
$GPGGA,164105.383,4026.7028,N,07520.5906,W,1,9,0.92,148.9,M,-33.9,M,,*64
$GPRMC,164105.383,A,4026.7028,N,0752$PMTK001,314,3*36
$PMTK001,220,3*30
$PMTK001,185,3*3C
$GPGGA,164104.391,,,,,0,2,,,M,,M,,*47
$GPRMC,164104.391,V,,,,,0.12,0.00,100612,,,N*47
$GPGGA,164105.383,4026.7028,N,07520.5906,W,1,9,0.92,148.9,M,-33.9,M,,*64
$GPRMC,164105.383,A,4026.7028,N,0752$PMTK001,314,3*36
$PMTK001,220,3*30
$PMTK001,185,3*3C
$GPGGA,164104.391,,,,,0,2,,,M,,M,,*47
$GPRMC,164104.391,V,,,,,0.12,0.00,100612,,,N*47
$GPGGA,164105.383,4026.7028,N,07520.5906,W,1,9,0.92,148.9,M,-33.9,M,,*64
$GPRMC,164105.383,A,4026.7028,N,0752$PMTK001,314,3*36
$PMTK001,220,3*30
$PMTK001,185,3*3C
$GPGGA,164104.391,,,,,0,2,,,M,,M,,*47
$GPRMC,164104.391,V,,,,,0.12,0.00,100612,,,N*47
$GPGGA,164105.383,4026.7028,N,07520.5906,W,1,9,0.92,148.9,M,-33.9,M,,*64
$GPRMC,164105.383,A,4026.7028,N,0752$PMTK001,314,3*36
$PMTK001,220,3*30
$PMTK001,185,3*3C
$GPGGA,164104.391,,,,,0,2,,,M,,M,,*47
$GPRMC,164104.391,V,,,,,0.12,0.00,100612,,,N*47
$GPGGA,164105.383,4026.7028,N,07520.5906,W,1,9,0.92,148.9,M,-33.9,M,,*64
$GPRMC,164105.383,A,4026.7028,N,0752$PMTK001,314,3*36
$PMTK001,220,3*30
$PMTK001,185,3*3C
$GPGGA,164104.391,,,,,0,2,,,M,,M,,*47
$GPRMC,164104.391,V,,,,,0.12,0.00,100612,,,N*47
$GPGGA,164105.383,4026.7028,N,07520.5906,W,1,9,0.92,148.9,M,-33.9,M,,*64
$GPRMC,164105.383,A,4026.7028,N,0752$PMTK001,314,3*36
$PMTK001,220,3*30
$PMTK001,185,3*3C
$GPGGA,164104.391,,,,,0,2,,,M,,M,,*47
$GPRMC,164104.391,V,,,,,0.12,0.00,100612,,,N*47
$GPGGA,164105.383,4026.7028,N,07520.5906,W,1,9,0.92,148.9,M,-33.9,M,,*64
$GPRMC,164105.383,A,4026.7028,N,0752$PMTK001,314,3*36
$PMTK001,220,3*30
$PMTK001,185,3*3C
$GPGGA,164104.391,,,,,0,2,,,M,,M,,*47
$GPRMC,164104.391,V,,,,,0.12,0.00,100612,,,N*47
$GPGGA,164105.383,4026.7028,N,07520.5906,W,1,9,0.92,148.9,M,-33.9,M,,*64
$GPRMC,164105.383,A,4026.7028,N,0752$PMTK001,314,3*36
$PMTK001,220,3*30
$PMTK001,185,3*3C
$GPGGA,164104.391,,,,,0,2,,,M,,M,,*47
$GPRMC,164104.391,V,,,,,0.12,0.00,100612,,,N*47
$GPGGA,164105.383,4026.7028,N,07520.5906,W,1,9,0.92,148.9,M,-33.9,M,,*64
$GPRMC,164105.383,A,4026.7028,N,0752$PMTK001,314,3*36
$PMTK001,220,3*30
$PMTK001,185,3*3C
$GPGGA,164104.391,,,,,0,2,,,M,,M,,*47
$GPRMC,164104.391,V,,,,,0.12,0.00,100612,,,N*47
$GPGGA,164105.383,4026.7028,N,07520.5906,W,1,9,0.92,148.9,M,-33.9,M,,*64
$GPRMC,164105.383,A,4026.7028,N,0752$PMTK001,314,3*36
$PMTK001,220,3*30
$PMTK001,185,3*3C
$GPGGA,164104.391,,,,,0,2,,,M,,M,,*47
$GPRMC,164104.391,V,,,,,0.12,0.00,100612,,,N*47
$GPGGA,164105.383,4026.7028,N,07520.5906,W,1,9,0.92,148.9,M,-33.9,M,,*64
$GPRMC,164105.383,A,4026.7028,N,0752$PMTK001,314,3*36
$PMTK001,220,3*30
$PMTK001,185,3*3C
$GPGGA,164104.391,,,,,0,2,,,M,,M,,*47
$GPRMC,164104.391,V,,,,,0.12,0.00,100612,,,N*47
$GPGGA,164105.383,4026.7028,N,07520.5906,W,1,9,0.92,148.9,M,-33.9,M,,*64
$GPRMC,164105.383,A,4026.7028,N,0752$PMTK001,314,3*36
$PMTK001,220,3*30
$PMTK001,185,3*3C
$GPGGA,164104.391,,,,,0,2,,,M,,M,,*47
$GPRMC,164104.391,V,,,,,0.12,0.00,100612,,,N*47
$GPGGA,164105.383,4026.7028,N,07520.5906,W,1,9,0.92,148.9,M,-33.9,M,,*64
$GPRMC,164105.383,A,4026.7028,N,0752$PMTK001,314,3*36
$PMTK001,220,3*30
$PMTK001,185,3*3C
$GPGGA,164104.391,,,,,0,2,,,M,,M,,*47
$GPRMC,164104.391,V,,,,,0.12,0.00,100612,,,N*47
$GPGGA,164105.383,4026.7028,N,07520.5906,W,1,9,0.92,148.9,M,-33.9,M,,*64
$GPRMC,164105.383,A,4026.7028,N,0752$PMTK001,314,3*36
$PMTK001,220,3*30
$PMTK001,185,3*3C
$GPGGA,164104.391,,,,,0,2,,,M,,M,,*47
$GPRMC,164104.391,V,,,,,0.12,0.00,100612,,,N*47
$GPGGA,164105.383,4026.7028,N,07520.5906,W,1,9,0.92,148.9,M,-33.9,M,,*64
$GPRMC,164105.383,A,4026.7028,N,0752$PMTK001,314,3*36
$PMTK001,220,3*30
$PMTK001,185,3*3C
$GPGGA,164104.391,,,,,0,2,,,M,,M,,*47
$GPRMC,164104.391,V,,,,,0.12,0.00,100612,,,N*47
$GPGGA,164105.383,4026.7028,N,07520.5906,W,1,9,0.92,148.9,M,-33.9,M,,*64
$GPRMC,164105.383,A,4026.7028,N,0752$PMTK001,314,3*36
$PMTK001,220,3*30
$PMTK001,185,3*3C
$GPGGA,164104.391,,,,,0,2,,,M,,M,,*47
$GPRMC,164104.391,V,,,,,0.12,0.00,100612,,,N*47
$GPGGA,164105.383,4026.7028,N,07520.5906,W,1,9,0.92,148.9,M,-33.9,M,,*64
$GPRMC,164105.383,A,4026.7028,N,0752$PMTK001,314,3*36
$PMTK001,220,3*30
$PMTK001,185,3*3C
$GPGGA,164104.391,,,,,0,2,,,M,,M,,*47
$GPRMC,164104.391,V,,,,,0.12,0.00,100612,,,N*47
$GPGGA,164105.383,4026.7028,N,07520.5906,W,1,9,0.92,148.9,M,-33.9,M,,*64
$GPRMC,164105.383,A,4026.7028,N,0752$PMTK001,314,3*36
$PMTK001,220,3*30
$PMTK001,185,3*3C
$GPGGA,164104.391,,,,,0,2,,,M,,M,,*47
$GPRMC,164104.391,V,,,,,0.12,0.00,100612,,,N*47
$GPGGA,164105.383,4026.7028,N,07520.5906,W,1,9,0.92,148.9,M,-33.9,M,,*64
$GPRMC,164105.383,A,4026.7028,N,0752$PMTK001,314,3*36
$PMTK001,220,3*30
$PMTK001,185,3*3C
$GPGGA,164104.391,,,,,0,2,,,M,,M,,*47
$GPRMC,164104.391,V,,,,,0.12,0.00,100612,,,N*47
$GPGGA,164105.383,4026.7028,N,07520.5906,W,1,9,0.92,148.9,M,-33.9,M,,*64
$GPRMC,164105.383,A,4026.7028,N,0752$PMTK001,314,3*36
$PMTK001,220,3*30
$PMTK001,185,3*3C
$GPGGA,164104.391,,,,,0,2,,,M,,M,,*47
$GPRMC,164104.391,V,,,,,0.12,0.00,100612,,,N*47
$GPGGA,164105.383,4026.7028,N,07520.5906,W,1,9,0.92,148.9,M,-33.9,M,,*64
$GPRMC,164105.383,A,4026.7028,N,0752$PMTK001,314,3*36
$PMTK001,220,3*30
$PMTK001,185,3*3C
$GPGGA,164104.391,,,,,0,2,,,M,,M,,*47
$GPRMC,164104.391,V,,,,,0.12,0.00,100612,,,N*47
$GPGGA,164105.383,4026.7028,N,07520.5906,W,1,9,0.92,148.9,M,-33.9,M,,*64
$GPRMC,164105.383,A,4026.7028,N,0752$PMTK001,314,3*36
$PMTK001,220,3*30
$PMTK001,185,3*3C
$GPGGA,164104.391,,,,,0,2,,,M,,M,,*47
$GPRMC,164104.391,V,,,,,0.12,0.00,100612,,,N*47
$GPGGA,164105.383,4026.7028,N,07520.5906,W,1,9,0.92,148.9,M,-33.9,M,,*64
$GPRMC,164105.383,A,4026.7028,N,0752$PMTK001,314,3*36
$PMTK001,220,3*30
$PMTK001,185,3*3C
$GPGGA,164104.391,,,,,0,2,,,M,,M,,*47
$GPRMC,164104.391,V,,,,,0.12,0.00,100612,,,N*47
$GPGGA,164105.383,4026.7028,N,07520.5906,W,1,9,0.92,148.9,M,-33.9,M,,*64
$GPRMC,164105.383,A,4026.7028,N,0752$PMTK001,314,3*36
$PMTK001,220,3*30
$PMTK001,185,3*3C
$GPGGA,164104.391,,,,,0,2,,,M,,M,,*47
$GPRMC,164104.391,V,,,,,0.12,0.00,100612,,,N*47
$GPGGA,164105.383,4026.7028,N,07520.5906,W,1,9,0.92,148.9,M,-33.9,M,,*64
$GPRMC,164105.383,A,4026.7028,N,0752$PMTK001,314,3*36
$PMTK001,220,3*30
$PMTK001,185,3*3C
$GPGGA,164104.391,,,,,0,2,,,M,,M,,*47
$GPRMC,164104.391,V,,,,,0.12,0.00,100612,,,N*47
$GPGGA,164105.383,4026.7028,N,07520.5906,W,1,9,0.92,148.9,M,-33.9,M,,*64
$GPRMC,164105.383,A,4026.7028,N,0752$PMTK001,314,3*36
$PMTK001,220,3*30
$PMTK001,185,3*3C
$GPGGA,164104.391,,,,,0,2,,,M,,M,,*47
$GPRMC,164104.391,V,,,,,0.12,0.00,100612,,,N*47
$GPGGA,164105.383,4026.7028,N,07520.5906,W,1,9,0.92,148.9,M,-33.9,M,,*64
$GPRMC,164105.383,A,4026.7028,N,0752$PMTK001,314,3*36
$PMTK001,220,3*30
$PMTK001,185,3*3C
$GPGGA,164104.391,,,,,0,2,,,M,,M,,*47
$GPRMC,164104.391,V,,,,,0.12,0.00,100612,,,N*47
$GPGGA,164105.383,4026.7028,N,07520.5906,W,1,9,0.92,148.9,M,-33.9,M,,*64
$GPRMC,164105.383,A,4026.7028,N,0752$PMTK001,314,3*36
$PMTK001,220,3*30
$PMTK001,185,3*3C
$GPGGA,164104.391,,,,,0,2,,,M,,M,,*47
$GPRMC,164104.391,V,,,,,0.12,0.00,100612,,,N*47
$GPGGA,164105.383,4026.7028,N,07520.5906,W,1,9,0.92,148.9,M,-33.9,M,,*64
$GPRMC,164105.383,A,4026.7028,N,0752$PMTK001,314,3*36
$PMTK001,220,3*30
$PMTK001,185,3*3C
$GPGGA,164104.391,,,,,0,2,,,M,,M,,*47
$GPRMC,164104.391,V,,,,,0.12,0.00,100612,,,N*47
$GPGGA,164105.383,4026.7028,N,07520.5906,W,1,9,0.92,148.9,M,-33.9,M,,*64
$GPRMC,164105.383,A,4026.7028,N,0752$PMTK001,314,3*36
$PMTK001,220,3*30
$PMTK001,185,3*3C
$GPGGA,164104.391,,,,,0,2,,,M,,M,,*47
$GPRMC,164104.391,V,,,,,0.12,0.00,100612,,,N*47
$GPGGA,164105.383,4026.7028,N,07520.5906,W,1,9,0.92,148.9,M,-33.9,M,,*64
$GPRMC,164105.383,A,4026.7028,N,0752