$PMTK001,314,3*36
$PMTK001,220,3*30
$PMTK001,185,3*3C
$GPGGA,185438.000,4006.3317,N,07504.2427,W,2,11,0.85,9606.0,M,-34.0,M,0000,0000*61
$GPRMC,185438.000,A,4006.3317,N,07504.2427,W,29.21,135.27,100612,,,D*45
$GPGGA,185439.000,4006.3259,N,07504.2354,$PMTK001,314,3*36
$PMTK001,220,3*30
$PMTK001,185,3*3C
$GPGGA,185438.000,4006.3317,N,07504.2427,W,2,11,0.85,9606.0,M,-34.0,M,0000,0000*61
$GPRMC,185438.000,A,4006.3317,N,07504.2427,W,29.21,135.27,100612,,,D*45
$GPGGA,185439.000,4006.3259,N,07504.2354,$PMTK001,314,3*36
$PMTK001,220,3*30
$PMTK001,185,3*3C
$GPGGA,185438.000,4006.3317,N,07504.2427,W,2,11,0.85,9606.0,M,-34.0,M,0000,0000*61
$GPRMC,185438.000,A,4006.3317,N,07504.2427,W,29.21,135.27,100612,,,D*45
$GPGGA,185439.000,4006.3259,N,07504.2354,$PMTK001,314,3*36
$PMTK001,220,3*30
$PMTK001,185,3*3C
$GPGGA,185438.000,4006.3317,N,07504.2427,W,2,11,0.85,9606.0,M,-34.0,M,0000,0000*61
$GPRMC,185438.000,A,4006.3317,N,07504.2427,W,29.21,135.27,100612,,,D*45
$GPGGA,185439.000,4006.3259,N,07504.2354,$PMTK001,314,3*36
$PMTK001,220,3*30
$PMTK001,185,3*3C
$GPGGA,185438.000,4006.3317,N,07504.2427,W,2,11,0.85,9606.0,M,-34.0,M,0000,0000*61
$GPRMC,185438.000,A,4006.3317,N,07504.2427,W,29.21,135.27,100612,,,D*45
$GPGGA,185439.000,4006.3259,N,07504.2354,$PMTK001,314,3*36
$PMTK001,220,3*30
$PMTK001,185,3*3C
$GPGGA,185438.000,4006.3317,N,07504.2427,W,2,11,0.85,9606.0,M,-34.0,M,0000,0000*61
$GPRMC,185438.000,A,4006.3317,N,07504.2427,W,29.21,135.27,100612,,,D*45
$GPGGA,185439.000,4006.3259,N,07504.2354,$PMTK001,314,3*36
$PMTK001,220,3*30
$PMTK001,185,3*3C
$GPGGA,185438.000,4006.3317,N,07504.2427,W,2,11,0.85,9606.0,M,-34.0,M,0000,0000*61
$GPRMC,185438.000,A,4006.3317,N,07504.2427,W,29.21,135.27,100612,,,D*45
$GPGGA,185439.000,4006.3259,N,07504.2354,$PMTK001,314,3*36
$PMTK001,220,3*30
$PMTK001,185,3*3C
$GPGGA,185438.000,4006.3317,N,07504.2427,W,2,11,0.85,9606.0,M,-34.0,M,0000,0000*61
$GPRMC,185438.000,A,4006.3317,N,07504.2427,W,29.21,135.27,100612,,,D*45
$GPGGA,185439.000,4006.3259,N,07504.2354,$PMTK001,314,3*36
$PMTK001,220,3*30
$PMTK001,185,3*3C
$GPGGA,185438.000,4006.3317,N,07504.2427,W,2,11,0.85,9606.0,M,-34.0,M,0000,0000*61
$GPRMC,185438.000,A,4006.3317,N,07504.2427,W,29.21,135.27,100612,,,D*45
$GPGGA,185439.000,4006.3259,N,07504.2354,$PMTK001,314,3*36
$PMTK001,220,3*30
$PMTK001,185,3*3C
$GPGGA,185438.000,4006.3317,N,07504.2427,W,2,11,0.85,9606.0,M,-34.0,M,0000,0000*61
$GPRMC,185438.000,A,4006.3317,N,07504.2427,W,29.21,135.27,100612,,,D*45
$GPGGA,185439.000,4006.3259,N,07504.2354,$PMTK001,314,3*36
$PMTK001,220,3*30
$PMTK001,185,3*3C
$GPGGA,185438.000,4006.3317,N,07504.2427,W,2,11,0.85,9606.0,M,-34.0,M,0000,0000*61
$GPRMC,185438.000,A,4006.3317,N,07504.2427,W,29.21,135.27,100612,,,D*45
$GPGGA,185439.000,4006.3259,N,07504.2354,$PMTK001,314,3*36
$PMTK001,220,3*30
$PMTK001,185,3*3C
$GPGGA,185438.000,4006.3317,N,07504.2427,W,2,11,0.85,9606.0,M,-34.0,M,0000,0000*61
$GPRMC,185438.000,A,4006.3317,N,07504.2427,W,29.21,135.27,100612,,,D*45
$GPGGA,185439.000,4006.3259,N,07504.2354,$PMTK001,314,3*36
$PMTK001,220,3*30
$PMTK001,185,3*3C
$GPGGA,185438.000,4006.3317,N,07504.2427,W,2,11,0.85,9606.0,M,-34.0,M,0000,0000*61
$GPRMC,185438.000,A,4006.3317,N,07504.2427,W,29.21,135.27,100612,,,D*45
$GPGGA,185439.000,4006.3259,N,07504.2354,$PMTK001,314,3*36
$PMTK001,220,3*30
$PMTK001,185,3*3C
$GPGGA,185438.000,4006.3317,N,07504.2427,W,2,11,0.85,9606.0,M,-34.0,M,0000,0000*61
$GPRMC,185438.000,A,4006.3317,N,07504.2427,W,29.21,135.27,100612,,,D*45
$GPGGA,185439.000,4006.3259,N,07504.2354,$PMTK001,314,3*36
$PMTK001,220,3*30
$PMTK001,185,3*3C
$GPGGA,185438.000,4006.3317,N,07504.2427,W,2,11,0.85,9606.0,M,-34.0,M,0000,0000*61
$GPRMC,185438.000,A,4006.3317,N,07504.2427,W,29.21,135.27,100612,,,D*45
$GPGGA,185439.000,4006.3259,N,07504.2354,$PMTK001,314,3*36
$PMTK001,220,3*30
$PMTK001,185,3*3C
$GPGGA,185438.000,4006.3317,N,07504.2427,W,2,11,0.85,9606.0,M,-34.0,M,0000,0000*61
$GPRMC,185438.000,A,4006.3317,N,07504.2427,W,29.21,135.27,100612,,,D*45
$GPGGA,185439.000,4006.3259,N,07504.2354,$PMTK001,314,3*36
$PMTK001,220,3*30
$PMTK001,185,3*3C
$GPGGA,185438.000,4006.3317,N,07504.2427,W,2,11,0.85,9606.0,M,-34.0,M,0000,0000*61
$GPRMC,185438.000,A,4006.3317,N,07504.2427,W,29.21,135.27,100612,,,D*45
$GPGGA,185439.000,4006.3259,N,07504.2354,$PMTK001,314,3*36
$PMTK001,220,3*30
$PMTK001,185,3*3C
$GPGGA,185438.000,4006.3317,N,07504.2427,W,2,11,0.85,9606.0,M,-34.0,M,0000,0000*61
$GPRMC,185438.000,A,4006.3317,N,07504.2427,W,29.21,135.27,100612,,,D*45
$GPGGA,185439.000,4006.3259,N,07504.2354,$PMTK001,314,3*36
$PMTK001,220,3*30
$PMTK001,185,3*3C
$GPGGA,185438.000,4006.3317,N,07504.2427,W,2,11,0.85,9606.0,M,-34.0,M,0000,0000*61
$GPRMC,185438.000,A,4006.3317,N,07504.2427,W,29.21,135.27,100612,,,D*45
$GPGGA,185439.000,4006.3259,N,07504.2354,$PMTK001,314,3*36
$PMTK001,220,3*30
$PMTK001,185,3*3C
$GPGGA,185438.000,4006.3317,N,07504.2427,W,2,11,0.85,9606.0,M,-34.0,M,0000,0000*61
$GPRMC,185438.000,A,4006.3317,N,07504.2427,W,29.21,135.27,100612,,,D*45
$GPGGA,185439.000,4006.3259,N,07504.2354,$PMTK001,314,3*36
$PMTK001,220,3*30
$PMTK001,185,3*3C
$GPGGA,185438.000,4006.3317,N,07504.2427,W,2,11,0.85,9606.0,M,-34.0,M,0000,0000*61
$GPRMC,185438.000,A,4006.3317,N,07504.2427,W,29.21,135.27,100612,,,D*45
$GPGGA,185439.000,4006.3259,N,07504.2354,$PMTK001,314,3*36
$PMTK001,220,3*30
$PMTK001,185,3*3C
$GPGGA,185438.000,4006.3317,N,07504.2427,W,2,11,0.85,9606.0,M,-34.0,M,0000,0000*61
$GPRMC,185438.000,A,4006.3317,N,07504.2427,W,29.21,135.27,100612,,,D*45
$GPGGA,185439.000,4006.3259,N,07504.2354,$PMTK001,314,3*36
$PMTK001,220,3*30
$PMTK001,185,3*3C
$GPGGA,185438.000,4006.3317,N,07504.2427,W,2,11,0.85,9606.0,M,-34.0,M,0000,0000*61
$GPRMC,185438.000,A,4006.3317,N,07504.2427,W,29.21,135.27,100612,,,D*45
$GPGGA,185439.000,4006.3259,N,07504.2354,$PMTK001,314,3*36
$PMTK001,220,3*30
$PMTK001,185,3*3C
$GPGGA,185438.000,4006.3317,N,07504.2427,W,2,11,0.85,9606.0,M,-34.0,M,0000,0000*61
$GPRMC,185438.000,A,4006.3317,N,07504.2427,W,29.21,135.27,100612,,,D*45
$GPGGA,185439.000,4006.3259,N,07504.2354,$PMTK001,314,3*36
$PMTK001,220,3*30
$PMTK001,185,3*3C
$GPGGA,185438.000,4006.3317,N,07504.2427,W,2,11,0.85,9606.0,M,-34.0,M,0000,0000*61
$GPRMC,185438.000,A,4006.3317,N,07504.2427,W,29.21,135.27,100612,,,D*45
$GPGGA,185439.000,4006.3259,N,07504.2354,$PMTK001,314,3*36
$PMTK001,220,3*30
$PMTK001,185,3*3C
$GPGGA,185438.000,4006.3317,N,07504.2427,W,2,11,0.85,9606.0,M,-34.0,M,0000,0000*61
$GPRMC,185438.000,A,4006.3317,N,07504.2427,W,29.21,135.27,100612,,,D*45
$GPGGA,185439.000,4006.3259,N,07504.2354,$PMTK001,314,3*36
$PMTK001,220,3*30
$PMTK001,185,3*3C
$GPGGA,185438.000,4006.3317,N,07504.2427,W,2,11,0.85,9606.0,M,-34.0,M,0000,0000*61
$GPRMC,185438.000,A,4006.3317,N,07504.2427,W,29.21,135.27,100612,,,D*45
$GPGGA,185439.000,4006.3259,N,07504.2354,$PMTK001,314,3*36
$PMTK001,220,3*30
$PMTK001,185,3*3C
$GPGGA,185438.000,4006.3317,N,07504.2427,W,2,11,0.85,9606.0,M,-34.0,M,0000,0000*61
$GPRMC,185438.000,A,4006.3317,N,07504.2427,W,29.21,135.27,100612,,,D*45
$GPGGA,185439.000,4006.3259,N,07504.2354,$PMTK001,314,3*36
$PMTK001,220,3*30
$PMTK001,185,3*3C
$GPGGA,185438.000,4006.3317,N,07504.2427,W,2,11,0.85,9606.0,M,-34.0,M,0000,0000*61
$GPRMC,185438.000,A,4006.3317,N,07504.2427,W,29.21,135.27,100612,,,D*45
$GPGGA,185439.000,4006.3259,N,07504.2354,$PMTK001,314,3*36
$PMTK001,220,3*30
$PMTK001,185,3*3C
$GPGGA,185438.000,4006.3317,N,07504.2427,W,2,11,0.85,9606.0,M,-34.0,M,0000,0000*61
$GPRMC,185438.000,A,4006.3317,N,07504.2427,W,29.21,135.27,100612,,,D*45
$GPGGA,185439.000,4006.3259,N,07504.2354,$PMTK001,314,3*36
$PMTK001,220,3*30
$PMTK001,185,3*3C
$GPGGA,185438.000,4006.3317,N,07504.2427,W,2,11,0.85,9606.0,M,-34.0,M,0000,0000*61
$GPRMC,185438.000,A,4006.3317,N,07504.2427,W,29.21,135.27,100612,,,D*45
$GPGGA,185439.000,4006.3259,N,07504.2354,$PMTK001,314,3*36
$PMTK001,220,3*30
$PMTK001,185,3*3C
$GPGGA,185438.000,4006.3317,N,07504.2427,W,2,11,0.85,9606.0,M,-34.0,M,0000,0000*61
$GPRMC,185438.000,A,4006.3317,N,07504.2427,W,29.21,135.27,100612,,,D*45
$GPGGA,185439.000,4006.3259,N,07504.2354,$PMTK001,314,3*36
$PMTK001,220,3*30
$PMTK001,185,3*3C
$GPGGA,185438.000,4006.3317,N,07504.2427,W,2,11,0.85,9606.0,M,-34.0,M,0000,0000*61
$GPRMC,185438.000,A,4006.3317,N,07504.2427,W,29.21,135.27,100612,,,D*45
$GPGGA,185439.000,4006.3259,N,07504.2354,$PMTK001,314,3*36
$PMTK001,220,3*30
$PMTK001,185,3*3C
$GPGGA,185438.000,4006.3317,N,07504.2427,W,2,11,0.85,9606.0,M,-34.0,M,0000,0000*61
$GPRMC,185438.000,A,4006.3317,N,07504.2427,W,29.21,135.27,100612,,,D*45
$GPGGA,185439.000,4006.3259,N,07504.2354,$PMTK001,314,3*36
$PMTK001,220,3*30
$PMTK001,185,3*3C
$GPGGA,185438.000,4006.3317,N,07504.2427,W,2,11,0.85,9606.0,M,-34.0,M,0000,0000*61
$GPRMC,185438.000,A,4006.3317,N,07504.2427,W,29.21,135.27,100612,,,D*45
$GPGGA,185439.000,4006.3259,N,07504.2354,$PMTK001,314,3*36
$PMTK001,220,3*30
$PMTK001,185,3*3C
$GPGGA,185438.000,4006.3317,N,07504.2427,W,2,11,0.85,9606.0,M,-34.0,M,0000,0000*61
$GPRMC,185438.000,A,4006.3317,N,07504.2427,W,29.21,135.27,100612,,,D*45
$GPGGA,185439.000,4006.3259,N,07504.2354,$PMTK001,314,3*36
$PMTK001,220,3*30
$PMTK001,185,3*3C
$GPGGA,185438.000,4006.3317,N,07504.2427,W,2,11,0.85,9606.0,M,-34.0,M,0000,0000*61
$GPRMC,185438.000,A,4006.3317,N,07504.2427,W,29.21,135.27,100612,,,D*45
$GPGGA,185439.000,4006.3259,N,07504.2354,$PMTK001,314,3*36
$PMTK001,220,3*30
$PMTK001,185,3*3C
$GPGGA,185438.000,4006.3317,N,07504.2427,W,2,11,0.85,9606.0,M,-34.0,M,0000,0000*61
$GPRMC,185438.000,A,4006.3317,N,07504.2427,W,29.21,135.27,100612,,,D*45
$GPGGA,185439.000,4006.3259,N,07504.2354,$PMTK001,314,3*36
$PMTK001,220,3*30
$PMTK001,185,3*3C
$GPGGA,185438.000,4006.3317,N,07504.2427,W,2,11,0.85,9606.0,M,-34.0,M,0000,0000*61
$GPRMC,185438.000,A,4006.3317,N,07504.2427,W,29.21,135.27,100612,,,D*45
$GPGGA,185439.000,4006.3259,N,07504.2354,$PMTK001,314,3*36
$PMTK001,220,3*30
$PMTK001,185,3*3C
$GPGGA,185438.000,4006.3317,N,07504.2427,W,2,11,0.85,9606.0,M,-34.0,M,0000,0000*61
$GPRMC,185438.000,A,4006.3317,N,07504.2427,W,29.21,135.27,100612,,,D*45
$GPGGA,185439.000,4006.3259,N,07504.2354,$PMTK001,314,3*36
$PMTK001,220,3*30
$PMTK001,185,3*3C
$GPGGA,185438.000,4006.3317,N,07504.2427,W,2,11,0.85,9606.0,M,-34.0,M,0000,0000*61
$GPRMC,185438.000,A,4006.3317,N,07504.2427,W,29.21,135.27,100612,,,D*45
$GPGGA,185439.000,4006.3259,N,07504.2354,$PMTK001,314,3*36
$PMTK001,220,3*30
$PMTK001,185,3*3C
$GPGGA,185438.000,4006.3317,N,07504.2427,W,2,11,0.85,9606.0,M,-34.0,M,0000,0000*61
$GPRMC,185438.000,A,4006.3317,N,07504.2427,W,29.21,135.27,100612,,,D*45
$GPGGA,185439.000,4006.3259,N,07504.2354,$PMTK001,314,3*36
$PMTK001,220,3*30
$PMTK001,185,3*3C
$GPGGA,185438.000,4006.3317,N,07504.2427,W,2,11,0.85,9606.0,M,-34.0,M,0000,0000*61
$GPRMC,185438.000,A,4006.3317,N,07504.2427,W,29.21,135.27,100612,,,D*45
$GPGGA,185439.000,4006.3259,N,07504.2354,$PMTK001,314,3*36
$PMTK001,220,3*30
$PMTK001,185,3*3C
$GPGGA,185438.000,4006.3317,N,07504.2427,W,2,11,0.85,9606.0,M,-34.0,M,0000,0000*61
$GPRMC,185438.000,A,4006.3317,N,07504.2427,W,29.21,135.27,100612,,,D*45
$GPGGA,185439.000,4006.3259,N,07504.2354,$PMTK001,314,3*36
$PMTK001,220,3*30
$PMTK001,185,3*3C
$GPGGA,185438.000,4006.3317,N,07504.2427,W,2,11,0.85,9606.0,M,-34.0,M,0000,0000*61
$GPRMC,185438.000,A,4006.3317,N,07504.2427,W,29.21,135.27,100612,,,D*45
$GPGGA,185439.000,4006.3259,N,07504.2354,$PMTK001,314,3*36
$PMTK001,220,3*30
$PMTK001,185,3*3C
$GPGGA,185438.000,4006.3317,N,07504.2427,W,2,11,0.85,9606.0,M,-34.0,M,0000,0000*61
$GPRMC,185438.000,A,4006.3317,N,07504.2427,W,29.21,135.27,100612,,,D*45
$GPGGA,185439.000,4006.3259,N,07504.2354,$PMTK001,314,3*36
$PMTK001,220,3*30
$PMTK001,185,3*3C
$GPGGA,185438.000,4006.3317,N,07504.2427,W,2,11,0.85,9606.0,M,-34.0,M,0000,0000*61
$GPRMC,185438.000,A,4006.3317,N,07504.2427,W,29.21,135.27,100612,,,D*45
$GPGGA,185439.000,4006.3259,N,07504.2354,$PMTK001,314,3*36
$PMTK001,220,3*30
$PMTK001,185,3*3C
$GPGGA,185438.000,4006.3317,N,07504.2427,W,2,11,0.85,9606.0,M,-34.0,M,0000,0000*61
$GPRMC,185438.000,A,4006.3317,N,07504.2427,W,29.21,135.27,100612,,,D*45
$GPGGA,185439.000,4006.3259,N,07504.2354,$PMTK001,314,3*36
$PMTK001,220,3*30
$PMTK001,185,3*3C
$GPGGA,185438.000,4006.3317,N,07504.2427,W,2,11,0.85,9606.0,M,-34.0,M,0000,0000*61
$GPRMC,185438.000,A,4006.3317,N,07504.2427,W,29.21,135.27,100612,,,D*45
$GPGGA,185439.000,4006.3259,N,07504.2354,$PMTK001,314,3*36
$PMTK001,220,3*30
$PMTK001,185,3*3C
$GPGGA,185438.000,4006.3317,N,07504.2427,W,2,11,0.85,9606.0,M,-34.0,M,0000,0000*61
$GPRMC,185438.000,A,4006.3317,N,07504.2427,W,29.21,135.27,100612,,,D*45
$GPGGA,185439.000,4006.3259,N,07504.2354,$PMTK001,314,3*36
$PMTK001,220,3*30
$PMTK001,185,3*3C
$GPGGA,185438.000,4006.3317,N,07504.2427,W,2,11,0.85,9606.0,M,-34.0,M,0000,0000*61
$GPRMC,185438.000,A,4006.3317,N,07504.2427,W,29.21,135.27,100612,,,D*45
$GPGGA,185439.000,4006.3259,N,07504.2354,$PMTK001,314,3*36
$PMTK001,220,3*30
$PMTK001,185,3*3C
$GPGGA,185438.000,4006.3317,N,07504.2427,W,2,11,0.85,9606.0,M,-34.0,M,0000,0000*61
$GPRMC,185438.000,A,4006.3317,N,07504.2427,W,29.21,135.27,100612,,,D*45
$GPGGA,185439.000,4006.3259,N,07504.2354,$PMTK001,314,3*36
$PMTK001,220,3*30
$PMTK001,185,3*3C
$GPGGA,185438.000,4006.3317,N,07504.2427,W,2,11,0.85,9606.0,M,-34.0,M,0000,0000*61
$GPRMC,185438.000,A,4006.3317,N,07504.2427,W,29.21,135.27,100612,,,D*45
$GPGGA,185439.000,4006.3259,N,07504.2354,$PMTK001,314,3*36
$PMTK001,220,3*30
$PMTK001,185,3*3C
$GPGGA,185438.000,4006.3317,N,07504.2427,W,2,11,0.85,9606.0,M,-34.0,M,0000,0000*61
$GPRMC,185438.000,A,4006.3317,N,07504.2427,W,29.21,135.27,100612,,,D*45
$GPGGA,185439.000,4006.3259,N,07504.2354,$PMTK001,314,3*36
$PMTK001,220,3*30
$PMTK001,185,3*3C
$GPGGA,185438.000,4006.3317,N,07504.2427,W,2,11,0.85,9606.0,M,-34.0,M,0000,0000*61
$GPRMC,185438.000,A,4006.3317,N,07504.2427,W,29.21,135.27,100612,,,D*45
$GPGGA,185439.000,4006.3259,N,07504.2354,$PMTK001,314,3*36
$PMTK001,220,3*30
$PMTK001,185,3*3C
$GPGGA,185438.000,4006.3317,N,07504.2427,W,2,11,0.85,9606.0,M,-34.0,M,0000,0000*61
$GPRMC,185438.000,A,4006.3317,N,07504.2427,W,29.21,135.27,100612,,,D*45
$GPGGA,185439.000,4006.3259,N,07504.2354,