$PMTK001,314,3*36
$PMTK001,220,3*30
$PMTK001,185,3*3C
$GPGGA,173837.000,4026.7008,N,07520.5981,W,2,11,0.75,149.3,M,-33.9,M,0000,0000*57
$GPRMC,173837.000,A,4026.7008,N,07520.5981,W,0.19,252.42,100612,,,D*75
$GPGGA,173838.000,4026.7008,N,07520.5981,W,$PMTK001,314,3*36
$PMTK001,220,3*30
$PMTK001,185,3*3C
$GPGGA,173837.000,4026.7008,N,07520.5981,W,2,11,0.75,149.3,M,-33.9,M,0000,0000*57
$GPRMC,173837.000,A,4026.7008,N,07520.5981,W,0.19,252.42,100612,,,D*75
$GPGGA,173838.000,4026.7008,N,07520.5981,W,$PMTK001,314,3*36
$PMTK001,220,3*30
$PMTK001,185,3*3C
$GPGGA,173837.000,4026.7008,N,07520.5981,W,2,11,0.75,149.3,M,-33.9,M,0000,0000*57
$GPRMC,173837.000,A,4026.7008,N,07520.5981,W,0.19,252.42,100612,,,D*75
$GPGGA,173838.000,4026.7008,N,07520.5981,W,$PMTK001,314,3*36
$PMTK001,220,3*30
$PMTK001,185,3*3C
$GPGGA,173837.000,4026.7008,N,07520.5981,W,2,11,0.75,149.3,M,-33.9,M,0000,0000*57
$GPRMC,173837.000,A,4026.7008,N,07520.5981,W,0.19,252.42,100612,,,D*75
$GPGGA,173838.000,4026.7008,N,07520.5981,W,$PMTK001,314,3*36
$PMTK001,220,3*30
$PMTK001,185,3*3C
$GPGGA,173837.000,4026.7008,N,07520.5981,W,2,11,0.75,149.3,M,-33.9,M,0000,0000*57
$GPRMC,173837.000,A,4026.7008,N,07520.5981,W,0.19,252.42,100612,,,D*75
$GPGGA,173838.000,4026.7008,N,07520.5981,W,$PMTK001,314,3*36
$PMTK001,220,3*30
$PMTK001,185,3*3C
$GPGGA,173837.000,4026.7008,N,07520.5981,W,2,11,0.75,149.3,M,-33.9,M,0000,0000*57
$GPRMC,173837.000,A,4026.7008,N,07520.5981,W,0.19,252.42,100612,,,D*75
$GPGGA,173838.000,4026.7008,N,07520.5981,W,$PMTK001,314,3*36
$PMTK001,220,3*30
$PMTK001,185,3*3C
$GPGGA,173837.000,4026.7008,N,07520.5981,W,2,11,0.75,149.3,M,-33.9,M,0000,0000*57
$GPRMC,173837.000,A,4026.7008,N,07520.5981,W,0.19,252.42,100612,,,D*75
$GPGGA,173838.000,4026.7008,N,07520.5981,W,$PMTK001,314,3*36
$PMTK001,220,3*30
$PMTK001,185,3*3C
$GPGGA,173837.000,4026.7008,N,07520.5981,W,2,11,0.75,149.3,M,-33.9,M,0000,0000*57
$GPRMC,173837.000,A,4026.7008,N,07520.5981,W,0.19,252.42,100612,,,D*75
$GPGGA,173838.000,4026.7008,N,07520.5981,W,$PMTK001,314,3*36
$PMTK001,220,3*30
$PMTK001,185,3*3C
$GPGGA,173837.000,4026.7008,N,07520.5981,W,2,11,0.75,149.3,M,-33.9,M,0000,0000*57
$GPRMC,173837.000,A,4026.7008,N,07520.5981,W,0.19,252.42,100612,,,D*75
$GPGGA,173838.000,4026.7008,N,07520.5981,W,$PMTK001,314,3*36
$PMTK001,220,3*30
$PMTK001,185,3*3C
$GPGGA,173837.000,4026.7008,N,07520.5981,W,2,11,0.75,149.3,M,-33.9,M,0000,0000*57
$GPRMC,173837.000,A,4026.7008,N,07520.5981,W,0.19,252.42,100612,,,D*75
$GPGGA,173838.000,4026.7008,N,07520.5981,W,$PMTK001,314,3*36
$PMTK001,220,3*30
$PMTK001,185,3*3C
$GPGGA,173837.000,4026.7008,N,07520.5981,W,2,11,0.75,149.3,M,-33.9,M,0000,0000*57
$GPRMC,173837.000,A,4026.7008,N,07520.5981,W,0.19,252.42,100612,,,D*75
$GPGGA,173838.000,4026.7008,N,07520.5981,W,$PMTK001,314,3*36
$PMTK001,220,3*30
$PMTK001,185,3*3C
$GPGGA,173837.000,4026.7008,N,07520.5981,W,2,11,0.75,149.3,M,-33.9,M,0000,0000*57
$GPRMC,173837.000,A,4026.7008,N,07520.5981,W,0.19,252.42,100612,,,D*75
$GPGGA,173838.000,4026.7008,N,07520.5981,W,$PMTK001,314,3*36
$PMTK001,220,3*30
$PMTK001,185,3*3C
$GPGGA,173837.000,4026.7008,N,07520.5981,W,2,11,0.75,149.3,M,-33.9,M,0000,0000*57
$GPRMC,173837.000,A,4026.7008,N,07520.5981,W,0.19,252.42,100612,,,D*75
$GPGGA,173838.000,4026.7008,N,07520.5981,W,$PMTK001,314,3*36
$PMTK001,220,3*30
$PMTK001,185,3*3C
$GPGGA,173837.000,4026.7008,N,07520.5981,W,2,11,0.75,149.3,M,-33.9,M,0000,0000*57
$GPRMC,173837.000,A,4026.7008,N,07520.5981,W,0.19,252.42,100612,,,D*75
$GPGGA,173838.000,4026.7008,N,07520.5981,W,$PMTK001,314,3*36
$PMTK001,220,3*30
$PMTK001,185,3*3C
$GPGGA,173837.000,4026.7008,N,07520.5981,W,2,11,0.75,149.3,M,-33.9,M,0000,0000*57
$GPRMC,173837.000,A,4026.7008,N,07520.5981,W,0.19,252.42,100612,,,D*75
$GPGGA,173838.000,4026.7008,N,07520.5981,W,$PMTK001,314,3*36
$PMTK001,220,3*30
$PMTK001,185,3*3C
$GPGGA,173837.000,4026.7008,N,07520.5981,W,2,11,0.75,149.3,M,-33.9,M,0000,0000*57
$GPRMC,173837.000,A,4026.7008,N,07520.5981,W,0.19,252.42,100612,,,D*75
$GPGGA,173838.000,4026.7008,N,07520.5981,W,$PMTK001,314,3*36
$PMTK001,220,3*30
$PMTK001,185,3*3C
$GPGGA,173837.000,4026.7008,N,07520.5981,W,2,11,0.75,149.3,M,-33.9,M,0000,0000*57
$GPRMC,173837.000,A,4026.7008,N,07520.5981,W,0.19,252.42,100612,,,D*75
$GPGGA,173838.000,4026.7008,N,07520.5981,W,$PMTK001,314,3*36
$PMTK001,220,3*30
$PMTK001,185,3*3C
$GPGGA,173837.000,4026.7008,N,07520.5981,W,2,11,0.75,149.3,M,-33.9,M,0000,0000*57
$GPRMC,173837.000,A,4026.7008,N,07520.5981,W,0.19,252.42,100612,,,D*75
$GPGGA,173838.000,4026.7008,N,07520.5981,W,$PMTK001,314,3*36
$PMTK001,220,3*30
$PMTK001,185,3*3C
$GPGGA,173837.000,4026.7008,N,07520.5981,W,2,11,0.75,149.3,M,-33.9,M,0000,0000*57
$GPRMC,173837.000,A,4026.7008,N,07520.5981,W,0.19,252.42,100612,,,D*75
$GPGGA,173838.000,4026.7008,N,07520.5981,W,$PMTK001,314,3*36
$PMTK001,220,3*30
$PMTK001,185,3*3C
$GPGGA,173837.000,4026.7008,N,07520.5981,W,2,11,0.75,149.3,M,-33.9,M,0000,0000*57
$GPRMC,173837.000,A,4026.7008,N,07520.5981,W,0.19,252.42,100612,,,D*75
$GPGGA,173838.000,4026.7008,N,07520.5981,W,$PMTK001,314,3*36
$PMTK001,220,3*30
$PMTK001,185,3*3C
$GPGGA,173837.000,4026.7008,N,07520.5981,W,2,11,0.75,149.3,M,-33.9,M,0000,0000*57
$GPRMC,173837.000,A,4026.7008,N,07520.5981,W,0.19,252.42,100612,,,D*75
$GPGGA,173838.000,4026.7008,N,07520.5981,W,$PMTK001,314,3*36
$PMTK001,220,3*30
$PMTK001,185,3*3C
$GPGGA,173837.000,4026.7008,N,07520.5981,W,2,11,0.75,149.3,M,-33.9,M,0000,0000*57
$GPRMC,173837.000,A,4026.7008,N,07520.5981,W,0.19,252.42,100612,,,D*75
$GPGGA,173838.000,4026.7008,N,07520.5981,W,$PMTK001,314,3*36
$PMTK001,220,3*30
$PMTK001,185,3*3C
$GPGGA,173837.000,4026.7008,N,07520.5981,W,2,11,0.75,149.3,M,-33.9,M,0000,0000*57
$GPRMC,173837.000,A,4026.7008,N,07520.5981,W,0.19,252.42,100612,,,D*75
$GPGGA,173838.000,4026.7008,N,07520.5981,W,$PMTK001,314,3*36
$PMTK001,220,3*30
$PMTK001,185,3*3C
$GPGGA,173837.000,4026.7008,N,07520.5981,W,2,11,0.75,149.3,M,-33.9,M,0000,0000*57
$GPRMC,173837.000,A,4026.7008,N,07520.5981,W,0.19,252.42,100612,,,D*75
$GPGGA,173838.000,4026.7008,N,07520.5981,W,$PMTK001,314,3*36
$PMTK001,220,3*30
$PMTK001,185,3*3C
$GPGGA,173837.000,4026.7008,N,07520.5981,W,2,11,0.75,149.3,M,-33.9,M,0000,0000*57
$GPRMC,173837.000,A,4026.7008,N,07520.5981,W,0.19,252.42,100612,,,D*75
$GPGGA,173838.000,4026.7008,N,07520.5981,W,$PMTK001,314,3*36
$PMTK001,220,3*30
$PMTK001,185,3*3C
$GPGGA,173837.000,4026.7008,N,07520.5981,W,2,11,0.75,149.3,M,-33.9,M,0000,0000*57
$GPRMC,173837.000,A,4026.7008,N,07520.5981,W,0.19,252.42,100612,,,D*75
$GPGGA,173838.000,4026.7008,N,07520.5981,W,$PMTK001,314,3*36
$PMTK001,220,3*30
$PMTK001,185,3*3C
$GPGGA,173837.000,4026.7008,N,07520.5981,W,2,11,0.75,149.3,M,-33.9,M,0000,0000*57
$GPRMC,173837.000,A,4026.7008,N,07520.5981,W,0.19,252.42,100612,,,D*75
$GPGGA,173838.000,4026.7008,N,07520.5981,W,$PMTK001,314,3*36
$PMTK001,220,3*30
$PMTK001,185,3*3C
$GPGGA,173837.000,4026.7008,N,07520.5981,W,2,11,0.75,149.3,M,-33.9,M,0000,0000*57
$GPRMC,173837.000,A,4026.7008,N,07520.5981,W,0.19,252.42,100612,,,D*75
$GPGGA,173838.000,4026.7008,N,07520.5981,W,$PMTK001,314,3*36
$PMTK001,220,3*30
$PMTK001,185,3*3C
$GPGGA,173837.000,4026.7008,N,07520.5981,W,2,11,0.75,149.3,M,-33.9,M,0000,0000*57
$GPRMC,173837.000,A,4026.7008,N,07520.5981,W,0.19,252.42,100612,,,D*75
$GPGGA,173838.000,4026.7008,N,07520.5981,W,$PMTK001,314,3*36
$PMTK001,220,3*30
$PMTK001,185,3*3C
$GPGGA,173837.000,4026.7008,N,07520.5981,W,2,11,0.75,149.3,M,-33.9,M,0000,0000*57
$GPRMC,173837.000,A,4026.7008,N,07520.5981,W,0.19,252.42,100612,,,D*75
$GPGGA,173838.000,4026.7008,N,07520.5981,W,$PMTK001,314,3*36
$PMTK001,220,3*30
$PMTK001,185,3*3C
$GPGGA,173837.000,4026.7008,N,07520.5981,W,2,11,0.75,149.3,M,-33.9,M,0000,0000*57
$GPRMC,173837.000,A,4026.7008,N,07520.5981,W,0.19,252.42,100612,,,D*75
$GPGGA,173838.000,4026.7008,N,07520.5981,W,$PMTK001,314,3*36
$PMTK001,220,3*30
$PMTK001,185,3*3C
$GPGGA,173837.000,4026.7008,N,07520.5981,W,2,11,0.75,149.3,M,-33.9,M,0000,0000*57
$GPRMC,173837.000,A,4026.7008,N,07520.5981,W,0.19,252.42,100612,,,D*75
$GPGGA,173838.000,4026.7008,N,07520.5981,W,$PMTK001,314,3*36
$PMTK001,220,3*30
$PMTK001,185,3*3C
$GPGGA,173837.000,4026.7008,N,07520.5981,W,2,11,0.75,149.3,M,-33.9,M,0000,0000*57
$GPRMC,173837.000,A,4026.7008,N,07520.5981,W,0.19,252.42,100612,,,D*75
$GPGGA,173838.000,4026.7008,N,07520.5981,W,$PMTK001,314,3*36
$PMTK001,220,3*30
$PMTK001,185,3*3C
$GPGGA,173837.000,4026.7008,N,07520.5981,W,2,11,0.75,149.3,M,-33.9,M,0000,0000*57
$GPRMC,173837.000,A,4026.7008,N,07520.5981,W,0.19,252.42,100612,,,D*75
$GPGGA,173838.000,4026.7008,N,07520.5981,W,$PMTK001,314,3*36
$PMTK001,220,3*30
$PMTK001,185,3*3C
$GPGGA,173837.000,4026.7008,N,07520.5981,W,2,11,0.75,149.3,M,-33.9,M,0000,0000*57
$GPRMC,173837.000,A,4026.7008,N,07520.5981,W,0.19,252.42,100612,,,D*75
$GPGGA,173838.000,4026.7008,N,07520.5981,W,$PMTK001,314,3*36
$PMTK001,220,3*30
$PMTK001,185,3*3C
$GPGGA,173837.000,4026.7008,N,07520.5981,W,2,11,0.75,149.3,M,-33.9,M,0000,0000*57
$GPRMC,173837.000,A,4026.7008,N,07520.5981,W,0.19,252.42,100612,,,D*75
$GPGGA,173838.000,4026.7008,N,07520.5981,W,$PMTK001,314,3*36
$PMTK001,220,3*30
$PMTK001,185,3*3C
$GPGGA,173837.000,4026.7008,N,07520.5981,W,2,11,0.75,149.3,M,-33.9,M,0000,0000*57
$GPRMC,173837.000,A,4026.7008,N,07520.5981,W,0.19,252.42,100612,,,D*75
$GPGGA,173838.000,4026.7008,N,07520.5981,W,$PMTK001,314,3*36
$PMTK001,220,3*30
$PMTK001,185,3*3C
$GPGGA,173837.000,4026.7008,N,07520.5981,W,2,11,0.75,149.3,M,-33.9,M,0000,0000*57
$GPRMC,173837.000,A,4026.7008,N,07520.5981,W,0.19,252.42,100612,,,D*75
$GPGGA,173838.000,4026.7008,N,07520.5981,W,$PMTK001,314,3*36
$PMTK001,220,3*30
$PMTK001,185,3*3C
$GPGGA,173837.000,4026.7008,N,07520.5981,W,2,11,0.75,149.3,M,-33.9,M,0000,0000*57
$GPRMC,173837.000,A,4026.7008,N,07520.5981,W,0.19,252.42,100612,,,D*75
$GPGGA,173838.000,4026.7008,N,07520.5981,W,$PMTK001,314,3*36
$PMTK001,220,3*30
$PMTK001,185,3*3C
$GPGGA,173837.000,4026.7008,N,07520.5981,W,2,11,0.75,149.3,M,-33.9,M,0000,0000*57
$GPRMC,173837.000,A,4026.7008,N,07520.5981,W,0.19,252.42,100612,,,D*75
$GPGGA,173838.000,4026.7008,N,07520.5981,W,$PMTK001,314,3*36
$PMTK001,220,3*30
$PMTK001,185,3*3C
$GPGGA,173837.000,4026.7008,N,07520.5981,W,2,11,0.75,149.3,M,-33.9,M,0000,0000*57
$GPRMC,173837.000,A,4026.7008,N,07520.5981,W,0.19,252.42,100612,,,D*75
$GPGGA,173838.000,4026.7008,N,07520.5981,W,$PMTK001,314,3*36
$PMTK001,220,3*30
$PMTK001,185,3*3C
$GPGGA,173837.000,4026.7008,N,07520.5981,W,2,11,0.75,149.3,M,-33.9,M,0000,0000*57
$GPRMC,173837.000,A,4026.7008,N,07520.5981,W,0.19,252.42,100612,,,D*75
$GPGGA,173838.000,4026.7008,N,07520.5981,W,$PMTK001,314,3*36
$PMTK001,220,3*30
$PMTK001,185,3*3C
$GPGGA,173837.000,4026.7008,N,07520.5981,W,2,11,0.75,149.3,M,-33.9,M,0000,0000*57
$GPRMC,173837.000,A,4026.7008,N,07520.5981,W,0.19,252.42,100612,,,D*75
$GPGGA,173838.000,4026.7008,N,07520.5981,W,$PMTK001,314,3*36
$PMTK001,220,3*30
$PMTK001,185,3*3C
$GPGGA,173837.000,4026.7008,N,07520.5981,W,2,11,0.75,149.3,M,-33.9,M,0000,0000*57
$GPRMC,173837.000,A,4026.7008,N,07520.5981,W,0.19,252.42,100612,,,D*75
$GPGGA,173838.000,4026.7008,N,07520.5981,W,$PMTK001,314,3*36
$PMTK001,220,3*30
$PMTK001,185,3*3C
$GPGGA,173837.000,4026.7008,N,07520.5981,W,2,11,0.75,149.3,M,-33.9,M,0000,0000*57
$GPRMC,173837.000,A,4026.7008,N,07520.5981,W,0.19,252.42,100612,,,D*75
$GPGGA,173838.000,4026.7008,N,07520.5981,W,$PMTK001,314,3*36
$PMTK001,220,3*30
$PMTK001,185,3*3C
$GPGGA,173837.000,4026.7008,N,07520.5981,W,2,11,0.75,149.3,M,-33.9,M,0000,0000*57
$GPRMC,173837.000,A,4026.7008,N,07520.5981,W,0.19,252.42,100612,,,D*75
$GPGGA,173838.000,4026.7008,N,07520.5981,W,$PMTK001,314,3*36
$PMTK001,220,3*30
$PMTK001,185,3*3C
$GPGGA,173837.000,4026.7008,N,07520.5981,W,2,11,0.75,149.3,M,-33.9,M,0000,0000*57
$GPRMC,173837.000,A,4026.7008,N,07520.5981,W,0.19,252.42,100612,,,D*75
$GPGGA,173838.000,4026.7008,N,07520.5981,W,$PMTK001,314,3*36
$PMTK001,220,3*30
$PMTK001,185,3*3C
$GPGGA,173837.000,4026.7008,N,07520.5981,W,2,11,0.75,149.3,M,-33.9,M,0000,0000*57
$GPRMC,173837.000,A,4026.7008,N,07520.5981,W,0.19,252.42,100612,,,D*75
$GPGGA,173838.000,4026.7008,N,07520.5981,W,$PMTK001,314,3*36
$PMTK001,220,3*30
$PMTK001,185,3*3C
$GPGGA,173837.000,4026.7008,N,07520.5981,W,2,11,0.75,149.3,M,-33.9,M,0000,0000*57
$GPRMC,173837.000,A,4026.7008,N,07520.5981,W,0.19,252.42,100612,,,D*75
$GPGGA,173838.000,4026.7008,N,07520.5981,W,$PMTK001,314,3*36
$PMTK001,220,3*30
$PMTK001,185,3*3C
$GPGGA,173837.000,4026.7008,N,07520.5981,W,2,11,0.75,149.3,M,-33.9,M,0000,0000*57
$GPRMC,173837.000,A,4026.7008,N,07520.5981,W,0.19,252.42,100612,,,D*75
$GPGGA,173838.000,4026.7008,N,07520.5981,W,$PMTK001,314,3*36
$PMTK001,220,3*30
$PMTK001,185,3*3C
$GPGGA,173837.000,4026.7008,N,07520.5981,W,2,11,0.75,149.3,M,-33.9,M,0000,0000*57
$GPRMC,173837.000,A,4026.7008,N,07520.5981,W,0.19,252.42,100612,,,D*75
$GPGGA,173838.000,4026.7008,N,07520.5981,W,$PMTK001,314,3*36
$PMTK001,220,3*30
$PMTK001,185,3*3C
$GPGGA,173837.000,4026.7008,N,07520.5981,W,2,11,0.75,149.3,M,-33.9,M,0000,0000*57
$GPRMC,173837.000,A,4026.7008,N,07520.5981,W,0.19,252.42,100612,,,D*75
$GPGGA,173838.000,4026.7008,N,07520.5981,W,$PMTK001,314,3*36
$PMTK001,220,3*30
$PMTK001,185,3*3C
$GPGGA,173837.000,4026.7008,N,07520.5981,W,2,11,0.75,149.3,M,-33.9,M,0000,0000*57
$GPRMC,173837.000,A,4026.7008,N,07520.5981,W,0.19,252.42,100612,,,D*75
$GPGGA,173838.000,4026.7008,N,07520.5981,W,$PMTK001,314,3*36
$PMTK001,220,3*30
$PMTK001,185,3*3C
$GPGGA,173837.000,4026.7008,N,07520.5981,W,2,11,0.75,149.3,M,-33.9,M,0000,0000*57
$GPRMC,173837.000,A,4026.7008,N,07520.5981,W,0.19,252.42,100612,,,D*75
$GPGGA,173838.000,4026.7008,N,07520.5981,W,$PMTK001,314,3*36
$PMTK001,220,3*30
$PMTK001,185,3*3C
$GPGGA,173837.000,4026.7008,N,07520.5981,W,2,11,0.75,149.3,M,-33.9,M,0000,0000*57
$GPRMC,173837.000,A,4026.7008,N,07520.5981,W,0.19,252.42,100612,,,D*75
$GPGGA,173838.000,4026.7008,N,07520.5981,W,$PMTK001,314,3*36
$PMTK001,220,3*30
$PMTK001,185,3*3C
$GPGGA,173837.000,4026.7008,N,07520.5981,W,2,11,0.75,149.3,M,-33.9,M,0000,0000*57
$GPRMC,173837.000,A,4026.7008,N,07520.5981,W,0.19,252.42,100612,,,D*75
$GPGGA,173838.000,4026.7008,N,07520.5981,W,$PMTK001,314,3*36
$PMTK001,220,3*30
$PMTK001,185,3*3C
$GPGGA,173837.000,4026.7008,N,07520.5981,W,2,11,0.75,149.3,M,-33.9,M,0000,0000*57
$GPRMC,173837.000,A,4026.7008,N,07520.5981,W,0.19,252.42,100612,,,D*75
$GPGGA,173838.000,4026.7008,N,07520.5981,W,$PMTK001,314,3*36
$PMTK001,220,3*30
$PMTK001,185,3*3C
$GPGGA,173837.000,4026.7008,N,07520.5981,W,2,11,0.75,149.3,M,-33.9,M,0000,0000*57
$GPRMC,173837.000,A,4026.7008,N,07520.5981,W,0.19,252.42,100612,,,D*75
$GPGGA,173838.000,4026.7008,N,07520.5981,W,