$GPGGA,160636.000,4026.7496,N,07520.5897,W,2,10,0.78,154.4,M,-33.9,M,0000,0000*58
$GPRMC,160636.000,A,4026.7496,N,07520.5897,W,0.01,96.86,100612,,,D*46
$PMTK001,314,3*36
$PMTK001,220,3*30
$PMTK001,185,3*3C
$GPGGA,160637.000,4026.7496,N,07520.5897,W,2$GPGGA,160636.000,4026.7496,N,07520.5897,W,2,10,0.78,154.4,M,-33.9,M,0000,0000*58
$GPRMC,160636.000,A,4026.7496,N,07520.5897,W,0.01,96.86,100612,,,D*46
$PMTK001,314,3*36
$PMTK001,220,3*30
$PMTK001,185,3*3C
$GPGGA,160637.000,4026.7496,N,07520.5897,W,2$GPGGA,160636.000,4026.7496,N,07520.5897,W,2,10,0.78,154.4,M,-33.9,M,0000,0000*58
$GPRMC,160636.000,A,4026.7496,N,07520.5897,W,0.01,96.86,100612,,,D*46
$PMTK001,314,3*36
$PMTK001,220,3*30
$PMTK001,185,3*3C
$GPGGA,160637.000,4026.7496,N,07520.5897,W,2$GPGGA,160636.000,4026.7496,N,07520.5897,W,2,10,0.78,154.4,M,-33.9,M,0000,0000*58
$GPRMC,160636.000,A,4026.7496,N,07520.5897,W,0.01,96.86,100612,,,D*46
$PMTK001,314,3*36
$PMTK001,220,3*30
$PMTK001,185,3*3C
$GPGGA,160637.000,4026.7496,N,07520.5897,W,2$GPGGA,160636.000,4026.7496,N,07520.5897,W,2,10,0.78,154.4,M,-33.9,M,0000,0000*58
$GPRMC,160636.000,A,4026.7496,N,07520.5897,W,0.01,96.86,100612,,,D*46
$PMTK001,314,3*36
$PMTK001,220,3*30
$PMTK001,185,3*3C
$GPGGA,160637.000,4026.7496,N,07520.5897,W,2$GPGGA,160636.000,4026.7496,N,07520.5897,W,2,10,0.78,154.4,M,-33.9,M,0000,0000*58
$GPRMC,160636.000,A,4026.7496,N,07520.5897,W,0.01,96.86,100612,,,D*46
$PMTK001,314,3*36
$PMTK001,220,3*30
$PMTK001,185,3*3C
$GPGGA,160637.000,4026.7496,N,07520.5897,W,2$GPGGA,160636.000,4026.7496,N,07520.5897,W,2,10,0.78,154.4,M,-33.9,M,0000,0000*58
$GPRMC,160636.000,A,4026.7496,N,07520.5897,W,0.01,96.86,100612,,,D*46
$PMTK001,314,3*36
$PMTK001,220,3*30
$PMTK001,185,3*3C
$GPGGA,160637.000,4026.7496,N,07520.5897,W,2$GPGGA,160636.000,4026.7496,N,07520.5897,W,2,10,0.78,154.4,M,-33.9,M,0000,0000*58
$GPRMC,160636.000,A,4026.7496,N,07520.5897,W,0.01,96.86,100612,,,D*46
$PMTK001,314,3*36
$PMTK001,220,3*30
$PMTK001,185,3*3C
$GPGGA,160637.000,4026.7496,N,07520.5897,W,2$GPGGA,160636.000,4026.7496,N,07520.5897,W,2,10,0.78,154.4,M,-33.9,M,0000,0000*58
$GPRMC,160636.000,A,4026.7496,N,07520.5897,W,0.01,96.86,100612,,,D*46
$PMTK001,314,3*36
$PMTK001,220,3*30
$PMTK001,185,3*3C
$GPGGA,160637.000,4026.7496,N,07520.5897,W,2$GPGGA,160636.000,4026.7496,N,07520.5897,W,2,10,0.78,154.4,M,-33.9,M,0000,0000*58
$GPRMC,160636.000,A,4026.7496,N,07520.5897,W,0.01,96.86,100612,,,D*46
$PMTK001,314,3*36
$PMTK001,220,3*30
$PMTK001,185,3*3C
$GPGGA,160637.000,4026.7496,N,07520.5897,W,2$GPGGA,160636.000,4026.7496,N,07520.5897,W,2,10,0.78,154.4,M,-33.9,M,0000,0000*58
$GPRMC,160636.000,A,4026.7496,N,07520.5897,W,0.01,96.86,100612,,,D*46
$PMTK001,314,3*36
$PMTK001,220,3*30
$PMTK001,185,3*3C
$GPGGA,160637.000,4026.7496,N,07520.5897,W,2$GPGGA,160636.000,4026.7496,N,07520.5897,W,2,10,0.78,154.4,M,-33.9,M,0000,0000*58
$GPRMC,160636.000,A,4026.7496,N,07520.5897,W,0.01,96.86,100612,,,D*46
$PMTK001,314,3*36
$PMTK001,220,3*30
$PMTK001,185,3*3C
$GPGGA,160637.000,4026.7496,N,07520.5897,W,2$GPGGA,160636.000,4026.7496,N,07520.5897,W,2,10,0.78,154.4,M,-33.9,M,0000,0000*58
$GPRMC,160636.000,A,4026.7496,N,07520.5897,W,0.01,96.86,100612,,,D*46
$PMTK001,314,3*36
$PMTK001,220,3*30
$PMTK001,185,3*3C
$GPGGA,160637.000,4026.7496,N,07520.5897,W,2$GPGGA,160636.000,4026.7496,N,07520.5897,W,2,10,0.78,154.4,M,-33.9,M,0000,0000*58
$GPRMC,160636.000,A,4026.7496,N,07520.5897,W,0.01,96.86,100612,,,D*46
$PMTK001,314,3*36
$PMTK001,220,3*30
$PMTK001,185,3*3C
$GPGGA,160637.000,4026.7496,N,07520.5897,W,2$GPGGA,160636.000,4026.7496,N,07520.5897,W,2,10,0.78,154.4,M,-33.9,M,0000,0000*58
$GPRMC,160636.000,A,4026.7496,N,07520.5897,W,0.01,96.86,100612,,,D*46
$PMTK001,314,3*36
$PMTK001,220,3*30
$PMTK001,185,3*3C
$GPGGA,160637.000,4026.7496,N,07520.5897,W,2$GPGGA,160636.000,4026.7496,N,07520.5897,W,2,10,0.78,154.4,M,-33.9,M,0000,0000*58
$GPRMC,160636.000,A,4026.7496,N,07520.5897,W,0.01,96.86,100612,,,D*46
$PMTK001,314,3*36
$PMTK001,220,3*30
$PMTK001,185,3*3C
$GPGGA,160637.000,4026.7496,N,07520.5897,W,2$GPGGA,160636.000,4026.7496,N,07520.5897,W,2,10,0.78,154.4,M,-33.9,M,0000,0000*58
$GPRMC,160636.000,A,4026.7496,N,07520.5897,W,0.01,96.86,100612,,,D*46
$PMTK001,314,3*36
$PMTK001,220,3*30
$PMTK001,185,3*3C
$GPGGA,160637.000,4026.7496,N,07520.5897,W,2$GPGGA,160636.000,4026.7496,N,07520.5897,W,2,10,0.78,154.4,M,-33.9,M,0000,0000*58
$GPRMC,160636.000,A,4026.7496,N,07520.5897,W,0.01,96.86,100612,,,D*46
$PMTK001,314,3*36
$PMTK001,220,3*30
$PMTK001,185,3*3C
$GPGGA,160637.000,4026.7496,N,07520.5897,W,2$GPGGA,160636.000,4026.7496,N,07520.5897,W,2,10,0.78,154.4,M,-33.9,M,0000,0000*58
$GPRMC,160636.000,A,4026.7496,N,07520.5897,W,0.01,96.86,100612,,,D*46
$PMTK001,314,3*36
$PMTK001,220,3*30
$PMTK001,185,3*3C
$GPGGA,160637.000,4026.7496,N,07520.5897,W,2$GPGGA,160636.000,4026.7496,N,07520.5897,W,2,10,0.78,154.4,M,-33.9,M,0000,0000*58
$GPRMC,160636.000,A,4026.7496,N,07520.5897,W,0.01,96.86,100612,,,D*46
$PMTK001,314,3*36
$PMTK001,220,3*30
$PMTK001,185,3*3C
$GPGGA,160637.000,4026.7496,N,07520.5897,W,2$GPGGA,160636.000,4026.7496,N,07520.5897,W,2,10,0.78,154.4,M,-33.9,M,0000,0000*58
$GPRMC,160636.000,A,4026.7496,N,07520.5897,W,0.01,96.86,100612,,,D*46
$PMTK001,314,3*36
$PMTK001,220,3*30
$PMTK001,185,3*3C
$GPGGA,160637.000,4026.7496,N,07520.5897,W,2$GPGGA,160636.000,4026.7496,N,07520.5897,W,2,10,0.78,154.4,M,-33.9,M,0000,0000*58
$GPRMC,160636.000,A,4026.7496,N,07520.5897,W,0.01,96.86,100612,,,D*46
$PMTK001,314,3*36
$PMTK001,220,3*30
$PMTK001,185,3*3C
$GPGGA,160637.000,4026.7496,N,07520.5897,W,2$GPGGA,160636.000,4026.7496,N,07520.5897,W,2,10,0.78,154.4,M,-33.9,M,0000,0000*58
$GPRMC,160636.000,A,4026.7496,N,07520.5897,W,0.01,96.86,100612,,,D*46
$PMTK001,314,3*36
$PMTK001,220,3*30
$PMTK001,185,3*3C
$GPGGA,160637.000,4026.7496,N,07520.5897,W,2$GPGGA,160636.000,4026.7496,N,07520.5897,W,2,10,0.78,154.4,M,-33.9,M,0000,0000*58
$GPRMC,160636.000,A,4026.7496,N,07520.5897,W,0.01,96.86,100612,,,D*46
$PMTK001,314,3*36
$PMTK001,220,3*30
$PMTK001,185,3*3C
$GPGGA,160637.000,4026.7496,N,07520.5897,W,2$GPGGA,160636.000,4026.7496,N,07520.5897,W,2,10,0.78,154.4,M,-33.9,M,0000,0000*58
$GPRMC,160636.000,A,4026.7496,N,07520.5897,W,0.01,96.86,100612,,,D*46
$PMTK001,314,3*36
$PMTK001,220,3*30
$PMTK001,185,3*3C
$GPGGA,160637.000,4026.7496,N,07520.5897,W,2$GPGGA,160636.000,4026.7496,N,07520.5897,W,2,10,0.78,154.4,M,-33.9,M,0000,0000*58
$GPRMC,160636.000,A,4026.7496,N,07520.5897,W,0.01,96.86,100612,,,D*46
$PMTK001,314,3*36
$PMTK001,220,3*30
$PMTK001,185,3*3C
$GPGGA,160637.000,4026.7496,N,07520.5897,W,2$GPGGA,160636.000,4026.7496,N,07520.5897,W,2,10,0.78,154.4,M,-33.9,M,0000,0000*58
$GPRMC,160636.000,A,4026.7496,N,07520.5897,W,0.01,96.86,100612,,,D*46
$PMTK001,314,3*36
$PMTK001,220,3*30
$PMTK001,185,3*3C
$GPGGA,160637.000,4026.7496,N,07520.5897,W,2$GPGGA,160636.000,4026.7496,N,07520.5897,W,2,10,0.78,154.4,M,-33.9,M,0000,0000*58
$GPRMC,160636.000,A,4026.7496,N,07520.5897,W,0.01,96.86,100612,,,D*46
$PMTK001,314,3*36
$PMTK001,220,3*30
$PMTK001,185,3*3C
$GPGGA,160637.000,4026.7496,N,07520.5897,W,2$GPGGA,160636.000,4026.7496,N,07520.5897,W,2,10,0.78,154.4,M,-33.9,M,0000,0000*58
$GPRMC,160636.000,A,4026.7496,N,07520.5897,W,0.01,96.86,100612,,,D*46
$PMTK001,314,3*36
$PMTK001,220,3*30
$PMTK001,185,3*3C
$GPGGA,160637.000,4026.7496,N,07520.5897,W,2$GPGGA,160636.000,4026.7496,N,07520.5897,W,2,10,0.78,154.4,M,-33.9,M,0000,0000*58
$GPRMC,160636.000,A,4026.7496,N,07520.5897,W,0.01,96.86,100612,,,D*46
$PMTK001,314,3*36
$PMTK001,220,3*30
$PMTK001,185,3*3C
$GPGGA,160637.000,4026.7496,N,07520.5897,W,2$GPGGA,160636.000,4026.7496,N,07520.5897,W,2,10,0.78,154.4,M,-33.9,M,0000,0000*58
$GPRMC,160636.000,A,4026.7496,N,07520.5897,W,0.01,96.86,100612,,,D*46
$PMTK001,314,3*36
$PMTK001,220,3*30
$PMTK001,185,3*3C
$GPGGA,160637.000,4026.7496,N,07520.5897,W,2$GPGGA,160636.000,4026.7496,N,07520.5897,W,2,10,0.78,154.4,M,-33.9,M,0000,0000*58
$GPRMC,160636.000,A,4026.7496,N,07520.5897,W,0.01,96.86,100612,,,D*46
$PMTK001,314,3*36
$PMTK001,220,3*30
$PMTK001,185,3*3C
$GPGGA,160637.000,4026.7496,N,07520.5897,W,2$GPGGA,160636.000,4026.7496,N,07520.5897,W,2,10,0.78,154.4,M,-33.9,M,0000,0000*58
$GPRMC,160636.000,A,4026.7496,N,07520.5897,W,0.01,96.86,100612,,,D*46
$PMTK001,314,3*36
$PMTK001,220,3*30
$PMTK001,185,3*3C
$GPGGA,160637.000,4026.7496,N,07520.5897,W,2$GPGGA,160636.000,4026.7496,N,07520.5897,W,2,10,0.78,154.4,M,-33.9,M,0000,0000*58
$GPRMC,160636.000,A,4026.7496,N,07520.5897,W,0.01,96.86,100612,,,D*46
$PMTK001,314,3*36
$PMTK001,220,3*30
$PMTK001,185,3*3C
$GPGGA,160637.000,4026.7496,N,07520.5897,W,2$GPGGA,160636.000,4026.7496,N,07520.5897,W,2,10,0.78,154.4,M,-33.9,M,0000,0000*58
$GPRMC,160636.000,A,4026.7496,N,07520.5897,W,0.01,96.86,100612,,,D*46
$PMTK001,314,3*36
$PMTK001,220,3*30
$PMTK001,185,3*3C
$GPGGA,160637.000,4026.7496,N,07520.5897,W,2$GPGGA,160636.000,4026.7496,N,07520.5897,W,2,10,0.78,154.4,M,-33.9,M,0000,0000*58
$GPRMC,160636.000,A,4026.7496,N,07520.5897,W,0.01,96.86,100612,,,D*46
$PMTK001,314,3*36
$PMTK001,220,3*30
$PMTK001,185,3*3C
$GPGGA,160637.000,4026.7496,N,07520.5897,W,2$GPGGA,160636.000,4026.7496,N,07520.5897,W,2,10,0.78,154.4,M,-33.9,M,0000,0000*58
$GPRMC,160636.000,A,4026.7496,N,07520.5897,W,0.01,96.86,100612,,,D*46
$PMTK001,314,3*36
$PMTK001,220,3*30
$PMTK001,185,3*3C
$GPGGA,160637.000,4026.7496,N,07520.5897,W,2$GPGGA,160636.000,4026.7496,N,07520.5897,W,2,10,0.78,154.4,M,-33.9,M,0000,0000*58
$GPRMC,160636.000,A,4026.7496,N,07520.5897,W,0.01,96.86,100612,,,D*46
$PMTK001,314,3*36
$PMTK001,220,3*30
$PMTK001,185,3*3C
$GPGGA,160637.000,4026.7496,N,07520.5897,W,2$GPGGA,160636.000,4026.7496,N,07520.5897,W,2,10,0.78,154.4,M,-33.9,M,0000,0000*58
$GPRMC,160636.000,A,4026.7496,N,07520.5897,W,0.01,96.86,100612,,,D*46
$PMTK001,314,3*36
$PMTK001,220,3*30
$PMTK001,185,3*3C
$GPGGA,160637.000,4026.7496,N,07520.5897,W,2$GPGGA,160636.000,4026.7496,N,07520.5897,W,2,10,0.78,154.4,M,-33.9,M,0000,0000*58
$GPRMC,160636.000,A,4026.7496,N,07520.5897,W,0.01,96.86,100612,,,D*46
$PMTK001,314,3*36
$PMTK001,220,3*30
$PMTK001,185,3*3C
$GPGGA,160637.000,4026.7496,N,07520.5897,W,2$GPGGA,160636.000,4026.7496,N,07520.5897,W,2,10,0.78,154.4,M,-33.9,M,0000,0000*58
$GPRMC,160636.000,A,4026.7496,N,07520.5897,W,0.01,96.86,100612,,,D*46
$PMTK001,314,3*36
$PMTK001,220,3*30
$PMTK001,185,3*3C
$GPGGA,160637.000,4026.7496,N,07520.5897,W,2$GPGGA,160636.000,4026.7496,N,07520.5897,W,2,10,0.78,154.4,M,-33.9,M,0000,0000*58
$GPRMC,160636.000,A,4026.7496,N,07520.5897,W,0.01,96.86,100612,,,D*46
$PMTK001,314,3*36
$PMTK001,220,3*30
$PMTK001,185,3*3C
$GPGGA,160637.000,4026.7496,N,07520.5897,W,2$GPGGA,160636.000,4026.7496,N,07520.5897,W,2,10,0.78,154.4,M,-33.9,M,0000,0000*58
$GPRMC,160636.000,A,4026.7496,N,07520.5897,W,0.01,96.86,100612,,,D*46
$PMTK001,314,3*36
$PMTK001,220,3*30
$PMTK001,185,3*3C
$GPGGA,160637.000,4026.7496,N,07520.5897,W,2$GPGGA,160636.000,4026.7496,N,07520.5897,W,2,10,0.78,154.4,M,-33.9,M,0000,0000*58
$GPRMC,160636.000,A,4026.7496,N,07520.5897,W,0.01,96.86,100612,,,D*46
$PMTK001,314,3*36
$PMTK001,220,3*30
$PMTK001,185,3*3C
$GPGGA,160637.000,4026.7496,N,07520.5897,W,2$GPGGA,160636.000,4026.7496,N,07520.5897,W,2,10,0.78,154.4,M,-33.9,M,0000,0000*58
$GPRMC,160636.000,A,4026.7496,N,07520.5897,W,0.01,96.86,100612,,,D*46
$PMTK001,314,3*36
$PMTK001,220,3*30
$PMTK001,185,3*3C
$GPGGA,160637.000,4026.7496,N,07520.5897,W,2$GPGGA,160636.000,4026.7496,N,07520.5897,W,2,10,0.78,154.4,M,-33.9,M,0000,0000*58
$GPRMC,160636.000,A,4026.7496,N,07520.5897,W,0.01,96.86,100612,,,D*46
$PMTK001,314,3*36
$PMTK001,220,3*30
$PMTK001,185,3*3C
$GPGGA,160637.000,4026.7496,N,07520.5897,W,2$GPGGA,160636.000,4026.7496,N,07520.5897,W,2,10,0.78,154.4,M,-33.9,M,0000,0000*58
$GPRMC,160636.000,A,4026.7496,N,07520.5897,W,0.01,96.86,100612,,,D*46
$PMTK001,314,3*36
$PMTK001,220,3*30
$PMTK001,185,3*3C
$GPGGA,160637.000,4026.7496,N,07520.5897,W,2$GPGGA,160636.000,4026.7496,N,07520.5897,W,2,10,0.78,154.4,M,-33.9,M,0000,0000*58
$GPRMC,160636.000,A,4026.7496,N,07520.5897,W,0.01,96.86,100612,,,D*46
$PMTK001,314,3*36
$PMTK001,220,3*30
$PMTK001,185,3*3C
$GPGGA,160637.000,4026.7496,N,07520.5897,W,2$GPGGA,160636.000,4026.7496,N,07520.5897,W,2,10,0.78,154.4,M,-33.9,M,0000,0000*58
$GPRMC,160636.000,A,4026.7496,N,07520.5897,W,0.01,96.86,100612,,,D*46
$PMTK001,314,3*36
$PMTK001,220,3*30
$PMTK001,185,3*3C
$GPGGA,160637.000,4026.7496,N,07520.5897,W,2$GPGGA,160636.000,4026.7496,N,07520.5897,W,2,10,0.78,154.4,M,-33.9,M,0000,0000*58
$GPRMC,160636.000,A,4026.7496,N,07520.5897,W,0.01,96.86,100612,,,D*46
$PMTK001,314,3*36
$PMTK001,220,3*30
$PMTK001,185,3*3C
$GPGGA,160637.000,4026.7496,N,07520.5897,W,2$GPGGA,160636.000,4026.7496,N,07520.5897,W,2,10,0.78,154.4,M,-33.9,M,0000,0000*58
$GPRMC,160636.000,A,4026.7496,N,07520.5897,W,0.01,96.86,100612,,,D*46
$PMTK001,314,3*36
$PMTK001,220,3*30
$PMTK001,185,3*3C
$GPGGA,160637.000,4026.7496,N,07520.5897,W,2$GPGGA,160636.000,4026.7496,N,07520.5897,W,2,10,0.78,154.4,M,-33.9,M,0000,0000*58
$GPRMC,160636.000,A,4026.7496,N,07520.5897,W,0.01,96.86,100612,,,D*46
$PMTK001,314,3*36
$PMTK001,220,3*30
$PMTK001,185,3*3C
$GPGGA,160637.000,4026.7496,N,07520.5897,W,2$GPGGA,160636.000,4026.7496,N,07520.5897,W,2,10,0.78,154.4,M,-33.9,M,0000,0000*58
$GPRMC,160636.000,A,4026.7496,N,07520.5897,W,0.01,96.86,100612,,,D*46
$PMTK001,314,3*36
$PMTK001,220,3*30
$PMTK001,185,3*3C
$GPGGA,160637.000,4026.7496,N,07520.5897,W,2$GPGGA,160636.000,4026.7496,N,07520.5897,W,2,10,0.78,154.4,M,-33.9,M,0000,0000*58
$GPRMC,160636.000,A,4026.7496,N,07520.5897,W,0.01,96.86,100612,,,D*46
$PMTK001,314,3*36
$PMTK001,220,3*30
$PMTK001,185,3*3C
$GPGGA,160637.000,4026.7496,N,07520.5897,W,2$GPGGA,160636.000,4026.7496,N,07520.5897,W,2,10,0.78,154.4,M,-33.9,M,0000,0000*58
$GPRMC,160636.000,A,4026.7496,N,07520.5897,W,0.01,96.86,100612,,,D*46
$PMTK001,314,3*36
$PMTK001,220,3*30
$PMTK001,185,3*3C
$GPGGA,160637.000,4026.7496,N,07520.5897,W,2$GPGGA,160636.000,4026.7496,N,07520.5897,W,2,10,0.78,154.4,M,-33.9,M,0000,0000*58
$GPRMC,160636.000,A,4026.7496,N,07520.5897,W,0.01,96.86,100612,,,D*46
$PMTK001,314,3*36
$PMTK001,220,3*30
$PMTK001,185,3*3C
$GPGGA,160637.000,4026.7496,N,07520.5897,W,2$GPGGA,160636.000,4026.7496,N,07520.5897,W,2,10,0.78,154.4,M,-33.9,M,0000,0000*58
$GPRMC,160636.000,A,4026.7496,N,07520.5897,W,0.01,96.86,100612,,,D*46
$PMTK001,314,3*36
$PMTK001,220,3*30
$PMTK001,185,3*3C
$GPGGA,160637.000,4026.7496,N,07520.5897,W,2$GPGGA,160636.000,4026.7496,N,07520.5897,W,2,10,0.78,154.4,M,-33.9,M,0000,0000*58
$GPRMC,160636.000,A,4026.7496,N,07520.5897,W,0.01,96.86,100612,,,D*46
$PMTK001,314,3*36
$PMTK001,220,3*30
$PMTK001,185,3*3C
$GPGGA,160637.000,4026.7496,N,07520.5897,W,2