$PMTK001,314,3*36
$PMTK001,220,3*30
$PMTK001,185,3*3C
$GPGGA,181641.000,4018.9151,N,07516.0037,W,2,10,0.83,4863.5,M,-33.9,M,0000,0000*64
$GPRMC,181641.000,A,4018.9151,N,07516.0037,W,28.16,154.47,100612,,,D*48
$GPGGA,181642.000,4018.9080,N,07515.9994,$PMTK001,314,3*36
$PMTK001,220,3*30
$PMTK001,185,3*3C
$GPGGA,181641.000,4018.9151,N,07516.0037,W,2,10,0.83,4863.5,M,-33.9,M,0000,0000*64
$GPRMC,181641.000,A,4018.9151,N,07516.0037,W,28.16,154.47,100612,,,D*48
$GPGGA,181642.000,4018.9080,N,07515.9994,$PMTK001,314,3*36
$PMTK001,220,3*30
$PMTK001,185,3*3C
$GPGGA,181641.000,4018.9151,N,07516.0037,W,2,10,0.83,4863.5,M,-33.9,M,0000,0000*64
$GPRMC,181641.000,A,4018.9151,N,07516.0037,W,28.16,154.47,100612,,,D*48
$GPGGA,181642.000,4018.9080,N,07515.9994,$PMTK001,314,3*36
$PMTK001,220,3*30
$PMTK001,185,3*3C
$GPGGA,181641.000,4018.9151,N,07516.0037,W,2,10,0.83,4863.5,M,-33.9,M,0000,0000*64
$GPRMC,181641.000,A,4018.9151,N,07516.0037,W,28.16,154.47,100612,,,D*48
$GPGGA,181642.000,4018.9080,N,07515.9994,$PMTK001,314,3*36
$PMTK001,220,3*30
$PMTK001,185,3*3C
$GPGGA,181641.000,4018.9151,N,07516.0037,W,2,10,0.83,4863.5,M,-33.9,M,0000,0000*64
$GPRMC,181641.000,A,4018.9151,N,07516.0037,W,28.16,154.47,100612,,,D*48
$GPGGA,181642.000,4018.9080,N,07515.9994,$PMTK001,314,3*36
$PMTK001,220,3*30
$PMTK001,185,3*3C
$GPGGA,181641.000,4018.9151,N,07516.0037,W,2,10,0.83,4863.5,M,-33.9,M,0000,0000*64
$GPRMC,181641.000,A,4018.9151,N,07516.0037,W,28.16,154.47,100612,,,D*48
$GPGGA,181642.000,4018.9080,N,07515.9994,$PMTK001,314,3*36
$PMTK001,220,3*30
$PMTK001,185,3*3C
$GPGGA,181641.000,4018.9151,N,07516.0037,W,2,10,0.83,4863.5,M,-33.9,M,0000,0000*64
$GPRMC,181641.000,A,4018.9151,N,07516.0037,W,28.16,154.47,100612,,,D*48
$GPGGA,181642.000,4018.9080,N,07515.9994,$PMTK001,314,3*36
$PMTK001,220,3*30
$PMTK001,185,3*3C
$GPGGA,181641.000,4018.9151,N,07516.0037,W,2,10,0.83,4863.5,M,-33.9,M,0000,0000*64
$GPRMC,181641.000,A,4018.9151,N,07516.0037,W,28.16,154.47,100612,,,D*48
$GPGGA,181642.000,4018.9080,N,07515.9994,$PMTK001,314,3*36
$PMTK001,220,3*30
$PMTK001,185,3*3C
$GPGGA,181641.000,4018.9151,N,07516.0037,W,2,10,0.83,4863.5,M,-33.9,M,0000,0000*64
$GPRMC,181641.000,A,4018.9151,N,07516.0037,W,28.16,154.47,100612,,,D*48
$GPGGA,181642.000,4018.9080,N,07515.9994,$PMTK001,314,3*36
$PMTK001,220,3*30
$PMTK001,185,3*3C
$GPGGA,181641.000,4018.9151,N,07516.0037,W,2,10,0.83,4863.5,M,-33.9,M,0000,0000*64
$GPRMC,181641.000,A,4018.9151,N,07516.0037,W,28.16,154.47,100612,,,D*48
$GPGGA,181642.000,4018.9080,N,07515.9994,$PMTK001,314,3*36
$PMTK001,220,3*30
$PMTK001,185,3*3C
$GPGGA,181641.000,4018.9151,N,07516.0037,W,2,10,0.83,4863.5,M,-33.9,M,0000,0000*64
$GPRMC,181641.000,A,4018.9151,N,07516.0037,W,28.16,154.47,100612,,,D*48
$GPGGA,181642.000,4018.9080,N,07515.9994,$PMTK001,314,3*36
$PMTK001,220,3*30
$PMTK001,185,3*3C
$GPGGA,181641.000,4018.9151,N,07516.0037,W,2,10,0.83,4863.5,M,-33.9,M,0000,0000*64
$GPRMC,181641.000,A,4018.9151,N,07516.0037,W,28.16,154.47,100612,,,D*48
$GPGGA,181642.000,4018.9080,N,07515.9994,$PMTK001,314,3*36
$PMTK001,220,3*30
$PMTK001,185,3*3C
$GPGGA,181641.000,4018.9151,N,07516.0037,W,2,10,0.83,4863.5,M,-33.9,M,0000,0000*64
$GPRMC,181641.000,A,4018.9151,N,07516.0037,W,28.16,154.47,100612,,,D*48
$GPGGA,181642.000,4018.9080,N,07515.9994,$PMTK001,314,3*36
$PMTK001,220,3*30
$PMTK001,185,3*3C
$GPGGA,181641.000,4018.9151,N,07516.0037,W,2,10,0.83,4863.5,M,-33.9,M,0000,0000*64
$GPRMC,181641.000,A,4018.9151,N,07516.0037,W,28.16,154.47,100612,,,D*48
$GPGGA,181642.000,4018.9080,N,07515.9994,$PMTK001,314,3*36
$PMTK001,220,3*30
$PMTK001,185,3*3C
$GPGGA,181641.000,4018.9151,N,07516.0037,W,2,10,0.83,4863.5,M,-33.9,M,0000,0000*64
$GPRMC,181641.000,A,4018.9151,N,07516.0037,W,28.16,154.47,100612,,,D*48
$GPGGA,181642.000,4018.9080,N,07515.9994,$PMTK001,314,3*36
$PMTK001,220,3*30
$PMTK001,185,3*3C
$GPGGA,181641.000,4018.9151,N,07516.0037,W,2,10,0.83,4863.5,M,-33.9,M,0000,0000*64
$GPRMC,181641.000,A,4018.9151,N,07516.0037,W,28.16,154.47,100612,,,D*48
$GPGGA,181642.000,4018.9080,N,07515.9994,$PMTK001,314,3*36
$PMTK001,220,3*30
$PMTK001,185,3*3C
$GPGGA,181641.000,4018.9151,N,07516.0037,W,2,10,0.83,4863.5,M,-33.9,M,0000,0000*64
$GPRMC,181641.000,A,4018.9151,N,07516.0037,W,28.16,154.47,100612,,,D*48
$GPGGA,181642.000,4018.9080,N,07515.9994,$PMTK001,314,3*36
$PMTK001,220,3*30
$PMTK001,185,3*3C
$GPGGA,181641.000,4018.9151,N,07516.0037,W,2,10,0.83,4863.5,M,-33.9,M,0000,0000*64
$GPRMC,181641.000,A,4018.9151,N,07516.0037,W,28.16,154.47,100612,,,D*48
$GPGGA,181642.000,4018.9080,N,07515.9994,$PMTK001,314,3*36
$PMTK001,220,3*30
$PMTK001,185,3*3C
$GPGGA,181641.000,4018.9151,N,07516.0037,W,2,10,0.83,4863.5,M,-33.9,M,0000,0000*64
$GPRMC,181641.000,A,4018.9151,N,07516.0037,W,28.16,154.47,100612,,,D*48
$GPGGA,181642.000,4018.9080,N,07515.9994,$PMTK001,314,3*36
$PMTK001,220,3*30
$PMTK001,185,3*3C
$GPGGA,181641.000,4018.9151,N,07516.0037,W,2,10,0.83,4863.5,M,-33.9,M,0000,0000*64
$GPRMC,181641.000,A,4018.9151,N,07516.0037,W,28.16,154.47,100612,,,D*48
$GPGGA,181642.000,4018.9080,N,07515.9994,$PMTK001,314,3*36
$PMTK001,220,3*30
$PMTK001,185,3*3C
$GPGGA,181641.000,4018.9151,N,07516.0037,W,2,10,0.83,4863.5,M,-33.9,M,0000,0000*64
$GPRMC,181641.000,A,4018.9151,N,07516.0037,W,28.16,154.47,100612,,,D*48
$GPGGA,181642.000,4018.9080,N,07515.9994,$PMTK001,314,3*36
$PMTK001,220,3*30
$PMTK001,185,3*3C
$GPGGA,181641.000,4018.9151,N,07516.0037,W,2,10,0.83,4863.5,M,-33.9,M,0000,0000*64
$GPRMC,181641.000,A,4018.9151,N,07516.0037,W,28.16,154.47,100612,,,D*48
$GPGGA,181642.000,4018.9080,N,07515.9994,$PMTK001,314,3*36
$PMTK001,220,3*30
$PMTK001,185,3*3C
$GPGGA,181641.000,4018.9151,N,07516.0037,W,2,10,0.83,4863.5,M,-33.9,M,0000,0000*64
$GPRMC,181641.000,A,4018.9151,N,07516.0037,W,28.16,154.47,100612,,,D*48
$GPGGA,181642.000,4018.9080,N,07515.9994,$PMTK001,314,3*36
$PMTK001,220,3*30
$PMTK001,185,3*3C
$GPGGA,181641.000,4018.9151,N,07516.0037,W,2,10,0.83,4863.5,M,-33.9,M,0000,0000*64
$GPRMC,181641.000,A,4018.9151,N,07516.0037,W,28.16,154.47,100612,,,D*48
$GPGGA,181642.000,4018.9080,N,07515.9994,$PMTK001,314,3*36
$PMTK001,220,3*30
$PMTK001,185,3*3C
$GPGGA,181641.000,4018.9151,N,07516.0037,W,2,10,0.83,4863.5,M,-33.9,M,0000,0000*64
$GPRMC,181641.000,A,4018.9151,N,07516.0037,W,28.16,154.47,100612,,,D*48
$GPGGA,181642.000,4018.9080,N,07515.9994,$PMTK001,314,3*36
$PMTK001,220,3*30
$PMTK001,185,3*3C
$GPGGA,181641.000,4018.9151,N,07516.0037,W,2,10,0.83,4863.5,M,-33.9,M,0000,0000*64
$GPRMC,181641.000,A,4018.9151,N,07516.0037,W,28.16,154.47,100612,,,D*48
$GPGGA,181642.000,4018.9080,N,07515.9994,$PMTK001,314,3*36
$PMTK001,220,3*30
$PMTK001,185,3*3C
$GPGGA,181641.000,4018.9151,N,07516.0037,W,2,10,0.83,4863.5,M,-33.9,M,0000,0000*64
$GPRMC,181641.000,A,4018.9151,N,07516.0037,W,28.16,154.47,100612,,,D*48
$GPGGA,181642.000,4018.9080,N,07515.9994,$PMTK001,314,3*36
$PMTK001,220,3*30
$PMTK001,185,3*3C
$GPGGA,181641.000,4018.9151,N,07516.0037,W,2,10,0.83,4863.5,M,-33.9,M,0000,0000*64
$GPRMC,181641.000,A,4018.9151,N,07516.0037,W,28.16,154.47,100612,,,D*48
$GPGGA,181642.000,4018.9080,N,07515.9994,$PMTK001,314,3*36
$PMTK001,220,3*30
$PMTK001,185,3*3C
$GPGGA,181641.000,4018.9151,N,07516.0037,W,2,10,0.83,4863.5,M,-33.9,M,0000,0000*64
$GPRMC,181641.000,A,4018.9151,N,07516.0037,W,28.16,154.47,100612,,,D*48
$GPGGA,181642.000,4018.9080,N,07515.9994,$PMTK001,314,3*36
$PMTK001,220,3*30
$PMTK001,185,3*3C
$GPGGA,181641.000,4018.9151,N,07516.0037,W,2,10,0.83,4863.5,M,-33.9,M,0000,0000*64
$GPRMC,181641.000,A,4018.9151,N,07516.0037,W,28.16,154.47,100612,,,D*48
$GPGGA,181642.000,4018.9080,N,07515.9994,$PMTK001,314,3*36
$PMTK001,220,3*30
$PMTK001,185,3*3C
$GPGGA,181641.000,4018.9151,N,07516.0037,W,2,10,0.83,4863.5,M,-33.9,M,0000,0000*64
$GPRMC,181641.000,A,4018.9151,N,07516.0037,W,28.16,154.47,100612,,,D*48
$GPGGA,181642.000,4018.9080,N,07515.9994,$PMTK001,314,3*36
$PMTK001,220,3*30
$PMTK001,185,3*3C
$GPGGA,181641.000,4018.9151,N,07516.0037,W,2,10,0.83,4863.5,M,-33.9,M,0000,0000*64
$GPRMC,181641.000,A,4018.9151,N,07516.0037,W,28.16,154.47,100612,,,D*48
$GPGGA,181642.000,4018.9080,N,07515.9994,$PMTK001,314,3*36
$PMTK001,220,3*30
$PMTK001,185,3*3C
$GPGGA,181641.000,4018.9151,N,07516.0037,W,2,10,0.83,4863.5,M,-33.9,M,0000,0000*64
$GPRMC,181641.000,A,4018.9151,N,07516.0037,W,28.16,154.47,100612,,,D*48
$GPGGA,181642.000,4018.9080,N,07515.9994,$PMTK001,314,3*36
$PMTK001,220,3*30
$PMTK001,185,3*3C
$GPGGA,181641.000,4018.9151,N,07516.0037,W,2,10,0.83,4863.5,M,-33.9,M,0000,0000*64
$GPRMC,181641.000,A,4018.9151,N,07516.0037,W,28.16,154.47,100612,,,D*48
$GPGGA,181642.000,4018.9080,N,07515.9994,$PMTK001,314,3*36
$PMTK001,220,3*30
$PMTK001,185,3*3C
$GPGGA,181641.000,4018.9151,N,07516.0037,W,2,10,0.83,4863.5,M,-33.9,M,0000,0000*64
$GPRMC,181641.000,A,4018.9151,N,07516.0037,W,28.16,154.47,100612,,,D*48
$GPGGA,181642.000,4018.9080,N,07515.9994,$PMTK001,314,3*36
$PMTK001,220,3*30
$PMTK001,185,3*3C
$GPGGA,181641.000,4018.9151,N,07516.0037,W,2,10,0.83,4863.5,M,-33.9,M,0000,0000*64
$GPRMC,181641.000,A,4018.9151,N,07516.0037,W,28.16,154.47,100612,,,D*48
$GPGGA,181642.000,4018.9080,N,07515.9994,$PMTK001,314,3*36
$PMTK001,220,3*30
$PMTK001,185,3*3C
$GPGGA,181641.000,4018.9151,N,07516.0037,W,2,10,0.83,4863.5,M,-33.9,M,0000,0000*64
$GPRMC,181641.000,A,4018.9151,N,07516.0037,W,28.16,154.47,100612,,,D*48
$GPGGA,181642.000,4018.9080,N,07515.9994,$PMTK001,314,3*36
$PMTK001,220,3*30
$PMTK001,185,3*3C
$GPGGA,181641.000,4018.9151,N,07516.0037,W,2,10,0.83,4863.5,M,-33.9,M,0000,0000*64
$GPRMC,181641.000,A,4018.9151,N,07516.0037,W,28.16,154.47,100612,,,D*48
$GPGGA,181642.000,4018.9080,N,07515.9994,$PMTK001,314,3*36
$PMTK001,220,3*30
$PMTK001,185,3*3C
$GPGGA,181641.000,4018.9151,N,07516.0037,W,2,10,0.83,4863.5,M,-33.9,M,0000,0000*64
$GPRMC,181641.000,A,4018.9151,N,07516.0037,W,28.16,154.47,100612,,,D*48
$GPGGA,181642.000,4018.9080,N,07515.9994,$PMTK001,314,3*36
$PMTK001,220,3*30
$PMTK001,185,3*3C
$GPGGA,181641.000,4018.9151,N,07516.0037,W,2,10,0.83,4863.5,M,-33.9,M,0000,0000*64
$GPRMC,181641.000,A,4018.9151,N,07516.0037,W,28.16,154.47,100612,,,D*48
$GPGGA,181642.000,4018.9080,N,07515.9994,$PMTK001,314,3*36
$PMTK001,220,3*30
$PMTK001,185,3*3C
$GPGGA,181641.000,4018.9151,N,07516.0037,W,2,10,0.83,4863.5,M,-33.9,M,0000,0000*64
$GPRMC,181641.000,A,4018.9151,N,07516.0037,W,28.16,154.47,100612,,,D*48
$GPGGA,181642.000,4018.9080,N,07515.9994,$PMTK001,314,3*36
$PMTK001,220,3*30
$PMTK001,185,3*3C
$GPGGA,181641.000,4018.9151,N,07516.0037,W,2,10,0.83,4863.5,M,-33.9,M,0000,0000*64
$GPRMC,181641.000,A,4018.9151,N,07516.0037,W,28.16,154.47,100612,,,D*48
$GPGGA,181642.000,4018.9080,N,07515.9994,$PMTK001,314,3*36
$PMTK001,220,3*30
$PMTK001,185,3*3C
$GPGGA,181641.000,4018.9151,N,07516.0037,W,2,10,0.83,4863.5,M,-33.9,M,0000,0000*64
$GPRMC,181641.000,A,4018.9151,N,07516.0037,W,28.16,154.47,100612,,,D*48
$GPGGA,181642.000,4018.9080,N,07515.9994,$PMTK001,314,3*36
$PMTK001,220,3*30
$PMTK001,185,3*3C
$GPGGA,181641.000,4018.9151,N,07516.0037,W,2,10,0.83,4863.5,M,-33.9,M,0000,0000*64
$GPRMC,181641.000,A,4018.9151,N,07516.0037,W,28.16,154.47,100612,,,D*48
$GPGGA,181642.000,4018.9080,N,07515.9994,$PMTK001,314,3*36
$PMTK001,220,3*30
$PMTK001,185,3*3C
$GPGGA,181641.000,4018.9151,N,07516.0037,W,2,10,0.83,4863.5,M,-33.9,M,0000,0000*64
$GPRMC,181641.000,A,4018.9151,N,07516.0037,W,28.16,154.47,100612,,,D*48
$GPGGA,181642.000,4018.9080,N,07515.9994,$PMTK001,314,3*36
$PMTK001,220,3*30
$PMTK001,185,3*3C
$GPGGA,181641.000,4018.9151,N,07516.0037,W,2,10,0.83,4863.5,M,-33.9,M,0000,0000*64
$GPRMC,181641.000,A,4018.9151,N,07516.0037,W,28.16,154.47,100612,,,D*48
$GPGGA,181642.000,4018.9080,N,07515.9994,$PMTK001,314,3*36
$PMTK001,220,3*30
$PMTK001,185,3*3C
$GPGGA,181641.000,4018.9151,N,07516.0037,W,2,10,0.83,4863.5,M,-33.9,M,0000,0000*64
$GPRMC,181641.000,A,4018.9151,N,07516.0037,W,28.16,154.47,100612,,,D*48
$GPGGA,181642.000,4018.9080,N,07515.9994,$PMTK001,314,3*36
$PMTK001,220,3*30
$PMTK001,185,3*3C
$GPGGA,181641.000,4018.9151,N,07516.0037,W,2,10,0.83,4863.5,M,-33.9,M,0000,0000*64
$GPRMC,181641.000,A,4018.9151,N,07516.0037,W,28.16,154.47,100612,,,D*48
$GPGGA,181642.000,4018.9080,N,07515.9994,$PMTK001,314,3*36
$PMTK001,220,3*30
$PMTK001,185,3*3C
$GPGGA,181641.000,4018.9151,N,07516.0037,W,2,10,0.83,4863.5,M,-33.9,M,0000,0000*64
$GPRMC,181641.000,A,4018.9151,N,07516.0037,W,28.16,154.47,100612,,,D*48
$GPGGA,181642.000,4018.9080,N,07515.9994,$PMTK001,314,3*36
$PMTK001,220,3*30
$PMTK001,185,3*3C
$GPGGA,181641.000,4018.9151,N,07516.0037,W,2,10,0.83,4863.5,M,-33.9,M,0000,0000*64
$GPRMC,181641.000,A,4018.9151,N,07516.0037,W,28.16,154.47,100612,,,D*48
$GPGGA,181642.000,4018.9080,N,07515.9994,$PMTK001,314,3*36
$PMTK001,220,3*30
$PMTK001,185,3*3C
$GPGGA,181641.000,4018.9151,N,07516.0037,W,2,10,0.83,4863.5,M,-33.9,M,0000,0000*64
$GPRMC,181641.000,A,4018.9151,N,07516.0037,W,28.16,154.47,100612,,,D*48
$GPGGA,181642.000,4018.9080,N,07515.9994,$PMTK001,314,3*36
$PMTK001,220,3*30
$PMTK001,185,3*3C
$GPGGA,181641.000,4018.9151,N,07516.0037,W,2,10,0.83,4863.5,M,-33.9,M,0000,0000*64
$GPRMC,181641.000,A,4018.9151,N,07516.0037,W,28.16,154.47,100612,,,D*48
$GPGGA,181642.000,4018.9080,N,07515.9994,$PMTK001,314,3*36
$PMTK001,220,3*30
$PMTK001,185,3*3C
$GPGGA,181641.000,4018.9151,N,07516.0037,W,2,10,0.83,4863.5,M,-33.9,M,0000,0000*64
$GPRMC,181641.000,A,4018.9151,N,07516.0037,W,28.16,154.47,100612,,,D*48
$GPGGA,181642.000,4018.9080,N,07515.9994,$PMTK001,314,3*36
$PMTK001,220,3*30
$PMTK001,185,3*3C
$GPGGA,181641.000,4018.9151,N,07516.0037,W,2,10,0.83,4863.5,M,-33.9,M,0000,0000*64
$GPRMC,181641.000,A,4018.9151,N,07516.0037,W,28.16,154.47,100612,,,D*48
$GPGGA,181642.000,4018.9080,N,07515.9994,$PMTK001,314,3*36
$PMTK001,220,3*30
$PMTK001,185,3*3C
$GPGGA,181641.000,4018.9151,N,07516.0037,W,2,10,0.83,4863.5,M,-33.9,M,0000,0000*64
$GPRMC,181641.000,A,4018.9151,N,07516.0037,W,28.16,154.47,100612,,,D*48
$GPGGA,181642.000,4018.9080,N,07515.9994,$PMTK001,314,3*36
$PMTK001,220,3*30
$PMTK001,185,3*3C
$GPGGA,181641.000,4018.9151,N,07516.0037,W,2,10,0.83,4863.5,M,-33.9,M,0000,0000*64
$GPRMC,181641.000,A,4018.9151,N,07516.0037,W,28.16,154.47,100612,,,D*48
$GPGGA,181642.000,4018.9080,N,07515.9994,$PMTK001,314,3*36
$PMTK001,220,3*30
$PMTK001,185,3*3C
$GPGGA,181641.000,4018.9151,N,07516.0037,W,2,10,0.83,4863.5,M,-33.9,M,0000,0000*64
$GPRMC,181641.000,A,4018.9151,N,07516.0037,W,28.16,154.47,100612,,,D*48
$GPGGA,181642.000,4018.9080,N,07515.9994,