b‚‚‚‚Rªnj
$GPRMC,174638.000,A,4026.6697,N,07520.6223,W,2.60,187.08,100612,,,D*7B
$PMTK001,314,3*36
$PMTK001,220,3*30
$PMTK001,185,3*3C
$GPGGA,174639.000,4026.6692,N,07520.6223,W,2,10,0.81,180.5,M,-33.9,M,0000,0000*5D
$GPRMC,174639.000,A,4026.6692,N,0b‚‚‚‚Rªnj
$GPRMC,174638.000,A,4026.6697,N,07520.6223,W,2.60,187.08,100612,,,D*7B
$PMTK001,314,3*36
$PMTK001,220,3*30
$PMTK001,185,3*3C
$GPGGA,174639.000,4026.6692,N,07520.6223,W,2,10,0.81,180.5,M,-33.9,M,0000,0000*5D
$GPRMC,174639.000,A,4026.6692,N,0b‚‚‚‚Rªnj
$GPRMC,174638.000,A,4026.6697,N,07520.6223,W,2.60,187.08,100612,,,D*7B
$PMTK001,314,3*36
$PMTK001,220,3*30
$PMTK001,185,3*3C
$GPGGA,174639.000,4026.6692,N,07520.6223,W,2,10,0.81,180.5,M,-33.9,M,0000,0000*5D
$GPRMC,174639.000,A,4026.6692,N,0b‚‚‚‚Rªnj
$GPRMC,174638.000,A,4026.6697,N,07520.6223,W,2.60,187.08,100612,,,D*7B
$PMTK001,314,3*36
$PMTK001,220,3*30
$PMTK001,185,3*3C
$GPGGA,174639.000,4026.6692,N,07520.6223,W,2,10,0.81,180.5,M,-33.9,M,0000,0000*5D
$GPRMC,174639.000,A,4026.6692,N,0b‚‚‚‚Rªnj
$GPRMC,174638.000,A,4026.6697,N,07520.6223,W,2.60,187.08,100612,,,D*7B
$PMTK001,314,3*36
$PMTK001,220,3*30
$PMTK001,185,3*3C
$GPGGA,174639.000,4026.6692,N,07520.6223,W,2,10,0.81,180.5,M,-33.9,M,0000,0000*5D
$GPRMC,174639.000,A,4026.6692,N,0b‚‚‚‚Rªnj
$GPRMC,174638.000,A,4026.6697,N,07520.6223,W,2.60,187.08,100612,,,D*7B
$PMTK001,314,3*36
$PMTK001,220,3*30
$PMTK001,185,3*3C
$GPGGA,174639.000,4026.6692,N,07520.6223,W,2,10,0.81,180.5,M,-33.9,M,0000,0000*5D
$GPRMC,174639.000,A,4026.6692,N,0b‚‚‚‚Rªnj
$GPRMC,174638.000,A,4026.6697,N,07520.6223,W,2.60,187.08,100612,,,D*7B
$PMTK001,314,3*36
$PMTK001,220,3*30
$PMTK001,185,3*3C
$GPGGA,174639.000,4026.6692,N,07520.6223,W,2,10,0.81,180.5,M,-33.9,M,0000,0000*5D
$GPRMC,174639.000,A,4026.6692,N,0b‚‚‚‚Rªnj
$GPRMC,174638.000,A,4026.6697,N,07520.6223,W,2.60,187.08,100612,,,D*7B
$PMTK001,314,3*36
$PMTK001,220,3*30
$PMTK001,185,3*3C
$GPGGA,174639.000,4026.6692,N,07520.6223,W,2,10,0.81,180.5,M,-33.9,M,0000,0000*5D
$GPRMC,174639.000,A,4026.6692,N,0b‚‚‚‚Rªnj
$GPRMC,174638.000,A,4026.6697,N,07520.6223,W,2.60,187.08,100612,,,D*7B
$PMTK001,314,3*36
$PMTK001,220,3*30
$PMTK001,185,3*3C
$GPGGA,174639.000,4026.6692,N,07520.6223,W,2,10,0.81,180.5,M,-33.9,M,0000,0000*5D
$GPRMC,174639.000,A,4026.6692,N,0b‚‚‚‚Rªnj
$GPRMC,174638.000,A,4026.6697,N,07520.6223,W,2.60,187.08,100612,,,D*7B
$PMTK001,314,3*36
$PMTK001,220,3*30
$PMTK001,185,3*3C
$GPGGA,174639.000,4026.6692,N,07520.6223,W,2,10,0.81,180.5,M,-33.9,M,0000,0000*5D
$GPRMC,174639.000,A,4026.6692,N,0b‚‚‚‚Rªnj
$GPRMC,174638.000,A,4026.6697,N,07520.6223,W,2.60,187.08,100612,,,D*7B
$PMTK001,314,3*36
$PMTK001,220,3*30
$PMTK001,185,3*3C
$GPGGA,174639.000,4026.6692,N,07520.6223,W,2,10,0.81,180.5,M,-33.9,M,0000,0000*5D
$GPRMC,174639.000,A,4026.6692,N,0b‚‚‚‚Rªnj
$GPRMC,174638.000,A,4026.6697,N,07520.6223,W,2.60,187.08,100612,,,D*7B
$PMTK001,314,3*36
$PMTK001,220,3*30
$PMTK001,185,3*3C
$GPGGA,174639.000,4026.6692,N,07520.6223,W,2,10,0.81,180.5,M,-33.9,M,0000,0000*5D
$GPRMC,174639.000,A,4026.6692,N,0b‚‚‚‚Rªnj
$GPRMC,174638.000,A,4026.6697,N,07520.6223,W,2.60,187.08,100612,,,D*7B
$PMTK001,314,3*36
$PMTK001,220,3*30
$PMTK001,185,3*3C
$GPGGA,174639.000,4026.6692,N,07520.6223,W,2,10,0.81,180.5,M,-33.9,M,0000,0000*5D
$GPRMC,174639.000,A,4026.6692,N,0b‚‚‚‚Rªnj
$GPRMC,174638.000,A,4026.6697,N,07520.6223,W,2.60,187.08,100612,,,D*7B
$PMTK001,314,3*36
$PMTK001,220,3*30
$PMTK001,185,3*3C
$GPGGA,174639.000,4026.6692,N,07520.6223,W,2,10,0.81,180.5,M,-33.9,M,0000,0000*5D
$GPRMC,174639.000,A,4026.6692,N,0b‚‚‚‚Rªnj
$GPRMC,174638.000,A,4026.6697,N,07520.6223,W,2.60,187.08,100612,,,D*7B
$PMTK001,314,3*36
$PMTK001,220,3*30
$PMTK001,185,3*3C
$GPGGA,174639.000,4026.6692,N,07520.6223,W,2,10,0.81,180.5,M,-33.9,M,0000,0000*5D
$GPRMC,174639.000,A,4026.6692,N,0b‚‚‚‚Rªnj
$GPRMC,174638.000,A,4026.6697,N,07520.6223,W,2.60,187.08,100612,,,D*7B
$PMTK001,314,3*36
$PMTK001,220,3*30
$PMTK001,185,3*3C
$GPGGA,174639.000,4026.6692,N,07520.6223,W,2,10,0.81,180.5,M,-33.9,M,0000,0000*5D
$GPRMC,174639.000,A,4026.6692,N,0b‚‚‚‚Rªnj
$GPRMC,174638.000,A,4026.6697,N,07520.6223,W,2.60,187.08,100612,,,D*7B
$PMTK001,314,3*36
$PMTK001,220,3*30
$PMTK001,185,3*3C
$GPGGA,174639.000,4026.6692,N,07520.6223,W,2,10,0.81,180.5,M,-33.9,M,0000,0000*5D
$GPRMC,174639.000,A,4026.6692,N,0b‚‚‚‚Rªnj
$GPRMC,174638.000,A,4026.6697,N,07520.6223,W,2.60,187.08,100612,,,D*7B
$PMTK001,314,3*36
$PMTK001,220,3*30
$PMTK001,185,3*3C
$GPGGA,174639.000,4026.6692,N,07520.6223,W,2,10,0.81,180.5,M,-33.9,M,0000,0000*5D
$GPRMC,174639.000,A,4026.6692,N,0b‚‚‚‚Rªnj
$GPRMC,174638.000,A,4026.6697,N,07520.6223,W,2.60,187.08,100612,,,D*7B
$PMTK001,314,3*36
$PMTK001,220,3*30
$PMTK001,185,3*3C
$GPGGA,174639.000,4026.6692,N,07520.6223,W,2,10,0.81,180.5,M,-33.9,M,0000,0000*5D
$GPRMC,174639.000,A,4026.6692,N,0b‚‚‚‚Rªnj
$GPRMC,174638.000,A,4026.6697,N,07520.6223,W,2.60,187.08,100612,,,D*7B
$PMTK001,314,3*36
$PMTK001,220,3*30
$PMTK001,185,3*3C
$GPGGA,174639.000,4026.6692,N,07520.6223,W,2,10,0.81,180.5,M,-33.9,M,0000,0000*5D
$GPRMC,174639.000,A,4026.6692,N,0b‚‚‚‚Rªnj
$GPRMC,174638.000,A,4026.6697,N,07520.6223,W,2.60,187.08,100612,,,D*7B
$PMTK001,314,3*36
$PMTK001,220,3*30
$PMTK001,185,3*3C
$GPGGA,174639.000,4026.6692,N,07520.6223,W,2,10,0.81,180.5,M,-33.9,M,0000,0000*5D
$GPRMC,174639.000,A,4026.6692,N,0b‚‚‚‚Rªnj
$GPRMC,174638.000,A,4026.6697,N,07520.6223,W,2.60,187.08,100612,,,D*7B
$PMTK001,314,3*36
$PMTK001,220,3*30
$PMTK001,185,3*3C
$GPGGA,174639.000,4026.6692,N,07520.6223,W,2,10,0.81,180.5,M,-33.9,M,0000,0000*5D
$GPRMC,174639.000,A,4026.6692,N,0b‚‚‚‚Rªnj
$GPRMC,174638.000,A,4026.6697,N,07520.6223,W,2.60,187.08,100612,,,D*7B
$PMTK001,314,3*36
$PMTK001,220,3*30
$PMTK001,185,3*3C
$GPGGA,174639.000,4026.6692,N,07520.6223,W,2,10,0.81,180.5,M,-33.9,M,0000,0000*5D
$GPRMC,174639.000,A,4026.6692,N,0b‚‚‚‚Rªnj
$GPRMC,174638.000,A,4026.6697,N,07520.6223,W,2.60,187.08,100612,,,D*7B
$PMTK001,314,3*36
$PMTK001,220,3*30
$PMTK001,185,3*3C
$GPGGA,174639.000,4026.6692,N,07520.6223,W,2,10,0.81,180.5,M,-33.9,M,0000,0000*5D
$GPRMC,174639.000,A,4026.6692,N,0b‚‚‚‚Rªnj
$GPRMC,174638.000,A,4026.6697,N,07520.6223,W,2.60,187.08,100612,,,D*7B
$PMTK001,314,3*36
$PMTK001,220,3*30
$PMTK001,185,3*3C
$GPGGA,174639.000,4026.6692,N,07520.6223,W,2,10,0.81,180.5,M,-33.9,M,0000,0000*5D
$GPRMC,174639.000,A,4026.6692,N,0b‚‚‚‚Rªnj
$GPRMC,174638.000,A,4026.6697,N,07520.6223,W,2.60,187.08,100612,,,D*7B
$PMTK001,314,3*36
$PMTK001,220,3*30
$PMTK001,185,3*3C
$GPGGA,174639.000,4026.6692,N,07520.6223,W,2,10,0.81,180.5,M,-33.9,M,0000,0000*5D
$GPRMC,174639.000,A,4026.6692,N,0b‚‚‚‚Rªnj
$GPRMC,174638.000,A,4026.6697,N,07520.6223,W,2.60,187.08,100612,,,D*7B
$PMTK001,314,3*36
$PMTK001,220,3*30
$PMTK001,185,3*3C
$GPGGA,174639.000,4026.6692,N,07520.6223,W,2,10,0.81,180.5,M,-33.9,M,0000,0000*5D
$GPRMC,174639.000,A,4026.6692,N,0b‚‚‚‚Rªnj
$GPRMC,174638.000,A,4026.6697,N,07520.6223,W,2.60,187.08,100612,,,D*7B
$PMTK001,314,3*36
$PMTK001,220,3*30
$PMTK001,185,3*3C
$GPGGA,174639.000,4026.6692,N,07520.6223,W,2,10,0.81,180.5,M,-33.9,M,0000,0000*5D
$GPRMC,174639.000,A,4026.6692,N,0b‚‚‚‚Rªnj
$GPRMC,174638.000,A,4026.6697,N,07520.6223,W,2.60,187.08,100612,,,D*7B
$PMTK001,314,3*36
$PMTK001,220,3*30
$PMTK001,185,3*3C
$GPGGA,174639.000,4026.6692,N,07520.6223,W,2,10,0.81,180.5,M,-33.9,M,0000,0000*5D
$GPRMC,174639.000,A,4026.6692,N,0b‚‚‚‚Rªnj
$GPRMC,174638.000,A,4026.6697,N,07520.6223,W,2.60,187.08,100612,,,D*7B
$PMTK001,314,3*36
$PMTK001,220,3*30
$PMTK001,185,3*3C
$GPGGA,174639.000,4026.6692,N,07520.6223,W,2,10,0.81,180.5,M,-33.9,M,0000,0000*5D
$GPRMC,174639.000,A,4026.6692,N,0b‚‚‚‚Rªnj
$GPRMC,174638.000,A,4026.6697,N,07520.6223,W,2.60,187.08,100612,,,D*7B
$PMTK001,314,3*36
$PMTK001,220,3*30
$PMTK001,185,3*3C
$GPGGA,174639.000,4026.6692,N,07520.6223,W,2,10,0.81,180.5,M,-33.9,M,0000,0000*5D
$GPRMC,174639.000,A,4026.6692,N,0b‚‚‚‚Rªnj
$GPRMC,174638.000,A,4026.6697,N,07520.6223,W,2.60,187.08,100612,,,D*7B
$PMTK001,314,3*36
$PMTK001,220,3*30
$PMTK001,185,3*3C
$GPGGA,174639.000,4026.6692,N,07520.6223,W,2,10,0.81,180.5,M,-33.9,M,0000,0000*5D
$GPRMC,174639.000,A,4026.6692,N,0b‚‚‚‚Rªnj
$GPRMC,174638.000,A,4026.6697,N,07520.6223,W,2.60,187.08,100612,,,D*7B
$PMTK001,314,3*36
$PMTK001,220,3*30
$PMTK001,185,3*3C
$GPGGA,174639.000,4026.6692,N,07520.6223,W,2,10,0.81,180.5,M,-33.9,M,0000,0000*5D
$GPRMC,174639.000,A,4026.6692,N,0b‚‚‚‚Rªnj
$GPRMC,174638.000,A,4026.6697,N,07520.6223,W,2.60,187.08,100612,,,D*7B
$PMTK001,314,3*36
$PMTK001,220,3*30
$PMTK001,185,3*3C
$GPGGA,174639.000,4026.6692,N,07520.6223,W,2,10,0.81,180.5,M,-33.9,M,0000,0000*5D
$GPRMC,174639.000,A,4026.6692,N,0b‚‚‚‚Rªnj
$GPRMC,174638.000,A,4026.6697,N,07520.6223,W,2.60,187.08,100612,,,D*7B
$PMTK001,314,3*36
$PMTK001,220,3*30
$PMTK001,185,3*3C
$GPGGA,174639.000,4026.6692,N,07520.6223,W,2,10,0.81,180.5,M,-33.9,M,0000,0000*5D
$GPRMC,174639.000,A,4026.6692,N,0b‚‚‚‚Rªnj
$GPRMC,174638.000,A,4026.6697,N,07520.6223,W,2.60,187.08,100612,,,D*7B
$PMTK001,314,3*36
$PMTK001,220,3*30
$PMTK001,185,3*3C
$GPGGA,174639.000,4026.6692,N,07520.6223,W,2,10,0.81,180.5,M,-33.9,M,0000,0000*5D
$GPRMC,174639.000,A,4026.6692,N,0b‚‚‚‚Rªnj
$GPRMC,174638.000,A,4026.6697,N,07520.6223,W,2.60,187.08,100612,,,D*7B
$PMTK001,314,3*36
$PMTK001,220,3*30
$PMTK001,185,3*3C
$GPGGA,174639.000,4026.6692,N,07520.6223,W,2,10,0.81,180.5,M,-33.9,M,0000,0000*5D
$GPRMC,174639.000,A,4026.6692,N,0b‚‚‚‚Rªnj
$GPRMC,174638.000,A,4026.6697,N,07520.6223,W,2.60,187.08,100612,,,D*7B
$PMTK001,314,3*36
$PMTK001,220,3*30
$PMTK001,185,3*3C
$GPGGA,174639.000,4026.6692,N,07520.6223,W,2,10,0.81,180.5,M,-33.9,M,0000,0000*5D
$GPRMC,174639.000,A,4026.6692,N,0b‚‚‚‚Rªnj
$GPRMC,174638.000,A,4026.6697,N,07520.6223,W,2.60,187.08,100612,,,D*7B
$PMTK001,314,3*36
$PMTK001,220,3*30
$PMTK001,185,3*3C
$GPGGA,174639.000,4026.6692,N,07520.6223,W,2,10,0.81,180.5,M,-33.9,M,0000,0000*5D
$GPRMC,174639.000,A,4026.6692,N,0b‚‚‚‚Rªnj
$GPRMC,174638.000,A,4026.6697,N,07520.6223,W,2.60,187.08,100612,,,D*7B
$PMTK001,314,3*36
$PMTK001,220,3*30
$PMTK001,185,3*3C
$GPGGA,174639.000,4026.6692,N,07520.6223,W,2,10,0.81,180.5,M,-33.9,M,0000,0000*5D
$GPRMC,174639.000,A,4026.6692,N,0b‚‚‚‚Rªnj
$GPRMC,174638.000,A,4026.6697,N,07520.6223,W,2.60,187.08,100612,,,D*7B
$PMTK001,314,3*36
$PMTK001,220,3*30
$PMTK001,185,3*3C
$GPGGA,174639.000,4026.6692,N,07520.6223,W,2,10,0.81,180.5,M,-33.9,M,0000,0000*5D
$GPRMC,174639.000,A,4026.6692,N,0b‚‚‚‚Rªnj
$GPRMC,174638.000,A,4026.6697,N,07520.6223,W,2.60,187.08,100612,,,D*7B
$PMTK001,314,3*36
$PMTK001,220,3*30
$PMTK001,185,3*3C
$GPGGA,174639.000,4026.6692,N,07520.6223,W,2,10,0.81,180.5,M,-33.9,M,0000,0000*5D
$GPRMC,174639.000,A,4026.6692,N,0b‚‚‚‚Rªnj
$GPRMC,174638.000,A,4026.6697,N,07520.6223,W,2.60,187.08,100612,,,D*7B
$PMTK001,314,3*36
$PMTK001,220,3*30
$PMTK001,185,3*3C
$GPGGA,174639.000,4026.6692,N,07520.6223,W,2,10,0.81,180.5,M,-33.9,M,0000,0000*5D
$GPRMC,174639.000,A,4026.6692,N,0b‚‚‚‚Rªnj
$GPRMC,174638.000,A,4026.6697,N,07520.6223,W,2.60,187.08,100612,,,D*7B
$PMTK001,314,3*36
$PMTK001,220,3*30
$PMTK001,185,3*3C
$GPGGA,174639.000,4026.6692,N,07520.6223,W,2,10,0.81,180.5,M,-33.9,M,0000,0000*5D
$GPRMC,174639.000,A,4026.6692,N,0b‚‚‚‚Rªnj
$GPRMC,174638.000,A,4026.6697,N,07520.6223,W,2.60,187.08,100612,,,D*7B
$PMTK001,314,3*36
$PMTK001,220,3*30
$PMTK001,185,3*3C
$GPGGA,174639.000,4026.6692,N,07520.6223,W,2,10,0.81,180.5,M,-33.9,M,0000,0000*5D
$GPRMC,174639.000,A,4026.6692,N,0b‚‚‚‚Rªnj
$GPRMC,174638.000,A,4026.6697,N,07520.6223,W,2.60,187.08,100612,,,D*7B
$PMTK001,314,3*36
$PMTK001,220,3*30
$PMTK001,185,3*3C
$GPGGA,174639.000,4026.6692,N,07520.6223,W,2,10,0.81,180.5,M,-33.9,M,0000,0000*5D
$GPRMC,174639.000,A,4026.6692,N,0b‚‚‚‚Rªnj
$GPRMC,174638.000,A,4026.6697,N,07520.6223,W,2.60,187.08,100612,,,D*7B
$PMTK001,314,3*36
$PMTK001,220,3*30
$PMTK001,185,3*3C
$GPGGA,174639.000,4026.6692,N,07520.6223,W,2,10,0.81,180.5,M,-33.9,M,0000,0000*5D
$GPRMC,174639.000,A,4026.6692,N,0b‚‚‚‚Rªnj
$GPRMC,174638.000,A,4026.6697,N,07520.6223,W,2.60,187.08,100612,,,D*7B
$PMTK001,314,3*36
$PMTK001,220,3*30
$PMTK001,185,3*3C
$GPGGA,174639.000,4026.6692,N,07520.6223,W,2,10,0.81,180.5,M,-33.9,M,0000,0000*5D
$GPRMC,174639.000,A,4026.6692,N,0b‚‚‚‚Rªnj
$GPRMC,174638.000,A,4026.6697,N,07520.6223,W,2.60,187.08,100612,,,D*7B
$PMTK001,314,3*36
$PMTK001,220,3*30
$PMTK001,185,3*3C
$GPGGA,174639.000,4026.6692,N,07520.6223,W,2,10,0.81,180.5,M,-33.9,M,0000,0000*5D
$GPRMC,174639.000,A,4026.6692,N,0b‚‚‚‚Rªnj
$GPRMC,174638.000,A,4026.6697,N,07520.6223,W,2.60,187.08,100612,,,D*7B
$PMTK001,314,3*36
$PMTK001,220,3*30
$PMTK001,185,3*3C
$GPGGA,174639.000,4026.6692,N,07520.6223,W,2,10,0.81,180.5,M,-33.9,M,0000,0000*5D
$GPRMC,174639.000,A,4026.6692,N,0b‚‚‚‚Rªnj
$GPRMC,174638.000,A,4026.6697,N,07520.6223,W,2.60,187.08,100612,,,D*7B
$PMTK001,314,3*36
$PMTK001,220,3*30
$PMTK001,185,3*3C
$GPGGA,174639.000,4026.6692,N,07520.6223,W,2,10,0.81,180.5,M,-33.9,M,0000,0000*5D
$GPRMC,174639.000,A,4026.6692,N,0b‚‚‚‚Rªnj
$GPRMC,174638.000,A,4026.6697,N,07520.6223,W,2.60,187.08,100612,,,D*7B
$PMTK001,314,3*36
$PMTK001,220,3*30
$PMTK001,185,3*3C
$GPGGA,174639.000,4026.6692,N,07520.6223,W,2,10,0.81,180.5,M,-33.9,M,0000,0000*5D
$GPRMC,174639.000,A,4026.6692,N,0b‚‚‚‚Rªnj
$GPRMC,174638.000,A,4026.6697,N,07520.6223,W,2.60,187.08,100612,,,D*7B
$PMTK001,314,3*36
$PMTK001,220,3*30
$PMTK001,185,3*3C
$GPGGA,174639.000,4026.6692,N,07520.6223,W,2,10,0.81,180.5,M,-33.9,M,0000,0000*5D
$GPRMC,174639.000,A,4026.6692,N,0b‚‚‚‚Rªnj
$GPRMC,174638.000,A,4026.6697,N,07520.6223,W,2.60,187.08,100612,,,D*7B
$PMTK001,314,3*36
$PMTK001,220,3*30
$PMTK001,185,3*3C
$GPGGA,174639.000,4026.6692,N,07520.6223,W,2,10,0.81,180.5,M,-33.9,M,0000,0000*5D
$GPRMC,174639.000,A,4026.6692,N,0b‚‚‚‚Rªnj
$GPRMC,174638.000,A,4026.6697,N,07520.6223,W,2.60,187.08,100612,,,D*7B
$PMTK001,314,3*36
$PMTK001,220,3*30
$PMTK001,185,3*3C
$GPGGA,174639.000,4026.6692,N,07520.6223,W,2,10,0.81,180.5,M,-33.9,M,0000,0000*5D
$GPRMC,174639.000,A,4026.6692,N,0b‚‚‚‚Rªnj
$GPRMC,174638.000,A,4026.6697,N,07520.6223,W,2.60,187.08,100612,,,D*7B
$PMTK001,314,3*36
$PMTK001,220,3*30
$PMTK001,185,3*3C
$GPGGA,174639.000,4026.6692,N,07520.6223,W,2,10,0.81,180.5,M,-33.9,M,0000,0000*5D
$GPRMC,174639.000,A,4026.6692,N,0b‚‚‚‚Rªnj
$GPRMC,174638.000,A,4026.6697,N,07520.6223,W,2.60,187.08,100612,,,D*7B
$PMTK001,314,3*36
$PMTK001,220,3*30
$PMTK001,185,3*3C
$GPGGA,174639.000,4026.6692,N,07520.6223,W,2,10,0.81,180.5,M,-33.9,M,0000,0000*5D
$GPRMC,174639.000,A,4026.6692,N,0b‚‚‚‚Rªnj
$GPRMC,174638.000,A,4026.6697,N,07520.6223,W,2.60,187.08,100612,,,D*7B
$PMTK001,314,3*36
$PMTK001,220,3*30
$PMTK001,185,3*3C
$GPGGA,174639.000,4026.6692,N,07520.6223,W,2,10,0.81,180.5,M,-33.9,M,0000,0000*5D
$GPRMC,174639.000,A,4026.6692,N,0b‚‚‚‚Rªnj
$GPRMC,174638.000,A,4026.6697,N,07520.6223,W,2.60,187.08,100612,,,D*7B
$PMTK001,314,3*36
$PMTK001,220,3*30
$PMTK001,185,3*3C
$GPGGA,174639.000,4026.6692,N,07520.6223,W,2,10,0.81,180.5,M,-33.9,M,0000,0000*5D
$GPRMC,174639.000,A,4026.6692,N,0b‚‚‚‚Rªnj
$GPRMC,174638.000,A,4026.6697,N,07520.6223,W,2.60,187.08,100612,,,D*7B
$PMTK001,314,3*36
$PMTK001,220,3*30
$PMTK001,185,3*3C
$GPGGA,174639.000,4026.6692,N,07520.6223,W,2,10,0.81,180.5,M,-33.9,M,0000,0000*5D
$GPRMC,174639.000,A,4026.6692,N,0b‚‚‚‚Rªnj
$GPRMC,174638.000,A,4026.6697,N,07520.6223,W,2.60,187.08,100612,,,D*7B
$PMTK001,314,3*36
$PMTK001,220,3*30
$PMTK001,185,3*3C
$GPGGA,174639.000,4026.6692,N,07520.6223,W,2,10,0.81,180.5,M,-33.9,M,0000,0000*5D
$GPRMC,174639.000,A,4026.6692,N,0b‚‚‚‚Rªnj
$GPRMC,174638.000,A,4026.6697,N,07520.6223,W,2.60,187.08,100612,,,D*7B
$PMTK001,314,3*36
$PMTK001,220,3*30
$PMTK001,185,3*3C
$GPGGA,174639.000,4026.6692,N,07520.6223,W,2,10,0.81,180.5,M,-33.9,M,0000,0000*5D
$GPRMC,174639.000,A,4026.6692,N,0b‚‚‚‚Rªnj
$GPRMC,174638.000,A,4026.6697,N,07520.6223,W,2.60,187.08,100612,,,D*7B
$PMTK001,314,3*36
$PMTK001,220,3*30
$PMTK001,185,3*3C
$GPGGA,174639.000,4026.6692,N,07520.6223,W,2,10,0.81,180.5,M,-33.9,M,0000,0000*5D
$GPRMC,174639.000,A,4026.6692,N,0b‚‚‚‚Rªnj
$GPRMC,174638.000,A,4026.6697,N,07520.6223,W,2.60,187.08,100612,,,D*7B
$PMTK001,314,3*36
$PMTK001,220,3*30
$PMTK001,185,3*3C
$GPGGA,174639.000,4026.6692,N,07520.6223,W,2,10,0.81,180.5,M,-33.9,M,0000,0000*5D
$GPRMC,174639.000,A,4026.6692,N,0b‚‚‚‚Rªnj
$GPRMC,174638.000,A,4026.6697,N,07520.6223,W,2.60,187.08,100612,,,D*7B
$PMTK001,314,3*36
$PMTK001,220,3*30
$PMTK001,185,3*3C
$GPGGA,174639.000,4026.6692,N,07520.6223,W,2,10,0.81,180.5,M,-33.9,M,0000,0000*5D
$GPRMC,174639.000,A,4026.6692,N,0b‚‚‚‚Rªnj
$GPRMC,174638.000,A,4026.6697,N,07520.6223,W,2.60,187.08,100612,,,D*7B
$PMTK001,314,3*36
$PMTK001,220,3*30
$PMTK001,185,3*3C
$GPGGA,174639.000,4026.6692,N,07520.6223,W,2,10,0.81,180.5,M,-33.9,M,0000,0000*5D
$GPRMC,174639.000,A,4026.6692,N,0b‚‚‚‚Rªnj
$GPRMC,174638.000,A,4026.6697,N,07520.6223,W,2.60,187.08,100612,,,D*7B
$PMTK001,314,3*36
$PMTK001,220,3*30
$PMTK001,185,3*3C
$GPGGA,174639.000,4026.6692,N,07520.6223,W,2,10,0.81,180.5,M,-33.9,M,0000,0000*5D
$GPRMC,174639.000,A,4026.6692,N,0b‚‚‚‚Rªnj
$GPRMC,174638.000,A,4026.6697,N,07520.6223,W,2.60,187.08,100612,,,D*7B
$PMTK001,314,3*36
$PMTK001,220,3*30
$PMTK001,185,3*3C
$GPGGA,174639.000,4026.6692,N,07520.6223,W,2,10,0.81,180.5,M,-33.9,M,0000,0000*5D
$GPRMC,174639.000,A,4026.6692,N,0b‚‚‚‚Rªnj
$GPRMC,174638.000,A,4026.6697,N,07520.6223,W,2.60,187.08,100612,,,D*7B
$PMTK001,314,3*36
$PMTK001,220,3*30
$PMTK001,185,3*3C
$GPGGA,174639.000,4026.6692,N,07520.6223,W,2,10,0.81,180.5,M,-33.9,M,0000,0000*5D
$GPRMC,174639.000,A,4026.6692,N,0b‚‚‚‚Rªnj
$GPRMC,174638.000,A,4026.6697,N,07520.6223,W,2.60,187.08,100612,,,D*7B
$PMTK001,314,3*36
$PMTK001,220,3*30
$PMTK001,185,3*3C
$GPGGA,174639.000,4026.6692,N,07520.6223,W,2,10,0.81,180.5,M,-33.9,M,0000,0000*5D
$GPRMC,174639.000,A,4026.6692,N,0b‚‚‚‚Rªnj
$GPRMC,174638.000,A,4026.6697,N,07520.6223,W,2.60,187.08,100612,,,D*7B
$PMTK001,314,3*36
$PMTK001,220,3*30
$PMTK001,185,3*3C
$GPGGA,174639.000,4026.6692,N,07520.6223,W,2,10,0.81,180.5,M,-33.9,M,0000,0000*5D
$GPRMC,174639.000,A,4026.6692,N,0b‚‚‚‚Rªnj
$GPRMC,174638.000,A,4026.6697,N,07520.6223,W,2.60,187.08,100612,,,D*7B
$PMTK001,314,3*36
$PMTK001,220,3*30
$PMTK001,185,3*3C
$GPGGA,174639.000,4026.6692,N,07520.6223,W,2,10,0.81,180.5,M,-33.9,M,0000,0000*5D
$GPRMC,174639.000,A,4026.6692,N,0b‚‚‚‚Rªnj
$GPRMC,174638.000,A,4026.6697,N,07520.6223,W,2.60,187.08,100612,,,D*7B
$PMTK001,314,3*36
$PMTK001,220,3*30
$PMTK001,185,3*3C
$GPGGA,174639.000,4026.6692,N,07520.6223,W,2,10,0.81,180.5,M,-33.9,M,0000,0000*5D
$GPRMC,174639.000,A,4026.6692,N,0b‚‚‚‚Rªnj
$GPRMC,174638.000,A,4026.6697,N,07520.6223,W,2.60,187.08,100612,,,D*7B
$PMTK001,314,3*36
$PMTK001,220,3*30
$PMTK001,185,3*3C
$GPGGA,174639.000,4026.6692,N,07520.6223,W,2,10,0.81,180.5,M,-33.9,M,0000,0000*5D
$GPRMC,174639.000,A,4026.6692,N,0b‚‚‚‚Rªnj
$GPRMC,174638.000,A,4026.6697,N,07520.6223,W,2.60,187.08,100612,,,D*7B
$PMTK001,314,3*36
$PMTK001,220,3*30
$PMTK001,185,3*3C
$GPGGA,174639.000,4026.6692,N,07520.6223,W,2,10,0.81,180.5,M,-33.9,M,0000,0000*5D
$GPRMC,174639.000,A,4026.6692,N,0b‚‚‚‚Rªnj
$GPRMC,174638.000,A,4026.6697,N,07520.6223,W,2.60,187.08,100612,,,D*7B
$PMTK001,314,3*36
$PMTK001,220,3*30
$PMTK001,185,3*3C
$GPGGA,174639.000,4026.6692,N,07520.6223,W,2,10,0.81,180.5,M,-33.9,M,0000,0000*5D
$GPRMC,174639.000,A,4026.6692,N,0b‚‚‚‚Rªnj
$GPRMC,174638.000,A,4026.6697,N,07520.6223,W,2.60,187.08,100612,,,D*7B
$PMTK001,314,3*36
$PMTK001,220,3*30
$PMTK001,185,3*3C
$GPGGA,174639.000,4026.6692,N,07520.6223,W,2,10,0.81,180.5,M,-33.9,M,0000,0000*5D
$GPRMC,174639.000,A,4026.6692,N,0b‚‚‚‚Rªnj
$GPRMC,174638.000,A,4026.6697,N,07520.6223,W,2.60,187.08,100612,,,D*7B
$PMTK001,314,3*36
$PMTK001,220,3*30
$PMTK001,185,3*3C
$GPGGA,174639.000,4026.6692,N,07520.6223,W,2,10,0.81,180.5,M,-33.9,M,0000,0000*5D
$GPRMC,174639.000,A,4026.6692,N,0b‚‚‚‚Rªnj
$GPRMC,174638.000,A,4026.6697,N,07520.6223,W,2.60,187.08,100612,,,D*7B
$PMTK001,314,3*36
$PMTK001,220,3*30
$PMTK001,185,3*3C
$GPGGA,174639.000,4026.6692,N,07520.6223,W,2,10,0.81,180.5,M,-33.9,M,0000,0000*5D
$GPRMC,174639.000,A,4026.6692,N,0b‚‚‚‚Rªnj
$GPRMC,174638.000,A,4026.6697,N,07520.6223,W,2.60,187.08,100612,,,D*7B
$PMTK001,314,3*36
$PMTK001,220,3*30
$PMTK001,185,3*3C
$GPGGA,174639.000,4026.6692,N,07520.6223,W,2,10,0.81,180.5,M,-33.9,M,0000,0000*5D
$GPRMC,174639.000,A,4026.6692,N,0b‚‚‚‚Rªnj
$GPRMC,174638.000,A,4026.6697,N,07520.6223,W,2.60,187.08,100612,,,D*7B
$PMTK001,314,3*36
$PMTK001,220,3*30
$PMTK001,185,3*3C
$GPGGA,174639.000,4026.6692,N,07520.6223,W,2,10,0.81,180.5,M,-33.9,M,0000,0000*5D
$GPRMC,174639.000,A,4026.6692,N,0b‚‚‚‚Rªnj
$GPRMC,174638.000,A,4026.6697,N,07520.6223,W,2.60,187.08,100612,,,D*7B
$PMTK001,314,3*36
$PMTK001,220,3*30
$PMTK001,185,3*3C
$GPGGA,174639.000,4026.6692,N,07520.6223,W,2,10,0.81,180.5,M,-33.9,M,0000,0000*5D
$GPRMC,174639.000,A,4026.6692,N,0b‚‚‚‚Rªnj
$GPRMC,174638.000,A,4026.6697,N,07520.6223,W,2.60,187.08,100612,,,D*7B
$PMTK001,314,3*36
$PMTK001,220,3*30
$PMTK001,185,3*3C
$GPGGA,174639.000,4026.6692,N,07520.6223,W,2,10,0.81,180.5,M,-33.9,M,0000,0000*5D
$GPRMC,174639.000,A,4026.6692,N,0b‚‚‚‚Rªnj
$GPRMC,174638.000,A,4026.6697,N,07520.6223,W,2.60,187.08,100612,,,D*7B
$PMTK001,314,3*36
$PMTK001,220,3*30
$PMTK001,185,3*3C
$GPGGA,174639.000,4026.6692,N,07520.6223,W,2,10,0.81,180.5,M,-33.9,M,0000,0000*5D
$GPRMC,174639.000,A,4026.6692,N,0b‚‚‚‚Rªnj
$GPRMC,174638.000,A,4026.6697,N,07520.6223,W,2.60,187.08,100612,,,D*7B
$PMTK001,314,3*36
$PMTK001,220,3*30
$PMTK001,185,3*3C
$GPGGA,174639.000,4026.6692,N,07520.6223,W,2,10,0.81,180.5,M,-33.9,M,0000,0000*5D
$GPRMC,174639.000,A,4026.6692,N,0b‚‚‚‚Rªnj
$GPRMC,174638.000,A,4026.6697,N,07520.6223,W,2.60,187.08,100612,,,D*7B
$PMTK001,314,3*36
$PMTK001,220,3*30
$PMTK001,185,3*3C
$GPGGA,174639.000,4026.6692,N,07520.6223,W,2,10,0.81,180.5,M,-33.9,M,0000,0000*5D
$GPRMC,174639.000,A,4026.6692,N,0b‚‚‚‚Rªnj
$GPRMC,174638.000,A,4026.6697,N,07520.6223,W,2.60,187.08,100612,,,D*7B
$PMTK001,314,3*36
$PMTK001,220,3*30
$PMTK001,185,3*3C
$GPGGA,174639.000,4026.6692,N,07520.6223,W,2,10,0.81,180.5,M,-33.9,M,0000,0000*5D
$GPRMC,174639.000,A,4026.6692,N,0b‚‚‚‚Rªnj
$GPRMC,174638.000,A,4026.6697,N,07520.6223,W,2.60,187.08,100612,,,D*7B
$PMTK001,314,3*36
$PMTK001,220,3*30
$PMTK001,185,3*3C
$GPGGA,174639.000,4026.6692,N,07520.6223,W,2,10,0.81,180.5,M,-33.9,M,0000,0000*5D
$GPRMC,174639.000,A,4026.6692,N,0b‚‚‚‚Rªnj
$GPRMC,174638.000,A,4026.6697,N,07520.6223,W,2.60,187.08,100612,,,D*7B
$PMTK001,314,3*36
$PMTK001,220,3*30
$PMTK001,185,3*3C
$GPGGA,174639.000,4026.6692,N,07520.6223,W,2,10,0.81,180.5,M,-33.9,M,0000,0000*5D
$GPRMC,174639.000,A,4026.6692,N,0b‚‚‚‚Rªnj
$GPRMC,174638.000,A,4026.6697,N,07520.6223,W,2.60,187.08,100612,,,D*7B
$PMTK001,314,3*36
$PMTK001,220,3*30
$PMTK001,185,3*3C
$GPGGA,174639.000,4026.6692,N,07520.6223,W,2,10,0.81,180.5,M,-33.9,M,0000,0000*5D
$GPRMC,174639.000,A,4026.6692,N,0b‚‚‚‚Rªnj
$GPRMC,174638.000,A,4026.6697,N,07520.6223,W,2.60,187.08,100612,,,D*7B
$PMTK001,314,3*36
$PMTK001,220,3*30
$PMTK001,185,3*3C
$GPGGA,174639.000,4026.6692,N,07520.6223,W,2,10,0.81,180.5,M,-33.9,M,0000,0000*5D
$GPRMC,174639.000,A,4026.6692,N,0b‚‚‚‚Rªnj
$GPRMC,174638.000,A,4026.6697,N,07520.6223,W,2.60,187.08,100612,,,D*7B
$PMTK001,314,3*36
$PMTK001,220,3*30
$PMTK001,185,3*3C
$GPGGA,174639.000,4026.6692,N,07520.6223,W,2,10,0.81,180.5,M,-33.9,M,0000,0000*5D
$GPRMC,174639.000,A,4026.6692,N,0b‚‚‚‚Rªnj
$GPRMC,174638.000,A,4026.6697,N,07520.6223,W,2.60,187.08,100612,,,D*7B
$PMTK001,314,3*36
$PMTK001,220,3*30
$PMTK001,185,3*3C
$GPGGA,174639.000,4026.6692,N,07520.6223,W,2,10,0.81,180.5,M,-33.9,M,0000,0000*5D
$GPRMC,174639.000,A,4026.6692,N,0b‚‚‚‚Rªnj
$GPRMC,174638.000,A,4026.6697,N,07520.6223,W,2.60,187.08,100612,,,D*7B
$PMTK001,314,3*36
$PMTK001,220,3*30
$PMTK001,185,3*3C
$GPGGA,174639.000,4026.6692,N,07520.6223,W,2,10,0.81,180.5,M,-33.9,M,0000,0000*5D
$GPRMC,174639.000,A,4026.6692,N,0b‚‚‚‚Rªnj
$GPRMC,174638.000,A,4026.6697,N,07520.6223,W,2.60,187.08,100612,,,D*7B
$PMTK001,314,3*36
$PMTK001,220,3*30
$PMTK001,185,3*3C
$GPGGA,174639.000,4026.6692,N,07520.6223,W,2,10,0.81,180.5,M,-33.9,M,0000,0000*5D
$GPRMC,174639.000,A,4026.6692,N,0b‚‚‚‚Rªnj
$GPRMC,174638.000,A,4026.6697,N,07520.6223,W,2.60,187.08,100612,,,D*7B
$PMTK001,314,3*36
$PMTK001,220,3*30
$PMTK001,185,3*3C
$GPGGA,174639.000,4026.6692,N,07520.6223,W,2,10,0.81,180.5,M,-33.9,M,0000,0000*5D
$GPRMC,174639.000,A,4026.6692,N,0b‚‚‚‚Rªnj
$GPRMC,174638.000,A,4026.6697,N,07520.6223,W,2.60,187.08,100612,,,D*7B
$PMTK001,314,3*36
$PMTK001,220,3*30
$PMTK001,185,3*3C
$GPGGA,174639.000,4026.6692,N,07520.6223,W,2,10,0.81,180.5,M,-33.9,M,0000,0000*5D
$GPRMC,174639.000,A,4026.6692,N,0b‚‚‚‚Rªnj
$GPRMC,174638.000,A,4026.6697,N,07520.6223,W,2.60,187.08,100612,,,D*7B
$PMTK001,314,3*36
$PMTK001,220,3*30
$PMTK001,185,3*3C
$GPGGA,174639.000,4026.6692,N,07520.6223,W,2,10,0.81,180.5,M,-33.9,M,0000,0000*5D
$GPRMC,174639.000,A,4026.6692,N,0b‚‚‚‚Rªnj
$GPRMC,174638.000,A,4026.6697,N,07520.6223,W,2.60,187.08,100612,,,D*7B
$PMTK001,314,3*36
$PMTK001,220,3*30
$PMTK001,185,3*3C
$GPGGA,174639.000,4026.6692,N,07520.6223,W,2,10,0.81,180.5,M,-33.9,M,0000,0000*5D
$GPRMC,174639.000,A,4026.6692,N,0b‚‚‚‚Rªnj
$GPRMC,174638.000,A,4026.6697,N,07520.6223,W,2.60,187.08,100612,,,D*7B
$PMTK001,314,3*36
$PMTK001,220,3*30
$PMTK001,185,3*3C
$GPGGA,174639.000,4026.6692,N,07520.6223,W,2,10,0.81,180.5,M,-33.9,M,0000,0000*5D
$GPRMC,174639.000,A,4026.6692,N,0b‚‚‚‚Rªnj
$GPRMC,174638.000,A,4026.6697,N,07520.6223,W,2.60,187.08,100612,,,D*7B
$PMTK001,314,3*36
$PMTK001,220,3*30
$PMTK001,185,3*3C
$GPGGA,174639.000,4026.6692,N,07520.6223,W,2,10,0.81,180.5,M,-33.9,M,0000,0000*5D
$GPRMC,174639.000,A,4026.6692,N,0b‚‚‚‚Rªnj
$GPRMC,174638.000,A,4026.6697,N,07520.6223,W,2.60,187.08,100612,,,D*7B
$PMTK001,314,3*36
$PMTK001,220,3*30
$PMTK001,185,3*3C
$GPGGA,174639.000,4026.6692,N,07520.6223,W,2,10,0.81,180.5,M,-33.9,M,0000,0000*5D
$GPRMC,174639.000,A,4026.6692,N,0b‚‚‚‚Rªnj
$GPRMC,174638.000,A,4026.6697,N,07520.6223,W,2.60,187.08,100612,,,D*7B
$PMTK001,314,3*36
$PMTK001,220,3*30
$PMTK001,185,3*3C
$GPGGA,174639.000,4026.6692,N,07520.6223,W,2,10,0.81,180.5,M,-33.9,M,0000,0000*5D
$GPRMC,174639.000,A,4026.6692,N,0b‚‚‚‚Rªnj
$GPRMC,174638.000,A,4026.6697,N,07520.6223,W,2.60,187.08,100612,,,D*7B
$PMTK001,314,3*36
$PMTK001,220,3*30
$PMTK001,185,3*3C
$GPGGA,174639.000,4026.6692,N,07520.6223,W,2,10,0.81,180.5,M,-33.9,M,0000,0000*5D
$GPRMC,174639.000,A,4026.6692,N,0b‚‚‚‚Rªnj
$GPRMC,174638.000,A,4026.6697,N,07520.6223,W,2.60,187.08,100612,,,D*7B
$PMTK001,314,3*36
$PMTK001,220,3*30
$PMTK001,185,3*3C
$GPGGA,174639.000,4026.6692,N,07520.6223,W,2,10,0.81,180.5,M,-33.9,M,0000,0000*5D
$GPRMC,174639.000,A,4026.6692,N,0b‚‚‚‚Rªnj
$GPRMC,174638.000,A,4026.6697,N,07520.6223,W,2.60,187.08,100612,,,D*7B
$PMTK001,314,3*36
$PMTK001,220,3*30
$PMTK001,185,3*3C
$GPGGA,174639.000,4026.6692,N,07520.6223,W,2,10,0.81,180.5,M,-33.9,M,0000,0000*5D
$GPRMC,174639.000,A,4026.6692,N,0b‚‚‚‚Rªnj
$GPRMC,174638.000,A,4026.6697,N,07520.6223,W,2.60,187.08,100612,,,D*7B
$PMTK001,314,3*36
$PMTK001,220,3*30
$PMTK001,185,3*3C
$GPGGA,174639.000,4026.6692,N,07520.6223,W,2,10,0.81,180.5,M,-33.9,M,0000,0000*5D
$GPRMC,174639.000,A,4026.6692,N,0b‚‚‚‚Rªnj
$GPRMC,174638.000,A,4026.6697,N,07520.6223,W,2.60,187.08,100612,,,D*7B
$PMTK001,314,3*36
$PMTK001,220,3*30
$PMTK001,185,3*3C
$GPGGA,174639.000,4026.6692,N,07520.6223,W,2,10,0.81,180.5,M,-33.9,M,0000,0000*5D
$GPRMC,174639.000,A,4026.6692,N,0b‚‚‚‚Rªnj
$GPRMC,174638.000,A,4026.6697,N,07520.6223,W,2.60,187.08,100612,,,D*7B
$PMTK001,314,3*36
$PMTK001,220,3*30
$PMTK001,185,3*3C
$GPGGA,174639.000,4026.6692,N,07520.6223,W,2,10,0.81,180.5,M,-33.9,M,0000,0000*5D
$GPRMC,174639.000,A,4026.6692,N,0b‚‚‚‚Rªnj
$GPRMC,174638.000,A,4026.6697,N,07520.6223,W,2.60,187.08,100612,,,D*7B
$PMTK001,314,3*36
$PMTK001,220,3*30
$PMTK001,185,3*3C
$GPGGA,174639.000,4026.6692,N,07520.6223,W,2,10,0.81,180.5,M,-33.9,M,0000,0000*5D
$GPRMC,174639.000,A,4026.6692,N,0b‚‚‚‚Rªnj
$GPRMC,174638.000,A,4026.6697,N,07520.6223,W,2.60,187.08,100612,,,D*7B
$PMTK001,314,3*36
$PMTK001,220,3*30
$PMTK001,185,3*3C
$GPGGA,174639.000,4026.6692,N,07520.6223,W,2,10,0.81,180.5,M,-33.9,M,0000,0000*5D
$GPRMC,174639.000,A,4026.6692,N,0b‚‚‚‚Rªnj
$GPRMC,174638.000,A,4026.6697,N,07520.6223,W,2.60,187.08,100612,,,D*7B
$PMTK001,314,3*36
$PMTK001,220,3*30
$PMTK001,185,3*3C
$GPGGA,174639.000,4026.6692,N,07520.6223,W,2,10,0.81,180.5,M,-33.9,M,0000,0000*5D
$GPRMC,174639.000,A,4026.6692,N,0b‚‚‚‚Rªnj
$GPRMC,174638.000,A,4026.6697,N,07520.6223,W,2.60,187.08,100612,,,D*7B
$PMTK001,314,3*36
$PMTK001,220,3*30
$PMTK001,185,3*3C
$GPGGA,174639.000,4026.6692,N,07520.6223,W,2,10,0.81,180.5,M,-33.9,M,0000,0000*5D
$GPRMC,174639.000,A,4026.6692,N,0b‚‚‚‚Rªnj
$GPRMC,174638.000,A,4026.6697,N,07520.6223,W,2.60,187.08,100612,,,D*7B
$PMTK001,314,3*36
$PMTK001,220,3*30
$PMTK001,185,3*3C
$GPGGA,174639.000,4026.6692,N,07520.6223,W,2,10,0.81,180.5,M,-33.9,M,0000,0000*5D
$GPRMC,174639.000,A,4026.6692,N,0b‚‚‚‚Rªnj
$GPRMC,174638.000,A,4026.6697,N,07520.6223,W,2.60,187.08,100612,,,D*7B
$PMTK001,314,3*36
$PMTK001,220,3*30
$PMTK001,185,3*3C
$GPGGA,174639.000,4026.6692,N,07520.6223,W,2,10,0.81,180.5,M,-33.9,M,0000,0000*5D
$GPRMC,174639.000,A,4026.6692,N,0b‚‚‚‚Rªnj
$GPRMC,174638.000,A,4026.6697,N,07520.6223,W,2.60,187.08,100612,,,D*7B
$PMTK001,314,3*36
$PMTK001,220,3*30
$PMTK001,185,3*3C
$GPGGA,174639.000,4026.6692,N,07520.6223,W,2,10,0.81,180.5,M,-33.9,M,0000,0000*5D
$GPRMC,174639.000,A,4026.6692,N,0b‚‚‚‚Rªnj
$GPRMC,174638.000,A,4026.6697,N,07520.6223,W,2.60,187.08,100612,,,D*7B
$PMTK001,314,3*36
$PMTK001,220,3*30
$PMTK001,185,3*3C
$GPGGA,174639.000,4026.6692,N,07520.6223,W,2,10,0.81,180.5,M,-33.9,M,0000,0000*5D
$GPRMC,174639.000,A,4026.6692,N,0b‚‚‚‚Rªnj
$GPRMC,174638.000,A,4026.6697,N,07520.6223,W,2.60,187.08,100612,,,D*7B
$PMTK001,314,3*36
$PMTK001,220,3*30
$PMTK001,185,3*3C
$GPGGA,174639.000,4026.6692,N,07520.6223,W,2,10,0.81,180.5,M,-33.9,M,0000,0000*5D
$GPRMC,174639.000,A,4026.6692,N,0