$GPGGA,184839.000,4008.3612,N,07506.2254,W,2,12,0.82,8650.4,M,-34.0,M,0000,0000*61
$GPRMC,184839.000,A,4008.3612,N,07506.2254,W,21.44,153.12,100612,,,D*4A
$PMTK001,314,3*36
$PMTK001,220,3*30
$PMTK001,185,3*3C
$GPGGA,184840.000,4008.3559,N,07506.2223,$GPGGA,184839.000,4008.3612,N,07506.2254,W,2,12,0.82,8650.4,M,-34.0,M,0000,0000*61
$GPRMC,184839.000,A,4008.3612,N,07506.2254,W,21.44,153.12,100612,,,D*4A
$PMTK001,314,3*36
$PMTK001,220,3*30
$PMTK001,185,3*3C
$GPGGA,184840.000,4008.3559,N,07506.2223,$GPGGA,184839.000,4008.3612,N,07506.2254,W,2,12,0.82,8650.4,M,-34.0,M,0000,0000*61
$GPRMC,184839.000,A,4008.3612,N,07506.2254,W,21.44,153.12,100612,,,D*4A
$PMTK001,314,3*36
$PMTK001,220,3*30
$PMTK001,185,3*3C
$GPGGA,184840.000,4008.3559,N,07506.2223,$GPGGA,184839.000,4008.3612,N,07506.2254,W,2,12,0.82,8650.4,M,-34.0,M,0000,0000*61
$GPRMC,184839.000,A,4008.3612,N,07506.2254,W,21.44,153.12,100612,,,D*4A
$PMTK001,314,3*36
$PMTK001,220,3*30
$PMTK001,185,3*3C
$GPGGA,184840.000,4008.3559,N,07506.2223,$GPGGA,184839.000,4008.3612,N,07506.2254,W,2,12,0.82,8650.4,M,-34.0,M,0000,0000*61
$GPRMC,184839.000,A,4008.3612,N,07506.2254,W,21.44,153.12,100612,,,D*4A
$PMTK001,314,3*36
$PMTK001,220,3*30
$PMTK001,185,3*3C
$GPGGA,184840.000,4008.3559,N,07506.2223,$GPGGA,184839.000,4008.3612,N,07506.2254,W,2,12,0.82,8650.4,M,-34.0,M,0000,0000*61
$GPRMC,184839.000,A,4008.3612,N,07506.2254,W,21.44,153.12,100612,,,D*4A
$PMTK001,314,3*36
$PMTK001,220,3*30
$PMTK001,185,3*3C
$GPGGA,184840.000,4008.3559,N,07506.2223,$GPGGA,184839.000,4008.3612,N,07506.2254,W,2,12,0.82,8650.4,M,-34.0,M,0000,0000*61
$GPRMC,184839.000,A,4008.3612,N,07506.2254,W,21.44,153.12,100612,,,D*4A
$PMTK001,314,3*36
$PMTK001,220,3*30
$PMTK001,185,3*3C
$GPGGA,184840.000,4008.3559,N,07506.2223,$GPGGA,184839.000,4008.3612,N,07506.2254,W,2,12,0.82,8650.4,M,-34.0,M,0000,0000*61
$GPRMC,184839.000,A,4008.3612,N,07506.2254,W,21.44,153.12,100612,,,D*4A
$PMTK001,314,3*36
$PMTK001,220,3*30
$PMTK001,185,3*3C
$GPGGA,184840.000,4008.3559,N,07506.2223,$GPGGA,184839.000,4008.3612,N,07506.2254,W,2,12,0.82,8650.4,M,-34.0,M,0000,0000*61
$GPRMC,184839.000,A,4008.3612,N,07506.2254,W,21.44,153.12,100612,,,D*4A
$PMTK001,314,3*36
$PMTK001,220,3*30
$PMTK001,185,3*3C
$GPGGA,184840.000,4008.3559,N,07506.2223,$GPGGA,184839.000,4008.3612,N,07506.2254,W,2,12,0.82,8650.4,M,-34.0,M,0000,0000*61
$GPRMC,184839.000,A,4008.3612,N,07506.2254,W,21.44,153.12,100612,,,D*4A
$PMTK001,314,3*36
$PMTK001,220,3*30
$PMTK001,185,3*3C
$GPGGA,184840.000,4008.3559,N,07506.2223,$GPGGA,184839.000,4008.3612,N,07506.2254,W,2,12,0.82,8650.4,M,-34.0,M,0000,0000*61
$GPRMC,184839.000,A,4008.3612,N,07506.2254,W,21.44,153.12,100612,,,D*4A
$PMTK001,314,3*36
$PMTK001,220,3*30
$PMTK001,185,3*3C
$GPGGA,184840.000,4008.3559,N,07506.2223,$GPGGA,184839.000,4008.3612,N,07506.2254,W,2,12,0.82,8650.4,M,-34.0,M,0000,0000*61
$GPRMC,184839.000,A,4008.3612,N,07506.2254,W,21.44,153.12,100612,,,D*4A
$PMTK001,314,3*36
$PMTK001,220,3*30
$PMTK001,185,3*3C
$GPGGA,184840.000,4008.3559,N,07506.2223,$GPGGA,184839.000,4008.3612,N,07506.2254,W,2,12,0.82,8650.4,M,-34.0,M,0000,0000*61
$GPRMC,184839.000,A,4008.3612,N,07506.2254,W,21.44,153.12,100612,,,D*4A
$PMTK001,314,3*36
$PMTK001,220,3*30
$PMTK001,185,3*3C
$GPGGA,184840.000,4008.3559,N,07506.2223,$GPGGA,184839.000,4008.3612,N,07506.2254,W,2,12,0.82,8650.4,M,-34.0,M,0000,0000*61
$GPRMC,184839.000,A,4008.3612,N,07506.2254,W,21.44,153.12,100612,,,D*4A
$PMTK001,314,3*36
$PMTK001,220,3*30
$PMTK001,185,3*3C
$GPGGA,184840.000,4008.3559,N,07506.2223,$GPGGA,184839.000,4008.3612,N,07506.2254,W,2,12,0.82,8650.4,M,-34.0,M,0000,0000*61
$GPRMC,184839.000,A,4008.3612,N,07506.2254,W,21.44,153.12,100612,,,D*4A
$PMTK001,314,3*36
$PMTK001,220,3*30
$PMTK001,185,3*3C
$GPGGA,184840.000,4008.3559,N,07506.2223,$GPGGA,184839.000,4008.3612,N,07506.2254,W,2,12,0.82,8650.4,M,-34.0,M,0000,0000*61
$GPRMC,184839.000,A,4008.3612,N,07506.2254,W,21.44,153.12,100612,,,D*4A
$PMTK001,314,3*36
$PMTK001,220,3*30
$PMTK001,185,3*3C
$GPGGA,184840.000,4008.3559,N,07506.2223,$GPGGA,184839.000,4008.3612,N,07506.2254,W,2,12,0.82,8650.4,M,-34.0,M,0000,0000*61
$GPRMC,184839.000,A,4008.3612,N,07506.2254,W,21.44,153.12,100612,,,D*4A
$PMTK001,314,3*36
$PMTK001,220,3*30
$PMTK001,185,3*3C
$GPGGA,184840.000,4008.3559,N,07506.2223,$GPGGA,184839.000,4008.3612,N,07506.2254,W,2,12,0.82,8650.4,M,-34.0,M,0000,0000*61
$GPRMC,184839.000,A,4008.3612,N,07506.2254,W,21.44,153.12,100612,,,D*4A
$PMTK001,314,3*36
$PMTK001,220,3*30
$PMTK001,185,3*3C
$GPGGA,184840.000,4008.3559,N,07506.2223,$GPGGA,184839.000,4008.3612,N,07506.2254,W,2,12,0.82,8650.4,M,-34.0,M,0000,0000*61
$GPRMC,184839.000,A,4008.3612,N,07506.2254,W,21.44,153.12,100612,,,D*4A
$PMTK001,314,3*36
$PMTK001,220,3*30
$PMTK001,185,3*3C
$GPGGA,184840.000,4008.3559,N,07506.2223,$GPGGA,184839.000,4008.3612,N,07506.2254,W,2,12,0.82,8650.4,M,-34.0,M,0000,0000*61
$GPRMC,184839.000,A,4008.3612,N,07506.2254,W,21.44,153.12,100612,,,D*4A
$PMTK001,314,3*36
$PMTK001,220,3*30
$PMTK001,185,3*3C
$GPGGA,184840.000,4008.3559,N,07506.2223,$GPGGA,184839.000,4008.3612,N,07506.2254,W,2,12,0.82,8650.4,M,-34.0,M,0000,0000*61
$GPRMC,184839.000,A,4008.3612,N,07506.2254,W,21.44,153.12,100612,,,D*4A
$PMTK001,314,3*36
$PMTK001,220,3*30
$PMTK001,185,3*3C
$GPGGA,184840.000,4008.3559,N,07506.2223,$GPGGA,184839.000,4008.3612,N,07506.2254,W,2,12,0.82,8650.4,M,-34.0,M,0000,0000*61
$GPRMC,184839.000,A,4008.3612,N,07506.2254,W,21.44,153.12,100612,,,D*4A
$PMTK001,314,3*36
$PMTK001,220,3*30
$PMTK001,185,3*3C
$GPGGA,184840.000,4008.3559,N,07506.2223,$GPGGA,184839.000,4008.3612,N,07506.2254,W,2,12,0.82,8650.4,M,-34.0,M,0000,0000*61
$GPRMC,184839.000,A,4008.3612,N,07506.2254,W,21.44,153.12,100612,,,D*4A
$PMTK001,314,3*36
$PMTK001,220,3*30
$PMTK001,185,3*3C
$GPGGA,184840.000,4008.3559,N,07506.2223,$GPGGA,184839.000,4008.3612,N,07506.2254,W,2,12,0.82,8650.4,M,-34.0,M,0000,0000*61
$GPRMC,184839.000,A,4008.3612,N,07506.2254,W,21.44,153.12,100612,,,D*4A
$PMTK001,314,3*36
$PMTK001,220,3*30
$PMTK001,185,3*3C
$GPGGA,184840.000,4008.3559,N,07506.2223,$GPGGA,184839.000,4008.3612,N,07506.2254,W,2,12,0.82,8650.4,M,-34.0,M,0000,0000*61
$GPRMC,184839.000,A,4008.3612,N,07506.2254,W,21.44,153.12,100612,,,D*4A
$PMTK001,314,3*36
$PMTK001,220,3*30
$PMTK001,185,3*3C
$GPGGA,184840.000,4008.3559,N,07506.2223,$GPGGA,184839.000,4008.3612,N,07506.2254,W,2,12,0.82,8650.4,M,-34.0,M,0000,0000*61
$GPRMC,184839.000,A,4008.3612,N,07506.2254,W,21.44,153.12,100612,,,D*4A
$PMTK001,314,3*36
$PMTK001,220,3*30
$PMTK001,185,3*3C
$GPGGA,184840.000,4008.3559,N,07506.2223,$GPGGA,184839.000,4008.3612,N,07506.2254,W,2,12,0.82,8650.4,M,-34.0,M,0000,0000*61
$GPRMC,184839.000,A,4008.3612,N,07506.2254,W,21.44,153.12,100612,,,D*4A
$PMTK001,314,3*36
$PMTK001,220,3*30
$PMTK001,185,3*3C
$GPGGA,184840.000,4008.3559,N,07506.2223,$GPGGA,184839.000,4008.3612,N,07506.2254,W,2,12,0.82,8650.4,M,-34.0,M,0000,0000*61
$GPRMC,184839.000,A,4008.3612,N,07506.2254,W,21.44,153.12,100612,,,D*4A
$PMTK001,314,3*36
$PMTK001,220,3*30
$PMTK001,185,3*3C
$GPGGA,184840.000,4008.3559,N,07506.2223,$GPGGA,184839.000,4008.3612,N,07506.2254,W,2,12,0.82,8650.4,M,-34.0,M,0000,0000*61
$GPRMC,184839.000,A,4008.3612,N,07506.2254,W,21.44,153.12,100612,,,D*4A
$PMTK001,314,3*36
$PMTK001,220,3*30
$PMTK001,185,3*3C
$GPGGA,184840.000,4008.3559,N,07506.2223,$GPGGA,184839.000,4008.3612,N,07506.2254,W,2,12,0.82,8650.4,M,-34.0,M,0000,0000*61
$GPRMC,184839.000,A,4008.3612,N,07506.2254,W,21.44,153.12,100612,,,D*4A
$PMTK001,314,3*36
$PMTK001,220,3*30
$PMTK001,185,3*3C
$GPGGA,184840.000,4008.3559,N,07506.2223,$GPGGA,184839.000,4008.3612,N,07506.2254,W,2,12,0.82,8650.4,M,-34.0,M,0000,0000*61
$GPRMC,184839.000,A,4008.3612,N,07506.2254,W,21.44,153.12,100612,,,D*4A
$PMTK001,314,3*36
$PMTK001,220,3*30
$PMTK001,185,3*3C
$GPGGA,184840.000,4008.3559,N,07506.2223,$GPGGA,184839.000,4008.3612,N,07506.2254,W,2,12,0.82,8650.4,M,-34.0,M,0000,0000*61
$GPRMC,184839.000,A,4008.3612,N,07506.2254,W,21.44,153.12,100612,,,D*4A
$PMTK001,314,3*36
$PMTK001,220,3*30
$PMTK001,185,3*3C
$GPGGA,184840.000,4008.3559,N,07506.2223,$GPGGA,184839.000,4008.3612,N,07506.2254,W,2,12,0.82,8650.4,M,-34.0,M,0000,0000*61
$GPRMC,184839.000,A,4008.3612,N,07506.2254,W,21.44,153.12,100612,,,D*4A
$PMTK001,314,3*36
$PMTK001,220,3*30
$PMTK001,185,3*3C
$GPGGA,184840.000,4008.3559,N,07506.2223,$GPGGA,184839.000,4008.3612,N,07506.2254,W,2,12,0.82,8650.4,M,-34.0,M,0000,0000*61
$GPRMC,184839.000,A,4008.3612,N,07506.2254,W,21.44,153.12,100612,,,D*4A
$PMTK001,314,3*36
$PMTK001,220,3*30
$PMTK001,185,3*3C
$GPGGA,184840.000,4008.3559,N,07506.2223,$GPGGA,184839.000,4008.3612,N,07506.2254,W,2,12,0.82,8650.4,M,-34.0,M,0000,0000*61
$GPRMC,184839.000,A,4008.3612,N,07506.2254,W,21.44,153.12,100612,,,D*4A
$PMTK001,314,3*36
$PMTK001,220,3*30
$PMTK001,185,3*3C
$GPGGA,184840.000,4008.3559,N,07506.2223,$GPGGA,184839.000,4008.3612,N,07506.2254,W,2,12,0.82,8650.4,M,-34.0,M,0000,0000*61
$GPRMC,184839.000,A,4008.3612,N,07506.2254,W,21.44,153.12,100612,,,D*4A
$PMTK001,314,3*36
$PMTK001,220,3*30
$PMTK001,185,3*3C
$GPGGA,184840.000,4008.3559,N,07506.2223,$GPGGA,184839.000,4008.3612,N,07506.2254,W,2,12,0.82,8650.4,M,-34.0,M,0000,0000*61
$GPRMC,184839.000,A,4008.3612,N,07506.2254,W,21.44,153.12,100612,,,D*4A
$PMTK001,314,3*36
$PMTK001,220,3*30
$PMTK001,185,3*3C
$GPGGA,184840.000,4008.3559,N,07506.2223,$GPGGA,184839.000,4008.3612,N,07506.2254,W,2,12,0.82,8650.4,M,-34.0,M,0000,0000*61
$GPRMC,184839.000,A,4008.3612,N,07506.2254,W,21.44,153.12,100612,,,D*4A
$PMTK001,314,3*36
$PMTK001,220,3*30
$PMTK001,185,3*3C
$GPGGA,184840.000,4008.3559,N,07506.2223,$GPGGA,184839.000,4008.3612,N,07506.2254,W,2,12,0.82,8650.4,M,-34.0,M,0000,0000*61
$GPRMC,184839.000,A,4008.3612,N,07506.2254,W,21.44,153.12,100612,,,D*4A
$PMTK001,314,3*36
$PMTK001,220,3*30
$PMTK001,185,3*3C
$GPGGA,184840.000,4008.3559,N,07506.2223,$GPGGA,184839.000,4008.3612,N,07506.2254,W,2,12,0.82,8650.4,M,-34.0,M,0000,0000*61
$GPRMC,184839.000,A,4008.3612,N,07506.2254,W,21.44,153.12,100612,,,D*4A
$PMTK001,314,3*36
$PMTK001,220,3*30
$PMTK001,185,3*3C
$GPGGA,184840.000,4008.3559,N,07506.2223,$GPGGA,184839.000,4008.3612,N,07506.2254,W,2,12,0.82,8650.4,M,-34.0,M,0000,0000*61
$GPRMC,184839.000,A,4008.3612,N,07506.2254,W,21.44,153.12,100612,,,D*4A
$PMTK001,314,3*36
$PMTK001,220,3*30
$PMTK001,185,3*3C
$GPGGA,184840.000,4008.3559,N,07506.2223,$GPGGA,184839.000,4008.3612,N,07506.2254,W,2,12,0.82,8650.4,M,-34.0,M,0000,0000*61
$GPRMC,184839.000,A,4008.3612,N,07506.2254,W,21.44,153.12,100612,,,D*4A
$PMTK001,314,3*36
$PMTK001,220,3*30
$PMTK001,185,3*3C
$GPGGA,184840.000,4008.3559,N,07506.2223,$GPGGA,184839.000,4008.3612,N,07506.2254,W,2,12,0.82,8650.4,M,-34.0,M,0000,0000*61
$GPRMC,184839.000,A,4008.3612,N,07506.2254,W,21.44,153.12,100612,,,D*4A
$PMTK001,314,3*36
$PMTK001,220,3*30
$PMTK001,185,3*3C
$GPGGA,184840.000,4008.3559,N,07506.2223,$GPGGA,184839.000,4008.3612,N,07506.2254,W,2,12,0.82,8650.4,M,-34.0,M,0000,0000*61
$GPRMC,184839.000,A,4008.3612,N,07506.2254,W,21.44,153.12,100612,,,D*4A
$PMTK001,314,3*36
$PMTK001,220,3*30
$PMTK001,185,3*3C
$GPGGA,184840.000,4008.3559,N,07506.2223,$GPGGA,184839.000,4008.3612,N,07506.2254,W,2,12,0.82,8650.4,M,-34.0,M,0000,0000*61
$GPRMC,184839.000,A,4008.3612,N,07506.2254,W,21.44,153.12,100612,,,D*4A
$PMTK001,314,3*36
$PMTK001,220,3*30
$PMTK001,185,3*3C
$GPGGA,184840.000,4008.3559,N,07506.2223,$GPGGA,184839.000,4008.3612,N,07506.2254,W,2,12,0.82,8650.4,M,-34.0,M,0000,0000*61
$GPRMC,184839.000,A,4008.3612,N,07506.2254,W,21.44,153.12,100612,,,D*4A
$PMTK001,314,3*36
$PMTK001,220,3*30
$PMTK001,185,3*3C
$GPGGA,184840.000,4008.3559,N,07506.2223,$GPGGA,184839.000,4008.3612,N,07506.2254,W,2,12,0.82,8650.4,M,-34.0,M,0000,0000*61
$GPRMC,184839.000,A,4008.3612,N,07506.2254,W,21.44,153.12,100612,,,D*4A
$PMTK001,314,3*36
$PMTK001,220,3*30
$PMTK001,185,3*3C
$GPGGA,184840.000,4008.3559,N,07506.2223,$GPGGA,184839.000,4008.3612,N,07506.2254,W,2,12,0.82,8650.4,M,-34.0,M,0000,0000*61
$GPRMC,184839.000,A,4008.3612,N,07506.2254,W,21.44,153.12,100612,,,D*4A
$PMTK001,314,3*36
$PMTK001,220,3*30
$PMTK001,185,3*3C
$GPGGA,184840.000,4008.3559,N,07506.2223,$GPGGA,184839.000,4008.3612,N,07506.2254,W,2,12,0.82,8650.4,M,-34.0,M,0000,0000*61
$GPRMC,184839.000,A,4008.3612,N,07506.2254,W,21.44,153.12,100612,,,D*4A
$PMTK001,314,3*36
$PMTK001,220,3*30
$PMTK001,185,3*3C
$GPGGA,184840.000,4008.3559,N,07506.2223,$GPGGA,184839.000,4008.3612,N,07506.2254,W,2,12,0.82,8650.4,M,-34.0,M,0000,0000*61
$GPRMC,184839.000,A,4008.3612,N,07506.2254,W,21.44,153.12,100612,,,D*4A
$PMTK001,314,3*36
$PMTK001,220,3*30
$PMTK001,185,3*3C
$GPGGA,184840.000,4008.3559,N,07506.2223,$GPGGA,184839.000,4008.3612,N,07506.2254,W,2,12,0.82,8650.4,M,-34.0,M,0000,0000*61
$GPRMC,184839.000,A,4008.3612,N,07506.2254,W,21.44,153.12,100612,,,D*4A
$PMTK001,314,3*36
$PMTK001,220,3*30
$PMTK001,185,3*3C
$GPGGA,184840.000,4008.3559,N,07506.2223,$GPGGA,184839.000,4008.3612,N,07506.2254,W,2,12,0.82,8650.4,M,-34.0,M,0000,0000*61
$GPRMC,184839.000,A,4008.3612,N,07506.2254,W,21.44,153.12,100612,,,D*4A
$PMTK001,314,3*36
$PMTK001,220,3*30
$PMTK001,185,3*3C
$GPGGA,184840.000,4008.3559,N,07506.2223,$GPGGA,184839.000,4008.3612,N,07506.2254,W,2,12,0.82,8650.4,M,-34.0,M,0000,0000*61
$GPRMC,184839.000,A,4008.3612,N,07506.2254,W,21.44,153.12,100612,,,D*4A
$PMTK001,314,3*36
$PMTK001,220,3*30
$PMTK001,185,3*3C
$GPGGA,184840.000,4008.3559,N,07506.2223,$GPGGA,184839.000,4008.3612,N,07506.2254,W,2,12,0.82,8650.4,M,-34.0,M,0000,0000*61
$GPRMC,184839.000,A,4008.3612,N,07506.2254,W,21.44,153.12,100612,,,D*4A
$PMTK001,314,3*36
$PMTK001,220,3*30
$PMTK001,185,3*3C
$GPGGA,184840.000,4008.3559,N,07506.2223,$GPGGA,184839.000,4008.3612,N,07506.2254,W,2,12,0.82,8650.4,M,-34.0,M,0000,0000*61
$GPRMC,184839.000,A,4008.3612,N,07506.2254,W,21.44,153.12,100612,,,D*4A
$PMTK001,314,3*36
$PMTK001,220,3*30
$PMTK001,185,3*3C
$GPGGA,184840.000,4008.3559,N,07506.2223,$GPGGA,184839.000,4008.3612,N,07506.2254,W,2,12,0.82,8650.4,M,-34.0,M,0000,0000*61
$GPRMC,184839.000,A,4008.3612,N,07506.2254,W,21.44,153.12,100612,,,D*4A
$PMTK001,314,3*36
$PMTK001,220,3*30
$PMTK001,185,3*3C
$GPGGA,184840.000,4008.3559,N,07506.2223,$GPGGA,184839.000,4008.3612,N,07506.2254,W,2,12,0.82,8650.4,M,-34.0,M,0000,0000*61
$GPRMC,184839.000,A,4008.3612,N,07506.2254,W,21.44,153.12,100612,,,D*4A
$PMTK001,314,3*36
$PMTK001,220,3*30
$PMTK001,185,3*3C
$GPGGA,184840.000,4008.3559,N,07506.2223,