$PMTK001,314,3*36
$PMTK001,220,3*30
$PMTK001,185,3*3C
$GPGGA,160237.000,4026.7502,N,07520.5886,W,1,9,0.91,153.5,M,-33.9,M,,*6B
$GPRMC,160237.000,A,4026.7502,N,07520.5886,W,0.01,96.86,100612,,,A*4A
$GPGGA,160238.000,4026.7502,N,07520.5886,W,1,9,0.91,1$PMTK001,314,3*36
$PMTK001,220,3*30
$PMTK001,185,3*3C
$GPGGA,160237.000,4026.7502,N,07520.5886,W,1,9,0.91,153.5,M,-33.9,M,,*6B
$GPRMC,160237.000,A,4026.7502,N,07520.5886,W,0.01,96.86,100612,,,A*4A
$GPGGA,160238.000,4026.7502,N,07520.5886,W,1,9,0.91,1$PMTK001,314,3*36
$PMTK001,220,3*30
$PMTK001,185,3*3C
$GPGGA,160237.000,4026.7502,N,07520.5886,W,1,9,0.91,153.5,M,-33.9,M,,*6B
$GPRMC,160237.000,A,4026.7502,N,07520.5886,W,0.01,96.86,100612,,,A*4A
$GPGGA,160238.000,4026.7502,N,07520.5886,W,1,9,0.91,1$PMTK001,314,3*36
$PMTK001,220,3*30
$PMTK001,185,3*3C
$GPGGA,160237.000,4026.7502,N,07520.5886,W,1,9,0.91,153.5,M,-33.9,M,,*6B
$GPRMC,160237.000,A,4026.7502,N,07520.5886,W,0.01,96.86,100612,,,A*4A
$GPGGA,160238.000,4026.7502,N,07520.5886,W,1,9,0.91,1$PMTK001,314,3*36
$PMTK001,220,3*30
$PMTK001,185,3*3C
$GPGGA,160237.000,4026.7502,N,07520.5886,W,1,9,0.91,153.5,M,-33.9,M,,*6B
$GPRMC,160237.000,A,4026.7502,N,07520.5886,W,0.01,96.86,100612,,,A*4A
$GPGGA,160238.000,4026.7502,N,07520.5886,W,1,9,0.91,1$PMTK001,314,3*36
$PMTK001,220,3*30
$PMTK001,185,3*3C
$GPGGA,160237.000,4026.7502,N,07520.5886,W,1,9,0.91,153.5,M,-33.9,M,,*6B
$GPRMC,160237.000,A,4026.7502,N,07520.5886,W,0.01,96.86,100612,,,A*4A
$GPGGA,160238.000,4026.7502,N,07520.5886,W,1,9,0.91,1$PMTK001,314,3*36
$PMTK001,220,3*30
$PMTK001,185,3*3C
$GPGGA,160237.000,4026.7502,N,07520.5886,W,1,9,0.91,153.5,M,-33.9,M,,*6B
$GPRMC,160237.000,A,4026.7502,N,07520.5886,W,0.01,96.86,100612,,,A*4A
$GPGGA,160238.000,4026.7502,N,07520.5886,W,1,9,0.91,1$PMTK001,314,3*36
$PMTK001,220,3*30
$PMTK001,185,3*3C
$GPGGA,160237.000,4026.7502,N,07520.5886,W,1,9,0.91,153.5,M,-33.9,M,,*6B
$GPRMC,160237.000,A,4026.7502,N,07520.5886,W,0.01,96.86,100612,,,A*4A
$GPGGA,160238.000,4026.7502,N,07520.5886,W,1,9,0.91,1$PMTK001,314,3*36
$PMTK001,220,3*30
$PMTK001,185,3*3C
$GPGGA,160237.000,4026.7502,N,07520.5886,W,1,9,0.91,153.5,M,-33.9,M,,*6B
$GPRMC,160237.000,A,4026.7502,N,07520.5886,W,0.01,96.86,100612,,,A*4A
$GPGGA,160238.000,4026.7502,N,07520.5886,W,1,9,0.91,1$PMTK001,314,3*36
$PMTK001,220,3*30
$PMTK001,185,3*3C
$GPGGA,160237.000,4026.7502,N,07520.5886,W,1,9,0.91,153.5,M,-33.9,M,,*6B
$GPRMC,160237.000,A,4026.7502,N,07520.5886,W,0.01,96.86,100612,,,A*4A
$GPGGA,160238.000,4026.7502,N,07520.5886,W,1,9,0.91,1$PMTK001,314,3*36
$PMTK001,220,3*30
$PMTK001,185,3*3C
$GPGGA,160237.000,4026.7502,N,07520.5886,W,1,9,0.91,153.5,M,-33.9,M,,*6B
$GPRMC,160237.000,A,4026.7502,N,07520.5886,W,0.01,96.86,100612,,,A*4A
$GPGGA,160238.000,4026.7502,N,07520.5886,W,1,9,0.91,1$PMTK001,314,3*36
$PMTK001,220,3*30
$PMTK001,185,3*3C
$GPGGA,160237.000,4026.7502,N,07520.5886,W,1,9,0.91,153.5,M,-33.9,M,,*6B
$GPRMC,160237.000,A,4026.7502,N,07520.5886,W,0.01,96.86,100612,,,A*4A
$GPGGA,160238.000,4026.7502,N,07520.5886,W,1,9,0.91,1$PMTK001,314,3*36
$PMTK001,220,3*30
$PMTK001,185,3*3C
$GPGGA,160237.000,4026.7502,N,07520.5886,W,1,9,0.91,153.5,M,-33.9,M,,*6B
$GPRMC,160237.000,A,4026.7502,N,07520.5886,W,0.01,96.86,100612,,,A*4A
$GPGGA,160238.000,4026.7502,N,07520.5886,W,1,9,0.91,1$PMTK001,314,3*36
$PMTK001,220,3*30
$PMTK001,185,3*3C
$GPGGA,160237.000,4026.7502,N,07520.5886,W,1,9,0.91,153.5,M,-33.9,M,,*6B
$GPRMC,160237.000,A,4026.7502,N,07520.5886,W,0.01,96.86,100612,,,A*4A
$GPGGA,160238.000,4026.7502,N,07520.5886,W,1,9,0.91,1$PMTK001,314,3*36
$PMTK001,220,3*30
$PMTK001,185,3*3C
$GPGGA,160237.000,4026.7502,N,07520.5886,W,1,9,0.91,153.5,M,-33.9,M,,*6B
$GPRMC,160237.000,A,4026.7502,N,07520.5886,W,0.01,96.86,100612,,,A*4A
$GPGGA,160238.000,4026.7502,N,07520.5886,W,1,9,0.91,1$PMTK001,314,3*36
$PMTK001,220,3*30
$PMTK001,185,3*3C
$GPGGA,160237.000,4026.7502,N,07520.5886,W,1,9,0.91,153.5,M,-33.9,M,,*6B
$GPRMC,160237.000,A,4026.7502,N,07520.5886,W,0.01,96.86,100612,,,A*4A
$GPGGA,160238.000,4026.7502,N,07520.5886,W,1,9,0.91,1$PMTK001,314,3*36
$PMTK001,220,3*30
$PMTK001,185,3*3C
$GPGGA,160237.000,4026.7502,N,07520.5886,W,1,9,0.91,153.5,M,-33.9,M,,*6B
$GPRMC,160237.000,A,4026.7502,N,07520.5886,W,0.01,96.86,100612,,,A*4A
$GPGGA,160238.000,4026.7502,N,07520.5886,W,1,9,0.91,1$PMTK001,314,3*36
$PMTK001,220,3*30
$PMTK001,185,3*3C
$GPGGA,160237.000,4026.7502,N,07520.5886,W,1,9,0.91,153.5,M,-33.9,M,,*6B
$GPRMC,160237.000,A,4026.7502,N,07520.5886,W,0.01,96.86,100612,,,A*4A
$GPGGA,160238.000,4026.7502,N,07520.5886,W,1,9,0.91,1$PMTK001,314,3*36
$PMTK001,220,3*30
$PMTK001,185,3*3C
$GPGGA,160237.000,4026.7502,N,07520.5886,W,1,9,0.91,153.5,M,-33.9,M,,*6B
$GPRMC,160237.000,A,4026.7502,N,07520.5886,W,0.01,96.86,100612,,,A*4A
$GPGGA,160238.000,4026.7502,N,07520.5886,W,1,9,0.91,1$PMTK001,314,3*36
$PMTK001,220,3*30
$PMTK001,185,3*3C
$GPGGA,160237.000,4026.7502,N,07520.5886,W,1,9,0.91,153.5,M,-33.9,M,,*6B
$GPRMC,160237.000,A,4026.7502,N,07520.5886,W,0.01,96.86,100612,,,A*4A
$GPGGA,160238.000,4026.7502,N,07520.5886,W,1,9,0.91,1$PMTK001,314,3*36
$PMTK001,220,3*30
$PMTK001,185,3*3C
$GPGGA,160237.000,4026.7502,N,07520.5886,W,1,9,0.91,153.5,M,-33.9,M,,*6B
$GPRMC,160237.000,A,4026.7502,N,07520.5886,W,0.01,96.86,100612,,,A*4A
$GPGGA,160238.000,4026.7502,N,07520.5886,W,1,9,0.91,1$PMTK001,314,3*36
$PMTK001,220,3*30
$PMTK001,185,3*3C
$GPGGA,160237.000,4026.7502,N,07520.5886,W,1,9,0.91,153.5,M,-33.9,M,,*6B
$GPRMC,160237.000,A,4026.7502,N,07520.5886,W,0.01,96.86,100612,,,A*4A
$GPGGA,160238.000,4026.7502,N,07520.5886,W,1,9,0.91,1$PMTK001,314,3*36
$PMTK001,220,3*30
$PMTK001,185,3*3C
$GPGGA,160237.000,4026.7502,N,07520.5886,W,1,9,0.91,153.5,M,-33.9,M,,*6B
$GPRMC,160237.000,A,4026.7502,N,07520.5886,W,0.01,96.86,100612,,,A*4A
$GPGGA,160238.000,4026.7502,N,07520.5886,W,1,9,0.91,1$PMTK001,314,3*36
$PMTK001,220,3*30
$PMTK001,185,3*3C
$GPGGA,160237.000,4026.7502,N,07520.5886,W,1,9,0.91,153.5,M,-33.9,M,,*6B
$GPRMC,160237.000,A,4026.7502,N,07520.5886,W,0.01,96.86,100612,,,A*4A
$GPGGA,160238.000,4026.7502,N,07520.5886,W,1,9,0.91,1$PMTK001,314,3*36
$PMTK001,220,3*30
$PMTK001,185,3*3C
$GPGGA,160237.000,4026.7502,N,07520.5886,W,1,9,0.91,153.5,M,-33.9,M,,*6B
$GPRMC,160237.000,A,4026.7502,N,07520.5886,W,0.01,96.86,100612,,,A*4A
$GPGGA,160238.000,4026.7502,N,07520.5886,W,1,9,0.91,1$PMTK001,314,3*36
$PMTK001,220,3*30
$PMTK001,185,3*3C
$GPGGA,160237.000,4026.7502,N,07520.5886,W,1,9,0.91,153.5,M,-33.9,M,,*6B
$GPRMC,160237.000,A,4026.7502,N,07520.5886,W,0.01,96.86,100612,,,A*4A
$GPGGA,160238.000,4026.7502,N,07520.5886,W,1,9,0.91,1$PMTK001,314,3*36
$PMTK001,220,3*30
$PMTK001,185,3*3C
$GPGGA,160237.000,4026.7502,N,07520.5886,W,1,9,0.91,153.5,M,-33.9,M,,*6B
$GPRMC,160237.000,A,4026.7502,N,07520.5886,W,0.01,96.86,100612,,,A*4A
$GPGGA,160238.000,4026.7502,N,07520.5886,W,1,9,0.91,1$PMTK001,314,3*36
$PMTK001,220,3*30
$PMTK001,185,3*3C
$GPGGA,160237.000,4026.7502,N,07520.5886,W,1,9,0.91,153.5,M,-33.9,M,,*6B
$GPRMC,160237.000,A,4026.7502,N,07520.5886,W,0.01,96.86,100612,,,A*4A
$GPGGA,160238.000,4026.7502,N,07520.5886,W,1,9,0.91,1$PMTK001,314,3*36
$PMTK001,220,3*30
$PMTK001,185,3*3C
$GPGGA,160237.000,4026.7502,N,07520.5886,W,1,9,0.91,153.5,M,-33.9,M,,*6B
$GPRMC,160237.000,A,4026.7502,N,07520.5886,W,0.01,96.86,100612,,,A*4A
$GPGGA,160238.000,4026.7502,N,07520.5886,W,1,9,0.91,1$PMTK001,314,3*36
$PMTK001,220,3*30
$PMTK001,185,3*3C
$GPGGA,160237.000,4026.7502,N,07520.5886,W,1,9,0.91,153.5,M,-33.9,M,,*6B
$GPRMC,160237.000,A,4026.7502,N,07520.5886,W,0.01,96.86,100612,,,A*4A
$GPGGA,160238.000,4026.7502,N,07520.5886,W,1,9,0.91,1$PMTK001,314,3*36
$PMTK001,220,3*30
$PMTK001,185,3*3C
$GPGGA,160237.000,4026.7502,N,07520.5886,W,1,9,0.91,153.5,M,-33.9,M,,*6B
$GPRMC,160237.000,A,4026.7502,N,07520.5886,W,0.01,96.86,100612,,,A*4A
$GPGGA,160238.000,4026.7502,N,07520.5886,W,1,9,0.91,1$PMTK001,314,3*36
$PMTK001,220,3*30
$PMTK001,185,3*3C
$GPGGA,160237.000,4026.7502,N,07520.5886,W,1,9,0.91,153.5,M,-33.9,M,,*6B
$GPRMC,160237.000,A,4026.7502,N,07520.5886,W,0.01,96.86,100612,,,A*4A
$GPGGA,160238.000,4026.7502,N,07520.5886,W,1,9,0.91,1$PMTK001,314,3*36
$PMTK001,220,3*30
$PMTK001,185,3*3C
$GPGGA,160237.000,4026.7502,N,07520.5886,W,1,9,0.91,153.5,M,-33.9,M,,*6B
$GPRMC,160237.000,A,4026.7502,N,07520.5886,W,0.01,96.86,100612,,,A*4A
$GPGGA,160238.000,4026.7502,N,07520.5886,W,1,9,0.91,1$PMTK001,314,3*36
$PMTK001,220,3*30
$PMTK001,185,3*3C
$GPGGA,160237.000,4026.7502,N,07520.5886,W,1,9,0.91,153.5,M,-33.9,M,,*6B
$GPRMC,160237.000,A,4026.7502,N,07520.5886,W,0.01,96.86,100612,,,A*4A
$GPGGA,160238.000,4026.7502,N,07520.5886,W,1,9,0.91,1$PMTK001,314,3*36
$PMTK001,220,3*30
$PMTK001,185,3*3C
$GPGGA,160237.000,4026.7502,N,07520.5886,W,1,9,0.91,153.5,M,-33.9,M,,*6B
$GPRMC,160237.000,A,4026.7502,N,07520.5886,W,0.01,96.86,100612,,,A*4A
$GPGGA,160238.000,4026.7502,N,07520.5886,W,1,9,0.91,1$PMTK001,314,3*36
$PMTK001,220,3*30
$PMTK001,185,3*3C
$GPGGA,160237.000,4026.7502,N,07520.5886,W,1,9,0.91,153.5,M,-33.9,M,,*6B
$GPRMC,160237.000,A,4026.7502,N,07520.5886,W,0.01,96.86,100612,,,A*4A
$GPGGA,160238.000,4026.7502,N,07520.5886,W,1,9,0.91,1$PMTK001,314,3*36
$PMTK001,220,3*30
$PMTK001,185,3*3C
$GPGGA,160237.000,4026.7502,N,07520.5886,W,1,9,0.91,153.5,M,-33.9,M,,*6B
$GPRMC,160237.000,A,4026.7502,N,07520.5886,W,0.01,96.86,100612,,,A*4A
$GPGGA,160238.000,4026.7502,N,07520.5886,W,1,9,0.91,1$PMTK001,314,3*36
$PMTK001,220,3*30
$PMTK001,185,3*3C
$GPGGA,160237.000,4026.7502,N,07520.5886,W,1,9,0.91,153.5,M,-33.9,M,,*6B
$GPRMC,160237.000,A,4026.7502,N,07520.5886,W,0.01,96.86,100612,,,A*4A
$GPGGA,160238.000,4026.7502,N,07520.5886,W,1,9,0.91,1$PMTK001,314,3*36
$PMTK001,220,3*30
$PMTK001,185,3*3C
$GPGGA,160237.000,4026.7502,N,07520.5886,W,1,9,0.91,153.5,M,-33.9,M,,*6B
$GPRMC,160237.000,A,4026.7502,N,07520.5886,W,0.01,96.86,100612,,,A*4A
$GPGGA,160238.000,4026.7502,N,07520.5886,W,1,9,0.91,1$PMTK001,314,3*36
$PMTK001,220,3*30
$PMTK001,185,3*3C
$GPGGA,160237.000,4026.7502,N,07520.5886,W,1,9,0.91,153.5,M,-33.9,M,,*6B
$GPRMC,160237.000,A,4026.7502,N,07520.5886,W,0.01,96.86,100612,,,A*4A
$GPGGA,160238.000,4026.7502,N,07520.5886,W,1,9,0.91,1$PMTK001,314,3*36
$PMTK001,220,3*30
$PMTK001,185,3*3C
$GPGGA,160237.000,4026.7502,N,07520.5886,W,1,9,0.91,153.5,M,-33.9,M,,*6B
$GPRMC,160237.000,A,4026.7502,N,07520.5886,W,0.01,96.86,100612,,,A*4A
$GPGGA,160238.000,4026.7502,N,07520.5886,W,1,9,0.91,1$PMTK001,314,3*36
$PMTK001,220,3*30
$PMTK001,185,3*3C
$GPGGA,160237.000,4026.7502,N,07520.5886,W,1,9,0.91,153.5,M,-33.9,M,,*6B
$GPRMC,160237.000,A,4026.7502,N,07520.5886,W,0.01,96.86,100612,,,A*4A
$GPGGA,160238.000,4026.7502,N,07520.5886,W,1,9,0.91,1$PMTK001,314,3*36
$PMTK001,220,3*30
$PMTK001,185,3*3C
$GPGGA,160237.000,4026.7502,N,07520.5886,W,1,9,0.91,153.5,M,-33.9,M,,*6B
$GPRMC,160237.000,A,4026.7502,N,07520.5886,W,0.01,96.86,100612,,,A*4A
$GPGGA,160238.000,4026.7502,N,07520.5886,W,1,9,0.91,1$PMTK001,314,3*36
$PMTK001,220,3*30
$PMTK001,185,3*3C
$GPGGA,160237.000,4026.7502,N,07520.5886,W,1,9,0.91,153.5,M,-33.9,M,,*6B
$GPRMC,160237.000,A,4026.7502,N,07520.5886,W,0.01,96.86,100612,,,A*4A
$GPGGA,160238.000,4026.7502,N,07520.5886,W,1,9,0.91,1$PMTK001,314,3*36
$PMTK001,220,3*30
$PMTK001,185,3*3C
$GPGGA,160237.000,4026.7502,N,07520.5886,W,1,9,0.91,153.5,M,-33.9,M,,*6B
$GPRMC,160237.000,A,4026.7502,N,07520.5886,W,0.01,96.86,100612,,,A*4A
$GPGGA,160238.000,4026.7502,N,07520.5886,W,1,9,0.91,1$PMTK001,314,3*36
$PMTK001,220,3*30
$PMTK001,185,3*3C
$GPGGA,160237.000,4026.7502,N,07520.5886,W,1,9,0.91,153.5,M,-33.9,M,,*6B
$GPRMC,160237.000,A,4026.7502,N,07520.5886,W,0.01,96.86,100612,,,A*4A
$GPGGA,160238.000,4026.7502,N,07520.5886,W,1,9,0.91,1$PMTK001,314,3*36
$PMTK001,220,3*30
$PMTK001,185,3*3C
$GPGGA,160237.000,4026.7502,N,07520.5886,W,1,9,0.91,153.5,M,-33.9,M,,*6B
$GPRMC,160237.000,A,4026.7502,N,07520.5886,W,0.01,96.86,100612,,,A*4A
$GPGGA,160238.000,4026.7502,N,07520.5886,W,1,9,0.91,1$PMTK001,314,3*36
$PMTK001,220,3*30
$PMTK001,185,3*3C
$GPGGA,160237.000,4026.7502,N,07520.5886,W,1,9,0.91,153.5,M,-33.9,M,,*6B
$GPRMC,160237.000,A,4026.7502,N,07520.5886,W,0.01,96.86,100612,,,A*4A
$GPGGA,160238.000,4026.7502,N,07520.5886,W,1,9,0.91,1$PMTK001,314,3*36
$PMTK001,220,3*30
$PMTK001,185,3*3C
$GPGGA,160237.000,4026.7502,N,07520.5886,W,1,9,0.91,153.5,M,-33.9,M,,*6B
$GPRMC,160237.000,A,4026.7502,N,07520.5886,W,0.01,96.86,100612,,,A*4A
$GPGGA,160238.000,4026.7502,N,07520.5886,W,1,9,0.91,1$PMTK001,314,3*36
$PMTK001,220,3*30
$PMTK001,185,3*3C
$GPGGA,160237.000,4026.7502,N,07520.5886,W,1,9,0.91,153.5,M,-33.9,M,,*6B
$GPRMC,160237.000,A,4026.7502,N,07520.5886,W,0.01,96.86,100612,,,A*4A
$GPGGA,160238.000,4026.7502,N,07520.5886,W,1,9,0.91,1$PMTK001,314,3*36
$PMTK001,220,3*30
$PMTK001,185,3*3C
$GPGGA,160237.000,4026.7502,N,07520.5886,W,1,9,0.91,153.5,M,-33.9,M,,*6B
$GPRMC,160237.000,A,4026.7502,N,07520.5886,W,0.01,96.86,100612,,,A*4A
$GPGGA,160238.000,4026.7502,N,07520.5886,W,1,9,0.91,1$PMTK001,314,3*36
$PMTK001,220,3*30
$PMTK001,185,3*3C
$GPGGA,160237.000,4026.7502,N,07520.5886,W,1,9,0.91,153.5,M,-33.9,M,,*6B
$GPRMC,160237.000,A,4026.7502,N,07520.5886,W,0.01,96.86,100612,,,A*4A
$GPGGA,160238.000,4026.7502,N,07520.5886,W,1,9,0.91,1$PMTK001,314,3*36
$PMTK001,220,3*30
$PMTK001,185,3*3C
$GPGGA,160237.000,4026.7502,N,07520.5886,W,1,9,0.91,153.5,M,-33.9,M,,*6B
$GPRMC,160237.000,A,4026.7502,N,07520.5886,W,0.01,96.86,100612,,,A*4A
$GPGGA,160238.000,4026.7502,N,07520.5886,W,1,9,0.91,1$PMTK001,314,3*36
$PMTK001,220,3*30
$PMTK001,185,3*3C
$GPGGA,160237.000,4026.7502,N,07520.5886,W,1,9,0.91,153.5,M,-33.9,M,,*6B
$GPRMC,160237.000,A,4026.7502,N,07520.5886,W,0.01,96.86,100612,,,A*4A
$GPGGA,160238.000,4026.7502,N,07520.5886,W,1,9,0.91,1$PMTK001,314,3*36
$PMTK001,220,3*30
$PMTK001,185,3*3C
$GPGGA,160237.000,4026.7502,N,07520.5886,W,1,9,0.91,153.5,M,-33.9,M,,*6B
$GPRMC,160237.000,A,4026.7502,N,07520.5886,W,0.01,96.86,100612,,,A*4A
$GPGGA,160238.000,4026.7502,N,07520.5886,W,1,9,0.91,1$PMTK001,314,3*36
$PMTK001,220,3*30
$PMTK001,185,3*3C
$GPGGA,160237.000,4026.7502,N,07520.5886,W,1,9,0.91,153.5,M,-33.9,M,,*6B
$GPRMC,160237.000,A,4026.7502,N,07520.5886,W,0.01,96.86,100612,,,A*4A
$GPGGA,160238.000,4026.7502,N,07520.5886,W,1,9,0.91,1$PMTK001,314,3*36
$PMTK001,220,3*30
$PMTK001,185,3*3C
$GPGGA,160237.000,4026.7502,N,07520.5886,W,1,9,0.91,153.5,M,-33.9,M,,*6B
$GPRMC,160237.000,A,4026.7502,N,07520.5886,W,0.01,96.86,100612,,,A*4A
$GPGGA,160238.000,4026.7502,N,07520.5886,W,1,9,0.91,1$PMTK001,314,3*36
$PMTK001,220,3*30
$PMTK001,185,3*3C
$GPGGA,160237.000,4026.7502,N,07520.5886,W,1,9,0.91,153.5,M,-33.9,M,,*6B
$GPRMC,160237.000,A,4026.7502,N,07520.5886,W,0.01,96.86,100612,,,A*4A
$GPGGA,160238.000,4026.7502,N,07520.5886,W,1,9,0.91,1