$GPGGA,180039.000,4024.7638,N,07518.6772,W,2,10,0.81,2870.8,M,-33.9,M,0000,0000*60
$GPRMC,180039.000,A,4024.7638,N,07518.6772,W,21.95,137.51,100612,,,D*47
$PMTK001,314,3*36
$PMTK001,220,3*30
$PMTK001,185,3*3C
$GPGGA,180040.000,4024.7591,N,07518.6718,$GPGGA,180039.000,4024.7638,N,07518.6772,W,2,10,0.81,2870.8,M,-33.9,M,0000,0000*60
$GPRMC,180039.000,A,4024.7638,N,07518.6772,W,21.95,137.51,100612,,,D*47
$PMTK001,314,3*36
$PMTK001,220,3*30
$PMTK001,185,3*3C
$GPGGA,180040.000,4024.7591,N,07518.6718,$GPGGA,180039.000,4024.7638,N,07518.6772,W,2,10,0.81,2870.8,M,-33.9,M,0000,0000*60
$GPRMC,180039.000,A,4024.7638,N,07518.6772,W,21.95,137.51,100612,,,D*47
$PMTK001,314,3*36
$PMTK001,220,3*30
$PMTK001,185,3*3C
$GPGGA,180040.000,4024.7591,N,07518.6718,$GPGGA,180039.000,4024.7638,N,07518.6772,W,2,10,0.81,2870.8,M,-33.9,M,0000,0000*60
$GPRMC,180039.000,A,4024.7638,N,07518.6772,W,21.95,137.51,100612,,,D*47
$PMTK001,314,3*36
$PMTK001,220,3*30
$PMTK001,185,3*3C
$GPGGA,180040.000,4024.7591,N,07518.6718,$GPGGA,180039.000,4024.7638,N,07518.6772,W,2,10,0.81,2870.8,M,-33.9,M,0000,0000*60
$GPRMC,180039.000,A,4024.7638,N,07518.6772,W,21.95,137.51,100612,,,D*47
$PMTK001,314,3*36
$PMTK001,220,3*30
$PMTK001,185,3*3C
$GPGGA,180040.000,4024.7591,N,07518.6718,$GPGGA,180039.000,4024.7638,N,07518.6772,W,2,10,0.81,2870.8,M,-33.9,M,0000,0000*60
$GPRMC,180039.000,A,4024.7638,N,07518.6772,W,21.95,137.51,100612,,,D*47
$PMTK001,314,3*36
$PMTK001,220,3*30
$PMTK001,185,3*3C
$GPGGA,180040.000,4024.7591,N,07518.6718,$GPGGA,180039.000,4024.7638,N,07518.6772,W,2,10,0.81,2870.8,M,-33.9,M,0000,0000*60
$GPRMC,180039.000,A,4024.7638,N,07518.6772,W,21.95,137.51,100612,,,D*47
$PMTK001,314,3*36
$PMTK001,220,3*30
$PMTK001,185,3*3C
$GPGGA,180040.000,4024.7591,N,07518.6718,$GPGGA,180039.000,4024.7638,N,07518.6772,W,2,10,0.81,2870.8,M,-33.9,M,0000,0000*60
$GPRMC,180039.000,A,4024.7638,N,07518.6772,W,21.95,137.51,100612,,,D*47
$PMTK001,314,3*36
$PMTK001,220,3*30
$PMTK001,185,3*3C
$GPGGA,180040.000,4024.7591,N,07518.6718,$GPGGA,180039.000,4024.7638,N,07518.6772,W,2,10,0.81,2870.8,M,-33.9,M,0000,0000*60
$GPRMC,180039.000,A,4024.7638,N,07518.6772,W,21.95,137.51,100612,,,D*47
$PMTK001,314,3*36
$PMTK001,220,3*30
$PMTK001,185,3*3C
$GPGGA,180040.000,4024.7591,N,07518.6718,$GPGGA,180039.000,4024.7638,N,07518.6772,W,2,10,0.81,2870.8,M,-33.9,M,0000,0000*60
$GPRMC,180039.000,A,4024.7638,N,07518.6772,W,21.95,137.51,100612,,,D*47
$PMTK001,314,3*36
$PMTK001,220,3*30
$PMTK001,185,3*3C
$GPGGA,180040.000,4024.7591,N,07518.6718,$GPGGA,180039.000,4024.7638,N,07518.6772,W,2,10,0.81,2870.8,M,-33.9,M,0000,0000*60
$GPRMC,180039.000,A,4024.7638,N,07518.6772,W,21.95,137.51,100612,,,D*47
$PMTK001,314,3*36
$PMTK001,220,3*30
$PMTK001,185,3*3C
$GPGGA,180040.000,4024.7591,N,07518.6718,$GPGGA,180039.000,4024.7638,N,07518.6772,W,2,10,0.81,2870.8,M,-33.9,M,0000,0000*60
$GPRMC,180039.000,A,4024.7638,N,07518.6772,W,21.95,137.51,100612,,,D*47
$PMTK001,314,3*36
$PMTK001,220,3*30
$PMTK001,185,3*3C
$GPGGA,180040.000,4024.7591,N,07518.6718,$GPGGA,180039.000,4024.7638,N,07518.6772,W,2,10,0.81,2870.8,M,-33.9,M,0000,0000*60
$GPRMC,180039.000,A,4024.7638,N,07518.6772,W,21.95,137.51,100612,,,D*47
$PMTK001,314,3*36
$PMTK001,220,3*30
$PMTK001,185,3*3C
$GPGGA,180040.000,4024.7591,N,07518.6718,$GPGGA,180039.000,4024.7638,N,07518.6772,W,2,10,0.81,2870.8,M,-33.9,M,0000,0000*60
$GPRMC,180039.000,A,4024.7638,N,07518.6772,W,21.95,137.51,100612,,,D*47
$PMTK001,314,3*36
$PMTK001,220,3*30
$PMTK001,185,3*3C
$GPGGA,180040.000,4024.7591,N,07518.6718,$GPGGA,180039.000,4024.7638,N,07518.6772,W,2,10,0.81,2870.8,M,-33.9,M,0000,0000*60
$GPRMC,180039.000,A,4024.7638,N,07518.6772,W,21.95,137.51,100612,,,D*47
$PMTK001,314,3*36
$PMTK001,220,3*30
$PMTK001,185,3*3C
$GPGGA,180040.000,4024.7591,N,07518.6718,$GPGGA,180039.000,4024.7638,N,07518.6772,W,2,10,0.81,2870.8,M,-33.9,M,0000,0000*60
$GPRMC,180039.000,A,4024.7638,N,07518.6772,W,21.95,137.51,100612,,,D*47
$PMTK001,314,3*36
$PMTK001,220,3*30
$PMTK001,185,3*3C
$GPGGA,180040.000,4024.7591,N,07518.6718,$GPGGA,180039.000,4024.7638,N,07518.6772,W,2,10,0.81,2870.8,M,-33.9,M,0000,0000*60
$GPRMC,180039.000,A,4024.7638,N,07518.6772,W,21.95,137.51,100612,,,D*47
$PMTK001,314,3*36
$PMTK001,220,3*30
$PMTK001,185,3*3C
$GPGGA,180040.000,4024.7591,N,07518.6718,$GPGGA,180039.000,4024.7638,N,07518.6772,W,2,10,0.81,2870.8,M,-33.9,M,0000,0000*60
$GPRMC,180039.000,A,4024.7638,N,07518.6772,W,21.95,137.51,100612,,,D*47
$PMTK001,314,3*36
$PMTK001,220,3*30
$PMTK001,185,3*3C
$GPGGA,180040.000,4024.7591,N,07518.6718,$GPGGA,180039.000,4024.7638,N,07518.6772,W,2,10,0.81,2870.8,M,-33.9,M,0000,0000*60
$GPRMC,180039.000,A,4024.7638,N,07518.6772,W,21.95,137.51,100612,,,D*47
$PMTK001,314,3*36
$PMTK001,220,3*30
$PMTK001,185,3*3C
$GPGGA,180040.000,4024.7591,N,07518.6718,$GPGGA,180039.000,4024.7638,N,07518.6772,W,2,10,0.81,2870.8,M,-33.9,M,0000,0000*60
$GPRMC,180039.000,A,4024.7638,N,07518.6772,W,21.95,137.51,100612,,,D*47
$PMTK001,314,3*36
$PMTK001,220,3*30
$PMTK001,185,3*3C
$GPGGA,180040.000,4024.7591,N,07518.6718,$GPGGA,180039.000,4024.7638,N,07518.6772,W,2,10,0.81,2870.8,M,-33.9,M,0000,0000*60
$GPRMC,180039.000,A,4024.7638,N,07518.6772,W,21.95,137.51,100612,,,D*47
$PMTK001,314,3*36
$PMTK001,220,3*30
$PMTK001,185,3*3C
$GPGGA,180040.000,4024.7591,N,07518.6718,$GPGGA,180039.000,4024.7638,N,07518.6772,W,2,10,0.81,2870.8,M,-33.9,M,0000,0000*60
$GPRMC,180039.000,A,4024.7638,N,07518.6772,W,21.95,137.51,100612,,,D*47
$PMTK001,314,3*36
$PMTK001,220,3*30
$PMTK001,185,3*3C
$GPGGA,180040.000,4024.7591,N,07518.6718,$GPGGA,180039.000,4024.7638,N,07518.6772,W,2,10,0.81,2870.8,M,-33.9,M,0000,0000*60
$GPRMC,180039.000,A,4024.7638,N,07518.6772,W,21.95,137.51,100612,,,D*47
$PMTK001,314,3*36
$PMTK001,220,3*30
$PMTK001,185,3*3C
$GPGGA,180040.000,4024.7591,N,07518.6718,$GPGGA,180039.000,4024.7638,N,07518.6772,W,2,10,0.81,2870.8,M,-33.9,M,0000,0000*60
$GPRMC,180039.000,A,4024.7638,N,07518.6772,W,21.95,137.51,100612,,,D*47
$PMTK001,314,3*36
$PMTK001,220,3*30
$PMTK001,185,3*3C
$GPGGA,180040.000,4024.7591,N,07518.6718,$GPGGA,180039.000,4024.7638,N,07518.6772,W,2,10,0.81,2870.8,M,-33.9,M,0000,0000*60
$GPRMC,180039.000,A,4024.7638,N,07518.6772,W,21.95,137.51,100612,,,D*47
$PMTK001,314,3*36
$PMTK001,220,3*30
$PMTK001,185,3*3C
$GPGGA,180040.000,4024.7591,N,07518.6718,$GPGGA,180039.000,4024.7638,N,07518.6772,W,2,10,0.81,2870.8,M,-33.9,M,0000,0000*60
$GPRMC,180039.000,A,4024.7638,N,07518.6772,W,21.95,137.51,100612,,,D*47
$PMTK001,314,3*36
$PMTK001,220,3*30
$PMTK001,185,3*3C
$GPGGA,180040.000,4024.7591,N,07518.6718,$GPGGA,180039.000,4024.7638,N,07518.6772,W,2,10,0.81,2870.8,M,-33.9,M,0000,0000*60
$GPRMC,180039.000,A,4024.7638,N,07518.6772,W,21.95,137.51,100612,,,D*47
$PMTK001,314,3*36
$PMTK001,220,3*30
$PMTK001,185,3*3C
$GPGGA,180040.000,4024.7591,N,07518.6718,$GPGGA,180039.000,4024.7638,N,07518.6772,W,2,10,0.81,2870.8,M,-33.9,M,0000,0000*60
$GPRMC,180039.000,A,4024.7638,N,07518.6772,W,21.95,137.51,100612,,,D*47
$PMTK001,314,3*36
$PMTK001,220,3*30
$PMTK001,185,3*3C
$GPGGA,180040.000,4024.7591,N,07518.6718,$GPGGA,180039.000,4024.7638,N,07518.6772,W,2,10,0.81,2870.8,M,-33.9,M,0000,0000*60
$GPRMC,180039.000,A,4024.7638,N,07518.6772,W,21.95,137.51,100612,,,D*47
$PMTK001,314,3*36
$PMTK001,220,3*30
$PMTK001,185,3*3C
$GPGGA,180040.000,4024.7591,N,07518.6718,$GPGGA,180039.000,4024.7638,N,07518.6772,W,2,10,0.81,2870.8,M,-33.9,M,0000,0000*60
$GPRMC,180039.000,A,4024.7638,N,07518.6772,W,21.95,137.51,100612,,,D*47
$PMTK001,314,3*36
$PMTK001,220,3*30
$PMTK001,185,3*3C
$GPGGA,180040.000,4024.7591,N,07518.6718,$GPGGA,180039.000,4024.7638,N,07518.6772,W,2,10,0.81,2870.8,M,-33.9,M,0000,0000*60
$GPRMC,180039.000,A,4024.7638,N,07518.6772,W,21.95,137.51,100612,,,D*47
$PMTK001,314,3*36
$PMTK001,220,3*30
$PMTK001,185,3*3C
$GPGGA,180040.000,4024.7591,N,07518.6718,$GPGGA,180039.000,4024.7638,N,07518.6772,W,2,10,0.81,2870.8,M,-33.9,M,0000,0000*60
$GPRMC,180039.000,A,4024.7638,N,07518.6772,W,21.95,137.51,100612,,,D*47
$PMTK001,314,3*36
$PMTK001,220,3*30
$PMTK001,185,3*3C
$GPGGA,180040.000,4024.7591,N,07518.6718,$GPGGA,180039.000,4024.7638,N,07518.6772,W,2,10,0.81,2870.8,M,-33.9,M,0000,0000*60
$GPRMC,180039.000,A,4024.7638,N,07518.6772,W,21.95,137.51,100612,,,D*47
$PMTK001,314,3*36
$PMTK001,220,3*30
$PMTK001,185,3*3C
$GPGGA,180040.000,4024.7591,N,07518.6718,$GPGGA,180039.000,4024.7638,N,07518.6772,W,2,10,0.81,2870.8,M,-33.9,M,0000,0000*60
$GPRMC,180039.000,A,4024.7638,N,07518.6772,W,21.95,137.51,100612,,,D*47
$PMTK001,314,3*36
$PMTK001,220,3*30
$PMTK001,185,3*3C
$GPGGA,180040.000,4024.7591,N,07518.6718,$GPGGA,180039.000,4024.7638,N,07518.6772,W,2,10,0.81,2870.8,M,-33.9,M,0000,0000*60
$GPRMC,180039.000,A,4024.7638,N,07518.6772,W,21.95,137.51,100612,,,D*47
$PMTK001,314,3*36
$PMTK001,220,3*30
$PMTK001,185,3*3C
$GPGGA,180040.000,4024.7591,N,07518.6718,$GPGGA,180039.000,4024.7638,N,07518.6772,W,2,10,0.81,2870.8,M,-33.9,M,0000,0000*60
$GPRMC,180039.000,A,4024.7638,N,07518.6772,W,21.95,137.51,100612,,,D*47
$PMTK001,314,3*36
$PMTK001,220,3*30
$PMTK001,185,3*3C
$GPGGA,180040.000,4024.7591,N,07518.6718,$GPGGA,180039.000,4024.7638,N,07518.6772,W,2,10,0.81,2870.8,M,-33.9,M,0000,0000*60
$GPRMC,180039.000,A,4024.7638,N,07518.6772,W,21.95,137.51,100612,,,D*47
$PMTK001,314,3*36
$PMTK001,220,3*30
$PMTK001,185,3*3C
$GPGGA,180040.000,4024.7591,N,07518.6718,$GPGGA,180039.000,4024.7638,N,07518.6772,W,2,10,0.81,2870.8,M,-33.9,M,0000,0000*60
$GPRMC,180039.000,A,4024.7638,N,07518.6772,W,21.95,137.51,100612,,,D*47
$PMTK001,314,3*36
$PMTK001,220,3*30
$PMTK001,185,3*3C
$GPGGA,180040.000,4024.7591,N,07518.6718,$GPGGA,180039.000,4024.7638,N,07518.6772,W,2,10,0.81,2870.8,M,-33.9,M,0000,0000*60
$GPRMC,180039.000,A,4024.7638,N,07518.6772,W,21.95,137.51,100612,,,D*47
$PMTK001,314,3*36
$PMTK001,220,3*30
$PMTK001,185,3*3C
$GPGGA,180040.000,4024.7591,N,07518.6718,$GPGGA,180039.000,4024.7638,N,07518.6772,W,2,10,0.81,2870.8,M,-33.9,M,0000,0000*60
$GPRMC,180039.000,A,4024.7638,N,07518.6772,W,21.95,137.51,100612,,,D*47
$PMTK001,314,3*36
$PMTK001,220,3*30
$PMTK001,185,3*3C
$GPGGA,180040.000,4024.7591,N,07518.6718,$GPGGA,180039.000,4024.7638,N,07518.6772,W,2,10,0.81,2870.8,M,-33.9,M,0000,0000*60
$GPRMC,180039.000,A,4024.7638,N,07518.6772,W,21.95,137.51,100612,,,D*47
$PMTK001,314,3*36
$PMTK001,220,3*30
$PMTK001,185,3*3C
$GPGGA,180040.000,4024.7591,N,07518.6718,$GPGGA,180039.000,4024.7638,N,07518.6772,W,2,10,0.81,2870.8,M,-33.9,M,0000,0000*60
$GPRMC,180039.000,A,4024.7638,N,07518.6772,W,21.95,137.51,100612,,,D*47
$PMTK001,314,3*36
$PMTK001,220,3*30
$PMTK001,185,3*3C
$GPGGA,180040.000,4024.7591,N,07518.6718,$GPGGA,180039.000,4024.7638,N,07518.6772,W,2,10,0.81,2870.8,M,-33.9,M,0000,0000*60
$GPRMC,180039.000,A,4024.7638,N,07518.6772,W,21.95,137.51,100612,,,D*47
$PMTK001,314,3*36
$PMTK001,220,3*30
$PMTK001,185,3*3C
$GPGGA,180040.000,4024.7591,N,07518.6718,$GPGGA,180039.000,4024.7638,N,07518.6772,W,2,10,0.81,2870.8,M,-33.9,M,0000,0000*60
$GPRMC,180039.000,A,4024.7638,N,07518.6772,W,21.95,137.51,100612,,,D*47
$PMTK001,314,3*36
$PMTK001,220,3*30
$PMTK001,185,3*3C
$GPGGA,180040.000,4024.7591,N,07518.6718,$GPGGA,180039.000,4024.7638,N,07518.6772,W,2,10,0.81,2870.8,M,-33.9,M,0000,0000*60
$GPRMC,180039.000,A,4024.7638,N,07518.6772,W,21.95,137.51,100612,,,D*47
$PMTK001,314,3*36
$PMTK001,220,3*30
$PMTK001,185,3*3C
$GPGGA,180040.000,4024.7591,N,07518.6718,$GPGGA,180039.000,4024.7638,N,07518.6772,W,2,10,0.81,2870.8,M,-33.9,M,0000,0000*60
$GPRMC,180039.000,A,4024.7638,N,07518.6772,W,21.95,137.51,100612,,,D*47
$PMTK001,314,3*36
$PMTK001,220,3*30
$PMTK001,185,3*3C
$GPGGA,180040.000,4024.7591,N,07518.6718,$GPGGA,180039.000,4024.7638,N,07518.6772,W,2,10,0.81,2870.8,M,-33.9,M,0000,0000*60
$GPRMC,180039.000,A,4024.7638,N,07518.6772,W,21.95,137.51,100612,,,D*47
$PMTK001,314,3*36
$PMTK001,220,3*30
$PMTK001,185,3*3C
$GPGGA,180040.000,4024.7591,N,07518.6718,$GPGGA,180039.000,4024.7638,N,07518.6772,W,2,10,0.81,2870.8,M,-33.9,M,0000,0000*60
$GPRMC,180039.000,A,4024.7638,N,07518.6772,W,21.95,137.51,100612,,,D*47
$PMTK001,314,3*36
$PMTK001,220,3*30
$PMTK001,185,3*3C
$GPGGA,180040.000,4024.7591,N,07518.6718,$GPGGA,180039.000,4024.7638,N,07518.6772,W,2,10,0.81,2870.8,M,-33.9,M,0000,0000*60
$GPRMC,180039.000,A,4024.7638,N,07518.6772,W,21.95,137.51,100612,,,D*47
$PMTK001,314,3*36
$PMTK001,220,3*30
$PMTK001,185,3*3C
$GPGGA,180040.000,4024.7591,N,07518.6718,$GPGGA,180039.000,4024.7638,N,07518.6772,W,2,10,0.81,2870.8,M,-33.9,M,0000,0000*60
$GPRMC,180039.000,A,4024.7638,N,07518.6772,W,21.95,137.51,100612,,,D*47
$PMTK001,314,3*36
$PMTK001,220,3*30
$PMTK001,185,3*3C
$GPGGA,180040.000,4024.7591,N,07518.6718,$GPGGA,180039.000,4024.7638,N,07518.6772,W,2,10,0.81,2870.8,M,-33.9,M,0000,0000*60
$GPRMC,180039.000,A,4024.7638,N,07518.6772,W,21.95,137.51,100612,,,D*47
$PMTK001,314,3*36
$PMTK001,220,3*30
$PMTK001,185,3*3C
$GPGGA,180040.000,4024.7591,N,07518.6718,$GPGGA,180039.000,4024.7638,N,07518.6772,W,2,10,0.81,2870.8,M,-33.9,M,0000,0000*60
$GPRMC,180039.000,A,4024.7638,N,07518.6772,W,21.95,137.51,100612,,,D*47
$PMTK001,314,3*36
$PMTK001,220,3*30
$PMTK001,185,3*3C
$GPGGA,180040.000,4024.7591,N,07518.6718,$GPGGA,180039.000,4024.7638,N,07518.6772,W,2,10,0.81,2870.8,M,-33.9,M,0000,0000*60
$GPRMC,180039.000,A,4024.7638,N,07518.6772,W,21.95,137.51,100612,,,D*47
$PMTK001,314,3*36
$PMTK001,220,3*30
$PMTK001,185,3*3C
$GPGGA,180040.000,4024.7591,N,07518.6718,$GPGGA,180039.000,4024.7638,N,07518.6772,W,2,10,0.81,2870.8,M,-33.9,M,0000,0000*60
$GPRMC,180039.000,A,4024.7638,N,07518.6772,W,21.95,137.51,100612,,,D*47
$PMTK001,314,3*36
$PMTK001,220,3*30
$PMTK001,185,3*3C
$GPGGA,180040.000,4024.7591,N,07518.6718,$GPGGA,180039.000,4024.7638,N,07518.6772,W,2,10,0.81,2870.8,M,-33.9,M,0000,0000*60
$GPRMC,180039.000,A,4024.7638,N,07518.6772,W,21.95,137.51,100612,,,D*47
$PMTK001,314,3*36
$PMTK001,220,3*30
$PMTK001,185,3*3C
$GPGGA,180040.000,4024.7591,N,07518.6718,$GPGGA,180039.000,4024.7638,N,07518.6772,W,2,10,0.81,2870.8,M,-33.9,M,0000,0000*60
$GPRMC,180039.000,A,4024.7638,N,07518.6772,W,21.95,137.51,100612,,,D*47
$PMTK001,314,3*36
$PMTK001,220,3*30
$PMTK001,185,3*3C
$GPGGA,180040.000,4024.7591,N,07518.6718,$GPGGA,180039.000,4024.7638,N,07518.6772,W,2,10,0.81,2870.8,M,-33.9,M,0000,0000*60
$GPRMC,180039.000,A,4024.7638,N,07518.6772,W,21.95,137.51,100612,,,D*47
$PMTK001,314,3*36
$PMTK001,220,3*30
$PMTK001,185,3*3C
$GPGGA,180040.000,4024.7591,N,07518.6718,$GPGGA,180039.000,4024.7638,N,07518.6772,W,2,10,0.81,2870.8,M,-33.9,M,0000,0000*60
$GPRMC,180039.000,A,4024.7638,N,07518.6772,W,21.95,137.51,100612,,,D*47
$PMTK001,314,3*36
$PMTK001,220,3*30
$PMTK001,185,3*3C
$GPGGA,180040.000,4024.7591,N,07518.6718,