,154.9,M,-33.9,M,0000,0000*5B
$GPRMC,160835.000,A,4026.7495,N,07520.5897,W,0.02,96.86,100612,,,D*4B
$PMTK001,314,3*36
$PMTK001,220,3*30
$PMTK001,185,3*3C
$GPGGA,160836.000,4026.7495,N,07520.5897,W,2,10,0.78,154.9,M,-33.9,M,0000,0000*58
$GPRMC,160836,154.9,M,-33.9,M,0000,0000*5B
$GPRMC,160835.000,A,4026.7495,N,07520.5897,W,0.02,96.86,100612,,,D*4B
$PMTK001,314,3*36
$PMTK001,220,3*30
$PMTK001,185,3*3C
$GPGGA,160836.000,4026.7495,N,07520.5897,W,2,10,0.78,154.9,M,-33.9,M,0000,0000*58
$GPRMC,160836,154.9,M,-33.9,M,0000,0000*5B
$GPRMC,160835.000,A,4026.7495,N,07520.5897,W,0.02,96.86,100612,,,D*4B
$PMTK001,314,3*36
$PMTK001,220,3*30
$PMTK001,185,3*3C
$GPGGA,160836.000,4026.7495,N,07520.5897,W,2,10,0.78,154.9,M,-33.9,M,0000,0000*58
$GPRMC,160836,154.9,M,-33.9,M,0000,0000*5B
$GPRMC,160835.000,A,4026.7495,N,07520.5897,W,0.02,96.86,100612,,,D*4B
$PMTK001,314,3*36
$PMTK001,220,3*30
$PMTK001,185,3*3C
$GPGGA,160836.000,4026.7495,N,07520.5897,W,2,10,0.78,154.9,M,-33.9,M,0000,0000*58
$GPRMC,160836,154.9,M,-33.9,M,0000,0000*5B
$GPRMC,160835.000,A,4026.7495,N,07520.5897,W,0.02,96.86,100612,,,D*4B
$PMTK001,314,3*36
$PMTK001,220,3*30
$PMTK001,185,3*3C
$GPGGA,160836.000,4026.7495,N,07520.5897,W,2,10,0.78,154.9,M,-33.9,M,0000,0000*58
$GPRMC,160836,154.9,M,-33.9,M,0000,0000*5B
$GPRMC,160835.000,A,4026.7495,N,07520.5897,W,0.02,96.86,100612,,,D*4B
$PMTK001,314,3*36
$PMTK001,220,3*30
$PMTK001,185,3*3C
$GPGGA,160836.000,4026.7495,N,07520.5897,W,2,10,0.78,154.9,M,-33.9,M,0000,0000*58
$GPRMC,160836,154.9,M,-33.9,M,0000,0000*5B
$GPRMC,160835.000,A,4026.7495,N,07520.5897,W,0.02,96.86,100612,,,D*4B
$PMTK001,314,3*36
$PMTK001,220,3*30
$PMTK001,185,3*3C
$GPGGA,160836.000,4026.7495,N,07520.5897,W,2,10,0.78,154.9,M,-33.9,M,0000,0000*58
$GPRMC,160836,154.9,M,-33.9,M,0000,0000*5B
$GPRMC,160835.000,A,4026.7495,N,07520.5897,W,0.02,96.86,100612,,,D*4B
$PMTK001,314,3*36
$PMTK001,220,3*30
$PMTK001,185,3*3C
$GPGGA,160836.000,4026.7495,N,07520.5897,W,2,10,0.78,154.9,M,-33.9,M,0000,0000*58
$GPRMC,160836,154.9,M,-33.9,M,0000,0000*5B
$GPRMC,160835.000,A,4026.7495,N,07520.5897,W,0.02,96.86,100612,,,D*4B
$PMTK001,314,3*36
$PMTK001,220,3*30
$PMTK001,185,3*3C
$GPGGA,160836.000,4026.7495,N,07520.5897,W,2,10,0.78,154.9,M,-33.9,M,0000,0000*58
$GPRMC,160836,154.9,M,-33.9,M,0000,0000*5B
$GPRMC,160835.000,A,4026.7495,N,07520.5897,W,0.02,96.86,100612,,,D*4B
$PMTK001,314,3*36
$PMTK001,220,3*30
$PMTK001,185,3*3C
$GPGGA,160836.000,4026.7495,N,07520.5897,W,2,10,0.78,154.9,M,-33.9,M,0000,0000*58
$GPRMC,160836,154.9,M,-33.9,M,0000,0000*5B
$GPRMC,160835.000,A,4026.7495,N,07520.5897,W,0.02,96.86,100612,,,D*4B
$PMTK001,314,3*36
$PMTK001,220,3*30
$PMTK001,185,3*3C
$GPGGA,160836.000,4026.7495,N,07520.5897,W,2,10,0.78,154.9,M,-33.9,M,0000,0000*58
$GPRMC,160836,154.9,M,-33.9,M,0000,0000*5B
$GPRMC,160835.000,A,4026.7495,N,07520.5897,W,0.02,96.86,100612,,,D*4B
$PMTK001,314,3*36
$PMTK001,220,3*30
$PMTK001,185,3*3C
$GPGGA,160836.000,4026.7495,N,07520.5897,W,2,10,0.78,154.9,M,-33.9,M,0000,0000*58
$GPRMC,160836,154.9,M,-33.9,M,0000,0000*5B
$GPRMC,160835.000,A,4026.7495,N,07520.5897,W,0.02,96.86,100612,,,D*4B
$PMTK001,314,3*36
$PMTK001,220,3*30
$PMTK001,185,3*3C
$GPGGA,160836.000,4026.7495,N,07520.5897,W,2,10,0.78,154.9,M,-33.9,M,0000,0000*58
$GPRMC,160836,154.9,M,-33.9,M,0000,0000*5B
$GPRMC,160835.000,A,4026.7495,N,07520.5897,W,0.02,96.86,100612,,,D*4B
$PMTK001,314,3*36
$PMTK001,220,3*30
$PMTK001,185,3*3C
$GPGGA,160836.000,4026.7495,N,07520.5897,W,2,10,0.78,154.9,M,-33.9,M,0000,0000*58
$GPRMC,160836,154.9,M,-33.9,M,0000,0000*5B
$GPRMC,160835.000,A,4026.7495,N,07520.5897,W,0.02,96.86,100612,,,D*4B
$PMTK001,314,3*36
$PMTK001,220,3*30
$PMTK001,185,3*3C
$GPGGA,160836.000,4026.7495,N,07520.5897,W,2,10,0.78,154.9,M,-33.9,M,0000,0000*58
$GPRMC,160836,154.9,M,-33.9,M,0000,0000*5B
$GPRMC,160835.000,A,4026.7495,N,07520.5897,W,0.02,96.86,100612,,,D*4B
$PMTK001,314,3*36
$PMTK001,220,3*30
$PMTK001,185,3*3C
$GPGGA,160836.000,4026.7495,N,07520.5897,W,2,10,0.78,154.9,M,-33.9,M,0000,0000*58
$GPRMC,160836,154.9,M,-33.9,M,0000,0000*5B
$GPRMC,160835.000,A,4026.7495,N,07520.5897,W,0.02,96.86,100612,,,D*4B
$PMTK001,314,3*36
$PMTK001,220,3*30
$PMTK001,185,3*3C
$GPGGA,160836.000,4026.7495,N,07520.5897,W,2,10,0.78,154.9,M,-33.9,M,0000,0000*58
$GPRMC,160836,154.9,M,-33.9,M,0000,0000*5B
$GPRMC,160835.000,A,4026.7495,N,07520.5897,W,0.02,96.86,100612,,,D*4B
$PMTK001,314,3*36
$PMTK001,220,3*30
$PMTK001,185,3*3C
$GPGGA,160836.000,4026.7495,N,07520.5897,W,2,10,0.78,154.9,M,-33.9,M,0000,0000*58
$GPRMC,160836,154.9,M,-33.9,M,0000,0000*5B
$GPRMC,160835.000,A,4026.7495,N,07520.5897,W,0.02,96.86,100612,,,D*4B
$PMTK001,314,3*36
$PMTK001,220,3*30
$PMTK001,185,3*3C
$GPGGA,160836.000,4026.7495,N,07520.5897,W,2,10,0.78,154.9,M,-33.9,M,0000,0000*58
$GPRMC,160836,154.9,M,-33.9,M,0000,0000*5B
$GPRMC,160835.000,A,4026.7495,N,07520.5897,W,0.02,96.86,100612,,,D*4B
$PMTK001,314,3*36
$PMTK001,220,3*30
$PMTK001,185,3*3C
$GPGGA,160836.000,4026.7495,N,07520.5897,W,2,10,0.78,154.9,M,-33.9,M,0000,0000*58
$GPRMC,160836,154.9,M,-33.9,M,0000,0000*5B
$GPRMC,160835.000,A,4026.7495,N,07520.5897,W,0.02,96.86,100612,,,D*4B
$PMTK001,314,3*36
$PMTK001,220,3*30
$PMTK001,185,3*3C
$GPGGA,160836.000,4026.7495,N,07520.5897,W,2,10,0.78,154.9,M,-33.9,M,0000,0000*58
$GPRMC,160836,154.9,M,-33.9,M,0000,0000*5B
$GPRMC,160835.000,A,4026.7495,N,07520.5897,W,0.02,96.86,100612,,,D*4B
$PMTK001,314,3*36
$PMTK001,220,3*30
$PMTK001,185,3*3C
$GPGGA,160836.000,4026.7495,N,07520.5897,W,2,10,0.78,154.9,M,-33.9,M,0000,0000*58
$GPRMC,160836,154.9,M,-33.9,M,0000,0000*5B
$GPRMC,160835.000,A,4026.7495,N,07520.5897,W,0.02,96.86,100612,,,D*4B
$PMTK001,314,3*36
$PMTK001,220,3*30
$PMTK001,185,3*3C
$GPGGA,160836.000,4026.7495,N,07520.5897,W,2,10,0.78,154.9,M,-33.9,M,0000,0000*58
$GPRMC,160836,154.9,M,-33.9,M,0000,0000*5B
$GPRMC,160835.000,A,4026.7495,N,07520.5897,W,0.02,96.86,100612,,,D*4B
$PMTK001,314,3*36
$PMTK001,220,3*30
$PMTK001,185,3*3C
$GPGGA,160836.000,4026.7495,N,07520.5897,W,2,10,0.78,154.9,M,-33.9,M,0000,0000*58
$GPRMC,160836,154.9,M,-33.9,M,0000,0000*5B
$GPRMC,160835.000,A,4026.7495,N,07520.5897,W,0.02,96.86,100612,,,D*4B
$PMTK001,314,3*36
$PMTK001,220,3*30
$PMTK001,185,3*3C
$GPGGA,160836.000,4026.7495,N,07520.5897,W,2,10,0.78,154.9,M,-33.9,M,0000,0000*58
$GPRMC,160836,154.9,M,-33.9,M,0000,0000*5B
$GPRMC,160835.000,A,4026.7495,N,07520.5897,W,0.02,96.86,100612,,,D*4B
$PMTK001,314,3*36
$PMTK001,220,3*30
$PMTK001,185,3*3C
$GPGGA,160836.000,4026.7495,N,07520.5897,W,2,10,0.78,154.9,M,-33.9,M,0000,0000*58
$GPRMC,160836,154.9,M,-33.9,M,0000,0000*5B
$GPRMC,160835.000,A,4026.7495,N,07520.5897,W,0.02,96.86,100612,,,D*4B
$PMTK001,314,3*36
$PMTK001,220,3*30
$PMTK001,185,3*3C
$GPGGA,160836.000,4026.7495,N,07520.5897,W,2,10,0.78,154.9,M,-33.9,M,0000,0000*58
$GPRMC,160836,154.9,M,-33.9,M,0000,0000*5B
$GPRMC,160835.000,A,4026.7495,N,07520.5897,W,0.02,96.86,100612,,,D*4B
$PMTK001,314,3*36
$PMTK001,220,3*30
$PMTK001,185,3*3C
$GPGGA,160836.000,4026.7495,N,07520.5897,W,2,10,0.78,154.9,M,-33.9,M,0000,0000*58
$GPRMC,160836,154.9,M,-33.9,M,0000,0000*5B
$GPRMC,160835.000,A,4026.7495,N,07520.5897,W,0.02,96.86,100612,,,D*4B
$PMTK001,314,3*36
$PMTK001,220,3*30
$PMTK001,185,3*3C
$GPGGA,160836.000,4026.7495,N,07520.5897,W,2,10,0.78,154.9,M,-33.9,M,0000,0000*58
$GPRMC,160836,154.9,M,-33.9,M,0000,0000*5B
$GPRMC,160835.000,A,4026.7495,N,07520.5897,W,0.02,96.86,100612,,,D*4B
$PMTK001,314,3*36
$PMTK001,220,3*30
$PMTK001,185,3*3C
$GPGGA,160836.000,4026.7495,N,07520.5897,W,2,10,0.78,154.9,M,-33.9,M,0000,0000*58
$GPRMC,160836,154.9,M,-33.9,M,0000,0000*5B
$GPRMC,160835.000,A,4026.7495,N,07520.5897,W,0.02,96.86,100612,,,D*4B
$PMTK001,314,3*36
$PMTK001,220,3*30
$PMTK001,185,3*3C
$GPGGA,160836.000,4026.7495,N,07520.5897,W,2,10,0.78,154.9,M,-33.9,M,0000,0000*58
$GPRMC,160836,154.9,M,-33.9,M,0000,0000*5B
$GPRMC,160835.000,A,4026.7495,N,07520.5897,W,0.02,96.86,100612,,,D*4B
$PMTK001,314,3*36
$PMTK001,220,3*30
$PMTK001,185,3*3C
$GPGGA,160836.000,4026.7495,N,07520.5897,W,2,10,0.78,154.9,M,-33.9,M,0000,0000*58
$GPRMC,160836,154.9,M,-33.9,M,0000,0000*5B
$GPRMC,160835.000,A,4026.7495,N,07520.5897,W,0.02,96.86,100612,,,D*4B
$PMTK001,314,3*36
$PMTK001,220,3*30
$PMTK001,185,3*3C
$GPGGA,160836.000,4026.7495,N,07520.5897,W,2,10,0.78,154.9,M,-33.9,M,0000,0000*58
$GPRMC,160836,154.9,M,-33.9,M,0000,0000*5B
$GPRMC,160835.000,A,4026.7495,N,07520.5897,W,0.02,96.86,100612,,,D*4B
$PMTK001,314,3*36
$PMTK001,220,3*30
$PMTK001,185,3*3C
$GPGGA,160836.000,4026.7495,N,07520.5897,W,2,10,0.78,154.9,M,-33.9,M,0000,0000*58
$GPRMC,160836,154.9,M,-33.9,M,0000,0000*5B
$GPRMC,160835.000,A,4026.7495,N,07520.5897,W,0.02,96.86,100612,,,D*4B
$PMTK001,314,3*36
$PMTK001,220,3*30
$PMTK001,185,3*3C
$GPGGA,160836.000,4026.7495,N,07520.5897,W,2,10,0.78,154.9,M,-33.9,M,0000,0000*58
$GPRMC,160836,154.9,M,-33.9,M,0000,0000*5B
$GPRMC,160835.000,A,4026.7495,N,07520.5897,W,0.02,96.86,100612,,,D*4B
$PMTK001,314,3*36
$PMTK001,220,3*30
$PMTK001,185,3*3C
$GPGGA,160836.000,4026.7495,N,07520.5897,W,2,10,0.78,154.9,M,-33.9,M,0000,0000*58
$GPRMC,160836,154.9,M,-33.9,M,0000,0000*5B
$GPRMC,160835.000,A,4026.7495,N,07520.5897,W,0.02,96.86,100612,,,D*4B
$PMTK001,314,3*36
$PMTK001,220,3*30
$PMTK001,185,3*3C
$GPGGA,160836.000,4026.7495,N,07520.5897,W,2,10,0.78,154.9,M,-33.9,M,0000,0000*58
$GPRMC,160836,154.9,M,-33.9,M,0000,0000*5B
$GPRMC,160835.000,A,4026.7495,N,07520.5897,W,0.02,96.86,100612,,,D*4B
$PMTK001,314,3*36
$PMTK001,220,3*30
$PMTK001,185,3*3C
$GPGGA,160836.000,4026.7495,N,07520.5897,W,2,10,0.78,154.9,M,-33.9,M,0000,0000*58
$GPRMC,160836,154.9,M,-33.9,M,0000,0000*5B
$GPRMC,160835.000,A,4026.7495,N,07520.5897,W,0.02,96.86,100612,,,D*4B
$PMTK001,314,3*36
$PMTK001,220,3*30
$PMTK001,185,3*3C
$GPGGA,160836.000,4026.7495,N,07520.5897,W,2,10,0.78,154.9,M,-33.9,M,0000,0000*58
$GPRMC,160836,154.9,M,-33.9,M,0000,0000*5B
$GPRMC,160835.000,A,4026.7495,N,07520.5897,W,0.02,96.86,100612,,,D*4B
$PMTK001,314,3*36
$PMTK001,220,3*30
$PMTK001,185,3*3C
$GPGGA,160836.000,4026.7495,N,07520.5897,W,2,10,0.78,154.9,M,-33.9,M,0000,0000*58
$GPRMC,160836,154.9,M,-33.9,M,0000,0000*5B
$GPRMC,160835.000,A,4026.7495,N,07520.5897,W,0.02,96.86,100612,,,D*4B
$PMTK001,314,3*36
$PMTK001,220,3*30
$PMTK001,185,3*3C
$GPGGA,160836.000,4026.7495,N,07520.5897,W,2,10,0.78,154.9,M,-33.9,M,0000,0000*58
$GPRMC,160836,154.9,M,-33.9,M,0000,0000*5B
$GPRMC,160835.000,A,4026.7495,N,07520.5897,W,0.02,96.86,100612,,,D*4B
$PMTK001,314,3*36
$PMTK001,220,3*30
$PMTK001,185,3*3C
$GPGGA,160836.000,4026.7495,N,07520.5897,W,2,10,0.78,154.9,M,-33.9,M,0000,0000*58
$GPRMC,160836,154.9,M,-33.9,M,0000,0000*5B
$GPRMC,160835.000,A,4026.7495,N,07520.5897,W,0.02,96.86,100612,,,D*4B
$PMTK001,314,3*36
$PMTK001,220,3*30
$PMTK001,185,3*3C
$GPGGA,160836.000,4026.7495,N,07520.5897,W,2,10,0.78,154.9,M,-33.9,M,0000,0000*58
$GPRMC,160836,154.9,M,-33.9,M,0000,0000*5B
$GPRMC,160835.000,A,4026.7495,N,07520.5897,W,0.02,96.86,100612,,,D*4B
$PMTK001,314,3*36
$PMTK001,220,3*30
$PMTK001,185,3*3C
$GPGGA,160836.000,4026.7495,N,07520.5897,W,2,10,0.78,154.9,M,-33.9,M,0000,0000*58
$GPRMC,160836,154.9,M,-33.9,M,0000,0000*5B
$GPRMC,160835.000,A,4026.7495,N,07520.5897,W,0.02,96.86,100612,,,D*4B
$PMTK001,314,3*36
$PMTK001,220,3*30
$PMTK001,185,3*3C
$GPGGA,160836.000,4026.7495,N,07520.5897,W,2,10,0.78,154.9,M,-33.9,M,0000,0000*58
$GPRMC,160836,154.9,M,-33.9,M,0000,0000*5B
$GPRMC,160835.000,A,4026.7495,N,07520.5897,W,0.02,96.86,100612,,,D*4B
$PMTK001,314,3*36
$PMTK001,220,3*30
$PMTK001,185,3*3C
$GPGGA,160836.000,4026.7495,N,07520.5897,W,2,10,0.78,154.9,M,-33.9,M,0000,0000*58
$GPRMC,160836,154.9,M,-33.9,M,0000,0000*5B
$GPRMC,160835.000,A,4026.7495,N,07520.5897,W,0.02,96.86,100612,,,D*4B
$PMTK001,314,3*36
$PMTK001,220,3*30
$PMTK001,185,3*3C
$GPGGA,160836.000,4026.7495,N,07520.5897,W,2,10,0.78,154.9,M,-33.9,M,0000,0000*58
$GPRMC,160836,154.9,M,-33.9,M,0000,0000*5B
$GPRMC,160835.000,A,4026.7495,N,07520.5897,W,0.02,96.86,100612,,,D*4B
$PMTK001,314,3*36
$PMTK001,220,3*30
$PMTK001,185,3*3C
$GPGGA,160836.000,4026.7495,N,07520.5897,W,2,10,0.78,154.9,M,-33.9,M,0000,0000*58
$GPRMC,160836,154.9,M,-33.9,M,0000,0000*5B
$GPRMC,160835.000,A,4026.7495,N,07520.5897,W,0.02,96.86,100612,,,D*4B
$PMTK001,314,3*36
$PMTK001,220,3*30
$PMTK001,185,3*3C
$GPGGA,160836.000,4026.7495,N,07520.5897,W,2,10,0.78,154.9,M,-33.9,M,0000,0000*58
$GPRMC,160836,154.9,M,-33.9,M,0000,0000*5B
$GPRMC,160835.000,A,4026.7495,N,07520.5897,W,0.02,96.86,100612,,,D*4B
$PMTK001,314,3*36
$PMTK001,220,3*30
$PMTK001,185,3*3C
$GPGGA,160836.000,4026.7495,N,07520.5897,W,2,10,0.78,154.9,M,-33.9,M,0000,0000*58
$GPRMC,160836,154.9,M,-33.9,M,0000,0000*5B
$GPRMC,160835.000,A,4026.7495,N,07520.5897,W,0.02,96.86,100612,,,D*4B
$PMTK001,314,3*36
$PMTK001,220,3*30
$PMTK001,185,3*3C
$GPGGA,160836.000,4026.7495,N,07520.5897,W,2,10,0.78,154.9,M,-33.9,M,0000,0000*58
$GPRMC,160836,154.9,M,-33.9,M,0000,0000*5B
$GPRMC,160835.000,A,4026.7495,N,07520.5897,W,0.02,96.86,100612,,,D*4B
$PMTK001,314,3*36
$PMTK001,220,3*30
$PMTK001,185,3*3C
$GPGGA,160836.000,4026.7495,N,07520.5897,W,2,10,0.78,154.9,M,-33.9,M,0000,0000*58
$GPRMC,160836,154.9,M,-33.9,M,0000,0000*5B
$GPRMC,160835.000,A,4026.7495,N,07520.5897,W,0.02,96.86,100612,,,D*4B
$PMTK001,314,3*36
$PMTK001,220,3*30
$PMTK001,185,3*3C
$GPGGA,160836.000,4026.7495,N,07520.5897,W,2,10,0.78,154.9,M,-33.9,M,0000,0000*58
$GPRMC,160836,154.9,M,-33.9,M,0000,0000*5B
$GPRMC,160835.000,A,4026.7495,N,07520.5897,W,0.02,96.86,100612,,,D*4B
$PMTK001,314,3*36
$PMTK001,220,3*30
$PMTK001,185,3*3C
$GPGGA,160836.000,4026.7495,N,07520.5897,W,2,10,0.78,154.9,M,-33.9,M,0000,0000*58
$GPRMC,160836,154.9,M,-33.9,M,0000,0000*5B
$GPRMC,160835.000,A,4026.7495,N,07520.5897,W,0.02,96.86,100612,,,D*4B
$PMTK001,314,3*36
$PMTK001,220,3*30
$PMTK001,185,3*3C
$GPGGA,160836.000,4026.7495,N,07520.5897,W,2,10,0.78,154.9,M,-33.9,M,0000,0000*58
$GPRMC,160836,154.9,M,-33.9,M,0000,0000*5B
$GPRMC,160835.000,A,4026.7495,N,07520.5897,W,0.02,96.86,100612,,,D*4B
$PMTK001,314,3*36
$PMTK001,220,3*30
$PMTK001,185,3*3C
$GPGGA,160836.000,4026.7495,N,07520.5897,W,2,10,0.78,154.9,M,-33.9,M,0000,0000*58
$GPRMC,160836,154.9,M,-33.9,M,0000,0000*5B
$GPRMC,160835.000,A,4026.7495,N,07520.5897,W,0.02,96.86,100612,,,D*4B
$PMTK001,314,3*36
$PMTK001,220,3*30
$PMTK001,185,3*3C
$GPGGA,160836.000,4026.7495,N,07520.5897,W,2,10,0.78,154.9,M,-33.9,M,0000,0000*58
$GPRMC,160836,154.9,M,-33.9,M,0000,0000*5B
$GPRMC,160835.000,A,4026.7495,N,07520.5897,W,0.02,96.86,100612,,,D*4B
$PMTK001,314,3*36
$PMTK001,220,3*30
$PMTK001,185,3*3C
$GPGGA,160836.000,4026.7495,N,07520.5897,W,2,10,0.78,154.9,M,-33.9,M,0000,0000*58
$GPRMC,160836