$PMTK001,314,3*36
$PMTK001,220,3*30
$PMTK001,185,3*3C
$GPGGA,161038.000,4026.7495,N,07520.5898,W,2,10,0.78,155.1,M,-33.9,M,0000,0000*59
$GPRMC,161038.000,A,4026.7495,N,07520.5898,W,0.03,96.86,100612,,,D*41
$GPGGA,161039.000,4026.7495,N,07520.5898,W,2$PMTK001,314,3*36
$PMTK001,220,3*30
$PMTK001,185,3*3C
$GPGGA,161038.000,4026.7495,N,07520.5898,W,2,10,0.78,155.1,M,-33.9,M,0000,0000*59
$GPRMC,161038.000,A,4026.7495,N,07520.5898,W,0.03,96.86,100612,,,D*41
$GPGGA,161039.000,4026.7495,N,07520.5898,W,2$PMTK001,314,3*36
$PMTK001,220,3*30
$PMTK001,185,3*3C
$GPGGA,161038.000,4026.7495,N,07520.5898,W,2,10,0.78,155.1,M,-33.9,M,0000,0000*59
$GPRMC,161038.000,A,4026.7495,N,07520.5898,W,0.03,96.86,100612,,,D*41
$GPGGA,161039.000,4026.7495,N,07520.5898,W,2$PMTK001,314,3*36
$PMTK001,220,3*30
$PMTK001,185,3*3C
$GPGGA,161038.000,4026.7495,N,07520.5898,W,2,10,0.78,155.1,M,-33.9,M,0000,0000*59
$GPRMC,161038.000,A,4026.7495,N,07520.5898,W,0.03,96.86,100612,,,D*41
$GPGGA,161039.000,4026.7495,N,07520.5898,W,2$PMTK001,314,3*36
$PMTK001,220,3*30
$PMTK001,185,3*3C
$GPGGA,161038.000,4026.7495,N,07520.5898,W,2,10,0.78,155.1,M,-33.9,M,0000,0000*59
$GPRMC,161038.000,A,4026.7495,N,07520.5898,W,0.03,96.86,100612,,,D*41
$GPGGA,161039.000,4026.7495,N,07520.5898,W,2$PMTK001,314,3*36
$PMTK001,220,3*30
$PMTK001,185,3*3C
$GPGGA,161038.000,4026.7495,N,07520.5898,W,2,10,0.78,155.1,M,-33.9,M,0000,0000*59
$GPRMC,161038.000,A,4026.7495,N,07520.5898,W,0.03,96.86,100612,,,D*41
$GPGGA,161039.000,4026.7495,N,07520.5898,W,2$PMTK001,314,3*36
$PMTK001,220,3*30
$PMTK001,185,3*3C
$GPGGA,161038.000,4026.7495,N,07520.5898,W,2,10,0.78,155.1,M,-33.9,M,0000,0000*59
$GPRMC,161038.000,A,4026.7495,N,07520.5898,W,0.03,96.86,100612,,,D*41
$GPGGA,161039.000,4026.7495,N,07520.5898,W,2$PMTK001,314,3*36
$PMTK001,220,3*30
$PMTK001,185,3*3C
$GPGGA,161038.000,4026.7495,N,07520.5898,W,2,10,0.78,155.1,M,-33.9,M,0000,0000*59
$GPRMC,161038.000,A,4026.7495,N,07520.5898,W,0.03,96.86,100612,,,D*41
$GPGGA,161039.000,4026.7495,N,07520.5898,W,2$PMTK001,314,3*36
$PMTK001,220,3*30
$PMTK001,185,3*3C
$GPGGA,161038.000,4026.7495,N,07520.5898,W,2,10,0.78,155.1,M,-33.9,M,0000,0000*59
$GPRMC,161038.000,A,4026.7495,N,07520.5898,W,0.03,96.86,100612,,,D*41
$GPGGA,161039.000,4026.7495,N,07520.5898,W,2$PMTK001,314,3*36
$PMTK001,220,3*30
$PMTK001,185,3*3C
$GPGGA,161038.000,4026.7495,N,07520.5898,W,2,10,0.78,155.1,M,-33.9,M,0000,0000*59
$GPRMC,161038.000,A,4026.7495,N,07520.5898,W,0.03,96.86,100612,,,D*41
$GPGGA,161039.000,4026.7495,N,07520.5898,W,2$PMTK001,314,3*36
$PMTK001,220,3*30
$PMTK001,185,3*3C
$GPGGA,161038.000,4026.7495,N,07520.5898,W,2,10,0.78,155.1,M,-33.9,M,0000,0000*59
$GPRMC,161038.000,A,4026.7495,N,07520.5898,W,0.03,96.86,100612,,,D*41
$GPGGA,161039.000,4026.7495,N,07520.5898,W,2$PMTK001,314,3*36
$PMTK001,220,3*30
$PMTK001,185,3*3C
$GPGGA,161038.000,4026.7495,N,07520.5898,W,2,10,0.78,155.1,M,-33.9,M,0000,0000*59
$GPRMC,161038.000,A,4026.7495,N,07520.5898,W,0.03,96.86,100612,,,D*41
$GPGGA,161039.000,4026.7495,N,07520.5898,W,2$PMTK001,314,3*36
$PMTK001,220,3*30
$PMTK001,185,3*3C
$GPGGA,161038.000,4026.7495,N,07520.5898,W,2,10,0.78,155.1,M,-33.9,M,0000,0000*59
$GPRMC,161038.000,A,4026.7495,N,07520.5898,W,0.03,96.86,100612,,,D*41
$GPGGA,161039.000,4026.7495,N,07520.5898,W,2$PMTK001,314,3*36
$PMTK001,220,3*30
$PMTK001,185,3*3C
$GPGGA,161038.000,4026.7495,N,07520.5898,W,2,10,0.78,155.1,M,-33.9,M,0000,0000*59
$GPRMC,161038.000,A,4026.7495,N,07520.5898,W,0.03,96.86,100612,,,D*41
$GPGGA,161039.000,4026.7495,N,07520.5898,W,2$PMTK001,314,3*36
$PMTK001,220,3*30
$PMTK001,185,3*3C
$GPGGA,161038.000,4026.7495,N,07520.5898,W,2,10,0.78,155.1,M,-33.9,M,0000,0000*59
$GPRMC,161038.000,A,4026.7495,N,07520.5898,W,0.03,96.86,100612,,,D*41
$GPGGA,161039.000,4026.7495,N,07520.5898,W,2$PMTK001,314,3*36
$PMTK001,220,3*30
$PMTK001,185,3*3C
$GPGGA,161038.000,4026.7495,N,07520.5898,W,2,10,0.78,155.1,M,-33.9,M,0000,0000*59
$GPRMC,161038.000,A,4026.7495,N,07520.5898,W,0.03,96.86,100612,,,D*41
$GPGGA,161039.000,4026.7495,N,07520.5898,W,2$PMTK001,314,3*36
$PMTK001,220,3*30
$PMTK001,185,3*3C
$GPGGA,161038.000,4026.7495,N,07520.5898,W,2,10,0.78,155.1,M,-33.9,M,0000,0000*59
$GPRMC,161038.000,A,4026.7495,N,07520.5898,W,0.03,96.86,100612,,,D*41
$GPGGA,161039.000,4026.7495,N,07520.5898,W,2$PMTK001,314,3*36
$PMTK001,220,3*30
$PMTK001,185,3*3C
$GPGGA,161038.000,4026.7495,N,07520.5898,W,2,10,0.78,155.1,M,-33.9,M,0000,0000*59
$GPRMC,161038.000,A,4026.7495,N,07520.5898,W,0.03,96.86,100612,,,D*41
$GPGGA,161039.000,4026.7495,N,07520.5898,W,2$PMTK001,314,3*36
$PMTK001,220,3*30
$PMTK001,185,3*3C
$GPGGA,161038.000,4026.7495,N,07520.5898,W,2,10,0.78,155.1,M,-33.9,M,0000,0000*59
$GPRMC,161038.000,A,4026.7495,N,07520.5898,W,0.03,96.86,100612,,,D*41
$GPGGA,161039.000,4026.7495,N,07520.5898,W,2$PMTK001,314,3*36
$PMTK001,220,3*30
$PMTK001,185,3*3C
$GPGGA,161038.000,4026.7495,N,07520.5898,W,2,10,0.78,155.1,M,-33.9,M,0000,0000*59
$GPRMC,161038.000,A,4026.7495,N,07520.5898,W,0.03,96.86,100612,,,D*41
$GPGGA,161039.000,4026.7495,N,07520.5898,W,2$PMTK001,314,3*36
$PMTK001,220,3*30
$PMTK001,185,3*3C
$GPGGA,161038.000,4026.7495,N,07520.5898,W,2,10,0.78,155.1,M,-33.9,M,0000,0000*59
$GPRMC,161038.000,A,4026.7495,N,07520.5898,W,0.03,96.86,100612,,,D*41
$GPGGA,161039.000,4026.7495,N,07520.5898,W,2$PMTK001,314,3*36
$PMTK001,220,3*30
$PMTK001,185,3*3C
$GPGGA,161038.000,4026.7495,N,07520.5898,W,2,10,0.78,155.1,M,-33.9,M,0000,0000*59
$GPRMC,161038.000,A,4026.7495,N,07520.5898,W,0.03,96.86,100612,,,D*41
$GPGGA,161039.000,4026.7495,N,07520.5898,W,2$PMTK001,314,3*36
$PMTK001,220,3*30
$PMTK001,185,3*3C
$GPGGA,161038.000,4026.7495,N,07520.5898,W,2,10,0.78,155.1,M,-33.9,M,0000,0000*59
$GPRMC,161038.000,A,4026.7495,N,07520.5898,W,0.03,96.86,100612,,,D*41
$GPGGA,161039.000,4026.7495,N,07520.5898,W,2$PMTK001,314,3*36
$PMTK001,220,3*30
$PMTK001,185,3*3C
$GPGGA,161038.000,4026.7495,N,07520.5898,W,2,10,0.78,155.1,M,-33.9,M,0000,0000*59
$GPRMC,161038.000,A,4026.7495,N,07520.5898,W,0.03,96.86,100612,,,D*41
$GPGGA,161039.000,4026.7495,N,07520.5898,W,2$PMTK001,314,3*36
$PMTK001,220,3*30
$PMTK001,185,3*3C
$GPGGA,161038.000,4026.7495,N,07520.5898,W,2,10,0.78,155.1,M,-33.9,M,0000,0000*59
$GPRMC,161038.000,A,4026.7495,N,07520.5898,W,0.03,96.86,100612,,,D*41
$GPGGA,161039.000,4026.7495,N,07520.5898,W,2$PMTK001,314,3*36
$PMTK001,220,3*30
$PMTK001,185,3*3C
$GPGGA,161038.000,4026.7495,N,07520.5898,W,2,10,0.78,155.1,M,-33.9,M,0000,0000*59
$GPRMC,161038.000,A,4026.7495,N,07520.5898,W,0.03,96.86,100612,,,D*41
$GPGGA,161039.000,4026.7495,N,07520.5898,W,2$PMTK001,314,3*36
$PMTK001,220,3*30
$PMTK001,185,3*3C
$GPGGA,161038.000,4026.7495,N,07520.5898,W,2,10,0.78,155.1,M,-33.9,M,0000,0000*59
$GPRMC,161038.000,A,4026.7495,N,07520.5898,W,0.03,96.86,100612,,,D*41
$GPGGA,161039.000,4026.7495,N,07520.5898,W,2$PMTK001,314,3*36
$PMTK001,220,3*30
$PMTK001,185,3*3C
$GPGGA,161038.000,4026.7495,N,07520.5898,W,2,10,0.78,155.1,M,-33.9,M,0000,0000*59
$GPRMC,161038.000,A,4026.7495,N,07520.5898,W,0.03,96.86,100612,,,D*41
$GPGGA,161039.000,4026.7495,N,07520.5898,W,2$PMTK001,314,3*36
$PMTK001,220,3*30
$PMTK001,185,3*3C
$GPGGA,161038.000,4026.7495,N,07520.5898,W,2,10,0.78,155.1,M,-33.9,M,0000,0000*59
$GPRMC,161038.000,A,4026.7495,N,07520.5898,W,0.03,96.86,100612,,,D*41
$GPGGA,161039.000,4026.7495,N,07520.5898,W,2$PMTK001,314,3*36
$PMTK001,220,3*30
$PMTK001,185,3*3C
$GPGGA,161038.000,4026.7495,N,07520.5898,W,2,10,0.78,155.1,M,-33.9,M,0000,0000*59
$GPRMC,161038.000,A,4026.7495,N,07520.5898,W,0.03,96.86,100612,,,D*41
$GPGGA,161039.000,4026.7495,N,07520.5898,W,2$PMTK001,314,3*36
$PMTK001,220,3*30
$PMTK001,185,3*3C
$GPGGA,161038.000,4026.7495,N,07520.5898,W,2,10,0.78,155.1,M,-33.9,M,0000,0000*59
$GPRMC,161038.000,A,4026.7495,N,07520.5898,W,0.03,96.86,100612,,,D*41
$GPGGA,161039.000,4026.7495,N,07520.5898,W,2$PMTK001,314,3*36
$PMTK001,220,3*30
$PMTK001,185,3*3C
$GPGGA,161038.000,4026.7495,N,07520.5898,W,2,10,0.78,155.1,M,-33.9,M,0000,0000*59
$GPRMC,161038.000,A,4026.7495,N,07520.5898,W,0.03,96.86,100612,,,D*41
$GPGGA,161039.000,4026.7495,N,07520.5898,W,2$PMTK001,314,3*36
$PMTK001,220,3*30
$PMTK001,185,3*3C
$GPGGA,161038.000,4026.7495,N,07520.5898,W,2,10,0.78,155.1,M,-33.9,M,0000,0000*59
$GPRMC,161038.000,A,4026.7495,N,07520.5898,W,0.03,96.86,100612,,,D*41
$GPGGA,161039.000,4026.7495,N,07520.5898,W,2$PMTK001,314,3*36
$PMTK001,220,3*30
$PMTK001,185,3*3C
$GPGGA,161038.000,4026.7495,N,07520.5898,W,2,10,0.78,155.1,M,-33.9,M,0000,0000*59
$GPRMC,161038.000,A,4026.7495,N,07520.5898,W,0.03,96.86,100612,,,D*41
$GPGGA,161039.000,4026.7495,N,07520.5898,W,2$PMTK001,314,3*36
$PMTK001,220,3*30
$PMTK001,185,3*3C
$GPGGA,161038.000,4026.7495,N,07520.5898,W,2,10,0.78,155.1,M,-33.9,M,0000,0000*59
$GPRMC,161038.000,A,4026.7495,N,07520.5898,W,0.03,96.86,100612,,,D*41
$GPGGA,161039.000,4026.7495,N,07520.5898,W,2$PMTK001,314,3*36
$PMTK001,220,3*30
$PMTK001,185,3*3C
$GPGGA,161038.000,4026.7495,N,07520.5898,W,2,10,0.78,155.1,M,-33.9,M,0000,0000*59
$GPRMC,161038.000,A,4026.7495,N,07520.5898,W,0.03,96.86,100612,,,D*41
$GPGGA,161039.000,4026.7495,N,07520.5898,W,2$PMTK001,314,3*36
$PMTK001,220,3*30
$PMTK001,185,3*3C
$GPGGA,161038.000,4026.7495,N,07520.5898,W,2,10,0.78,155.1,M,-33.9,M,0000,0000*59
$GPRMC,161038.000,A,4026.7495,N,07520.5898,W,0.03,96.86,100612,,,D*41
$GPGGA,161039.000,4026.7495,N,07520.5898,W,2$PMTK001,314,3*36
$PMTK001,220,3*30
$PMTK001,185,3*3C
$GPGGA,161038.000,4026.7495,N,07520.5898,W,2,10,0.78,155.1,M,-33.9,M,0000,0000*59
$GPRMC,161038.000,A,4026.7495,N,07520.5898,W,0.03,96.86,100612,,,D*41
$GPGGA,161039.000,4026.7495,N,07520.5898,W,2$PMTK001,314,3*36
$PMTK001,220,3*30
$PMTK001,185,3*3C
$GPGGA,161038.000,4026.7495,N,07520.5898,W,2,10,0.78,155.1,M,-33.9,M,0000,0000*59
$GPRMC,161038.000,A,4026.7495,N,07520.5898,W,0.03,96.86,100612,,,D*41
$GPGGA,161039.000,4026.7495,N,07520.5898,W,2$PMTK001,314,3*36
$PMTK001,220,3*30
$PMTK001,185,3*3C
$GPGGA,161038.000,4026.7495,N,07520.5898,W,2,10,0.78,155.1,M,-33.9,M,0000,0000*59
$GPRMC,161038.000,A,4026.7495,N,07520.5898,W,0.03,96.86,100612,,,D*41
$GPGGA,161039.000,4026.7495,N,07520.5898,W,2$PMTK001,314,3*36
$PMTK001,220,3*30
$PMTK001,185,3*3C
$GPGGA,161038.000,4026.7495,N,07520.5898,W,2,10,0.78,155.1,M,-33.9,M,0000,0000*59
$GPRMC,161038.000,A,4026.7495,N,07520.5898,W,0.03,96.86,100612,,,D*41
$GPGGA,161039.000,4026.7495,N,07520.5898,W,2$PMTK001,314,3*36
$PMTK001,220,3*30
$PMTK001,185,3*3C
$GPGGA,161038.000,4026.7495,N,07520.5898,W,2,10,0.78,155.1,M,-33.9,M,0000,0000*59
$GPRMC,161038.000,A,4026.7495,N,07520.5898,W,0.03,96.86,100612,,,D*41
$GPGGA,161039.000,4026.7495,N,07520.5898,W,2$PMTK001,314,3*36
$PMTK001,220,3*30
$PMTK001,185,3*3C
$GPGGA,161038.000,4026.7495,N,07520.5898,W,2,10,0.78,155.1,M,-33.9,M,0000,0000*59
$GPRMC,161038.000,A,4026.7495,N,07520.5898,W,0.03,96.86,100612,,,D*41
$GPGGA,161039.000,4026.7495,N,07520.5898,W,2$PMTK001,314,3*36
$PMTK001,220,3*30
$PMTK001,185,3*3C
$GPGGA,161038.000,4026.7495,N,07520.5898,W,2,10,0.78,155.1,M,-33.9,M,0000,0000*59
$GPRMC,161038.000,A,4026.7495,N,07520.5898,W,0.03,96.86,100612,,,D*41
$GPGGA,161039.000,4026.7495,N,07520.5898,W,2$PMTK001,314,3*36
$PMTK001,220,3*30
$PMTK001,185,3*3C
$GPGGA,161038.000,4026.7495,N,07520.5898,W,2,10,0.78,155.1,M,-33.9,M,0000,0000*59
$GPRMC,161038.000,A,4026.7495,N,07520.5898,W,0.03,96.86,100612,,,D*41
$GPGGA,161039.000,4026.7495,N,07520.5898,W,2$PMTK001,314,3*36
$PMTK001,220,3*30
$PMTK001,185,3*3C
$GPGGA,161038.000,4026.7495,N,07520.5898,W,2,10,0.78,155.1,M,-33.9,M,0000,0000*59
$GPRMC,161038.000,A,4026.7495,N,07520.5898,W,0.03,96.86,100612,,,D*41
$GPGGA,161039.000,4026.7495,N,07520.5898,W,2$PMTK001,314,3*36
$PMTK001,220,3*30
$PMTK001,185,3*3C
$GPGGA,161038.000,4026.7495,N,07520.5898,W,2,10,0.78,155.1,M,-33.9,M,0000,0000*59
$GPRMC,161038.000,A,4026.7495,N,07520.5898,W,0.03,96.86,100612,,,D*41
$GPGGA,161039.000,4026.7495,N,07520.5898,W,2$PMTK001,314,3*36
$PMTK001,220,3*30
$PMTK001,185,3*3C
$GPGGA,161038.000,4026.7495,N,07520.5898,W,2,10,0.78,155.1,M,-33.9,M,0000,0000*59
$GPRMC,161038.000,A,4026.7495,N,07520.5898,W,0.03,96.86,100612,,,D*41
$GPGGA,161039.000,4026.7495,N,07520.5898,W,2$PMTK001,314,3*36
$PMTK001,220,3*30
$PMTK001,185,3*3C
$GPGGA,161038.000,4026.7495,N,07520.5898,W,2,10,0.78,155.1,M,-33.9,M,0000,0000*59
$GPRMC,161038.000,A,4026.7495,N,07520.5898,W,0.03,96.86,100612,,,D*41
$GPGGA,161039.000,4026.7495,N,07520.5898,W,2$PMTK001,314,3*36
$PMTK001,220,3*30
$PMTK001,185,3*3C
$GPGGA,161038.000,4026.7495,N,07520.5898,W,2,10,0.78,155.1,M,-33.9,M,0000,0000*59
$GPRMC,161038.000,A,4026.7495,N,07520.5898,W,0.03,96.86,100612,,,D*41
$GPGGA,161039.000,4026.7495,N,07520.5898,W,2$PMTK001,314,3*36
$PMTK001,220,3*30
$PMTK001,185,3*3C
$GPGGA,161038.000,4026.7495,N,07520.5898,W,2,10,0.78,155.1,M,-33.9,M,0000,0000*59
$GPRMC,161038.000,A,4026.7495,N,07520.5898,W,0.03,96.86,100612,,,D*41
$GPGGA,161039.000,4026.7495,N,07520.5898,W,2$PMTK001,314,3*36
$PMTK001,220,3*30
$PMTK001,185,3*3C
$GPGGA,161038.000,4026.7495,N,07520.5898,W,2,10,0.78,155.1,M,-33.9,M,0000,0000*59
$GPRMC,161038.000,A,4026.7495,N,07520.5898,W,0.03,96.86,100612,,,D*41
$GPGGA,161039.000,4026.7495,N,07520.5898,W,2$PMTK001,314,3*36
$PMTK001,220,3*30
$PMTK001,185,3*3C
$GPGGA,161038.000,4026.7495,N,07520.5898,W,2,10,0.78,155.1,M,-33.9,M,0000,0000*59
$GPRMC,161038.000,A,4026.7495,N,07520.5898,W,0.03,96.86,100612,,,D*41
$GPGGA,161039.000,4026.7495,N,07520.5898,W,2$PMTK001,314,3*36
$PMTK001,220,3*30
$PMTK001,185,3*3C
$GPGGA,161038.000,4026.7495,N,07520.5898,W,2,10,0.78,155.1,M,-33.9,M,0000,0000*59
$GPRMC,161038.000,A,4026.7495,N,07520.5898,W,0.03,96.86,100612,,,D*41
$GPGGA,161039.000,4026.7495,N,07520.5898,W,2$PMTK001,314,3*36
$PMTK001,220,3*30
$PMTK001,185,3*3C
$GPGGA,161038.000,4026.7495,N,07520.5898,W,2,10,0.78,155.1,M,-33.9,M,0000,0000*59
$GPRMC,161038.000,A,4026.7495,N,07520.5898,W,0.03,96.86,100612,,,D*41
$GPGGA,161039.000,4026.7495,N,07520.5898,W,2$PMTK001,314,3*36
$PMTK001,220,3*30
$PMTK001,185,3*3C
$GPGGA,161038.000,4026.7495,N,07520.5898,W,2,10,0.78,155.1,M,-33.9,M,0000,0000*59
$GPRMC,161038.000,A,4026.7495,N,07520.5898,W,0.03,96.86,100612,,,D*41
$GPGGA,161039.000,4026.7495,N,07520.5898,W,2$PMTK001,314,3*36
$PMTK001,220,3*30
$PMTK001,185,3*3C
$GPGGA,161038.000,4026.7495,N,07520.5898,W,2,10,0.78,155.1,M,-33.9,M,0000,0000*59
$GPRMC,161038.000,A,4026.7495,N,07520.5898,W,0.03,96.86,100612,,,D*41
$GPGGA,161039.000,4026.7495,N,07520.5898,W,2$PMTK001,314,3*36
$PMTK001,220,3*30
$PMTK001,185,3*3C
$GPGGA,161038.000,4026.7495,N,07520.5898,W,2,10,0.78,155.1,M,-33.9,M,0000,0000*59
$GPRMC,161038.000,A,4026.7495,N,07520.5898,W,0.03,96.86,100612,,,D*41
$GPGGA,161039.000,4026.7495,N,07520.5898,W,2