$GPGGA,165526.000,4026.7013,N,07520.5968,W,2,9,0.99,154.0,M,-33.9,M,0000,0000*64
$GPRMC,165526.000,A,4026.7013,N,07520.5968,W,0.05,325.09,100612,,,D*71
$PMTK001,314,3*36
$PMTK001,220,3*30
$PMTK001,185,3*3C
$GPGGA,165527.000,4026.7013,N,07520.5968,W,2$GPGGA,165526.000,4026.7013,N,07520.5968,W,2,9,0.99,154.0,M,-33.9,M,0000,0000*64
$GPRMC,165526.000,A,4026.7013,N,07520.5968,W,0.05,325.09,100612,,,D*71
$PMTK001,314,3*36
$PMTK001,220,3*30
$PMTK001,185,3*3C
$GPGGA,165527.000,4026.7013,N,07520.5968,W,2$GPGGA,165526.000,4026.7013,N,07520.5968,W,2,9,0.99,154.0,M,-33.9,M,0000,0000*64
$GPRMC,165526.000,A,4026.7013,N,07520.5968,W,0.05,325.09,100612,,,D*71
$PMTK001,314,3*36
$PMTK001,220,3*30
$PMTK001,185,3*3C
$GPGGA,165527.000,4026.7013,N,07520.5968,W,2$GPGGA,165526.000,4026.7013,N,07520.5968,W,2,9,0.99,154.0,M,-33.9,M,0000,0000*64
$GPRMC,165526.000,A,4026.7013,N,07520.5968,W,0.05,325.09,100612,,,D*71
$PMTK001,314,3*36
$PMTK001,220,3*30
$PMTK001,185,3*3C
$GPGGA,165527.000,4026.7013,N,07520.5968,W,2$GPGGA,165526.000,4026.7013,N,07520.5968,W,2,9,0.99,154.0,M,-33.9,M,0000,0000*64
$GPRMC,165526.000,A,4026.7013,N,07520.5968,W,0.05,325.09,100612,,,D*71
$PMTK001,314,3*36
$PMTK001,220,3*30
$PMTK001,185,3*3C
$GPGGA,165527.000,4026.7013,N,07520.5968,W,2$GPGGA,165526.000,4026.7013,N,07520.5968,W,2,9,0.99,154.0,M,-33.9,M,0000,0000*64
$GPRMC,165526.000,A,4026.7013,N,07520.5968,W,0.05,325.09,100612,,,D*71
$PMTK001,314,3*36
$PMTK001,220,3*30
$PMTK001,185,3*3C
$GPGGA,165527.000,4026.7013,N,07520.5968,W,2$GPGGA,165526.000,4026.7013,N,07520.5968,W,2,9,0.99,154.0,M,-33.9,M,0000,0000*64
$GPRMC,165526.000,A,4026.7013,N,07520.5968,W,0.05,325.09,100612,,,D*71
$PMTK001,314,3*36
$PMTK001,220,3*30
$PMTK001,185,3*3C
$GPGGA,165527.000,4026.7013,N,07520.5968,W,2$GPGGA,165526.000,4026.7013,N,07520.5968,W,2,9,0.99,154.0,M,-33.9,M,0000,0000*64
$GPRMC,165526.000,A,4026.7013,N,07520.5968,W,0.05,325.09,100612,,,D*71
$PMTK001,314,3*36
$PMTK001,220,3*30
$PMTK001,185,3*3C
$GPGGA,165527.000,4026.7013,N,07520.5968,W,2$GPGGA,165526.000,4026.7013,N,07520.5968,W,2,9,0.99,154.0,M,-33.9,M,0000,0000*64
$GPRMC,165526.000,A,4026.7013,N,07520.5968,W,0.05,325.09,100612,,,D*71
$PMTK001,314,3*36
$PMTK001,220,3*30
$PMTK001,185,3*3C
$GPGGA,165527.000,4026.7013,N,07520.5968,W,2$GPGGA,165526.000,4026.7013,N,07520.5968,W,2,9,0.99,154.0,M,-33.9,M,0000,0000*64
$GPRMC,165526.000,A,4026.7013,N,07520.5968,W,0.05,325.09,100612,,,D*71
$PMTK001,314,3*36
$PMTK001,220,3*30
$PMTK001,185,3*3C
$GPGGA,165527.000,4026.7013,N,07520.5968,W,2$GPGGA,165526.000,4026.7013,N,07520.5968,W,2,9,0.99,154.0,M,-33.9,M,0000,0000*64
$GPRMC,165526.000,A,4026.7013,N,07520.5968,W,0.05,325.09,100612,,,D*71
$PMTK001,314,3*36
$PMTK001,220,3*30
$PMTK001,185,3*3C
$GPGGA,165527.000,4026.7013,N,07520.5968,W,2$GPGGA,165526.000,4026.7013,N,07520.5968,W,2,9,0.99,154.0,M,-33.9,M,0000,0000*64
$GPRMC,165526.000,A,4026.7013,N,07520.5968,W,0.05,325.09,100612,,,D*71
$PMTK001,314,3*36
$PMTK001,220,3*30
$PMTK001,185,3*3C
$GPGGA,165527.000,4026.7013,N,07520.5968,W,2$GPGGA,165526.000,4026.7013,N,07520.5968,W,2,9,0.99,154.0,M,-33.9,M,0000,0000*64
$GPRMC,165526.000,A,4026.7013,N,07520.5968,W,0.05,325.09,100612,,,D*71
$PMTK001,314,3*36
$PMTK001,220,3*30
$PMTK001,185,3*3C
$GPGGA,165527.000,4026.7013,N,07520.5968,W,2$GPGGA,165526.000,4026.7013,N,07520.5968,W,2,9,0.99,154.0,M,-33.9,M,0000,0000*64
$GPRMC,165526.000,A,4026.7013,N,07520.5968,W,0.05,325.09,100612,,,D*71
$PMTK001,314,3*36
$PMTK001,220,3*30
$PMTK001,185,3*3C
$GPGGA,165527.000,4026.7013,N,07520.5968,W,2$GPGGA,165526.000,4026.7013,N,07520.5968,W,2,9,0.99,154.0,M,-33.9,M,0000,0000*64
$GPRMC,165526.000,A,4026.7013,N,07520.5968,W,0.05,325.09,100612,,,D*71
$PMTK001,314,3*36
$PMTK001,220,3*30
$PMTK001,185,3*3C
$GPGGA,165527.000,4026.7013,N,07520.5968,W,2$GPGGA,165526.000,4026.7013,N,07520.5968,W,2,9,0.99,154.0,M,-33.9,M,0000,0000*64
$GPRMC,165526.000,A,4026.7013,N,07520.5968,W,0.05,325.09,100612,,,D*71
$PMTK001,314,3*36
$PMTK001,220,3*30
$PMTK001,185,3*3C
$GPGGA,165527.000,4026.7013,N,07520.5968,W,2$GPGGA,165526.000,4026.7013,N,07520.5968,W,2,9,0.99,154.0,M,-33.9,M,0000,0000*64
$GPRMC,165526.000,A,4026.7013,N,07520.5968,W,0.05,325.09,100612,,,D*71
$PMTK001,314,3*36
$PMTK001,220,3*30
$PMTK001,185,3*3C
$GPGGA,165527.000,4026.7013,N,07520.5968,W,2$GPGGA,165526.000,4026.7013,N,07520.5968,W,2,9,0.99,154.0,M,-33.9,M,0000,0000*64
$GPRMC,165526.000,A,4026.7013,N,07520.5968,W,0.05,325.09,100612,,,D*71
$PMTK001,314,3*36
$PMTK001,220,3*30
$PMTK001,185,3*3C
$GPGGA,165527.000,4026.7013,N,07520.5968,W,2$GPGGA,165526.000,4026.7013,N,07520.5968,W,2,9,0.99,154.0,M,-33.9,M,0000,0000*64
$GPRMC,165526.000,A,4026.7013,N,07520.5968,W,0.05,325.09,100612,,,D*71
$PMTK001,314,3*36
$PMTK001,220,3*30
$PMTK001,185,3*3C
$GPGGA,165527.000,4026.7013,N,07520.5968,W,2$GPGGA,165526.000,4026.7013,N,07520.5968,W,2,9,0.99,154.0,M,-33.9,M,0000,0000*64
$GPRMC,165526.000,A,4026.7013,N,07520.5968,W,0.05,325.09,100612,,,D*71
$PMTK001,314,3*36
$PMTK001,220,3*30
$PMTK001,185,3*3C
$GPGGA,165527.000,4026.7013,N,07520.5968,W,2$GPGGA,165526.000,4026.7013,N,07520.5968,W,2,9,0.99,154.0,M,-33.9,M,0000,0000*64
$GPRMC,165526.000,A,4026.7013,N,07520.5968,W,0.05,325.09,100612,,,D*71
$PMTK001,314,3*36
$PMTK001,220,3*30
$PMTK001,185,3*3C
$GPGGA,165527.000,4026.7013,N,07520.5968,W,2$GPGGA,165526.000,4026.7013,N,07520.5968,W,2,9,0.99,154.0,M,-33.9,M,0000,0000*64
$GPRMC,165526.000,A,4026.7013,N,07520.5968,W,0.05,325.09,100612,,,D*71
$PMTK001,314,3*36
$PMTK001,220,3*30
$PMTK001,185,3*3C
$GPGGA,165527.000,4026.7013,N,07520.5968,W,2$GPGGA,165526.000,4026.7013,N,07520.5968,W,2,9,0.99,154.0,M,-33.9,M,0000,0000*64
$GPRMC,165526.000,A,4026.7013,N,07520.5968,W,0.05,325.09,100612,,,D*71
$PMTK001,314,3*36
$PMTK001,220,3*30
$PMTK001,185,3*3C
$GPGGA,165527.000,4026.7013,N,07520.5968,W,2$GPGGA,165526.000,4026.7013,N,07520.5968,W,2,9,0.99,154.0,M,-33.9,M,0000,0000*64
$GPRMC,165526.000,A,4026.7013,N,07520.5968,W,0.05,325.09,100612,,,D*71
$PMTK001,314,3*36
$PMTK001,220,3*30
$PMTK001,185,3*3C
$GPGGA,165527.000,4026.7013,N,07520.5968,W,2$GPGGA,165526.000,4026.7013,N,07520.5968,W,2,9,0.99,154.0,M,-33.9,M,0000,0000*64
$GPRMC,165526.000,A,4026.7013,N,07520.5968,W,0.05,325.09,100612,,,D*71
$PMTK001,314,3*36
$PMTK001,220,3*30
$PMTK001,185,3*3C
$GPGGA,165527.000,4026.7013,N,07520.5968,W,2$GPGGA,165526.000,4026.7013,N,07520.5968,W,2,9,0.99,154.0,M,-33.9,M,0000,0000*64
$GPRMC,165526.000,A,4026.7013,N,07520.5968,W,0.05,325.09,100612,,,D*71
$PMTK001,314,3*36
$PMTK001,220,3*30
$PMTK001,185,3*3C
$GPGGA,165527.000,4026.7013,N,07520.5968,W,2$GPGGA,165526.000,4026.7013,N,07520.5968,W,2,9,0.99,154.0,M,-33.9,M,0000,0000*64
$GPRMC,165526.000,A,4026.7013,N,07520.5968,W,0.05,325.09,100612,,,D*71
$PMTK001,314,3*36
$PMTK001,220,3*30
$PMTK001,185,3*3C
$GPGGA,165527.000,4026.7013,N,07520.5968,W,2$GPGGA,165526.000,4026.7013,N,07520.5968,W,2,9,0.99,154.0,M,-33.9,M,0000,0000*64
$GPRMC,165526.000,A,4026.7013,N,07520.5968,W,0.05,325.09,100612,,,D*71
$PMTK001,314,3*36
$PMTK001,220,3*30
$PMTK001,185,3*3C
$GPGGA,165527.000,4026.7013,N,07520.5968,W,2$GPGGA,165526.000,4026.7013,N,07520.5968,W,2,9,0.99,154.0,M,-33.9,M,0000,0000*64
$GPRMC,165526.000,A,4026.7013,N,07520.5968,W,0.05,325.09,100612,,,D*71
$PMTK001,314,3*36
$PMTK001,220,3*30
$PMTK001,185,3*3C
$GPGGA,165527.000,4026.7013,N,07520.5968,W,2$GPGGA,165526.000,4026.7013,N,07520.5968,W,2,9,0.99,154.0,M,-33.9,M,0000,0000*64
$GPRMC,165526.000,A,4026.7013,N,07520.5968,W,0.05,325.09,100612,,,D*71
$PMTK001,314,3*36
$PMTK001,220,3*30
$PMTK001,185,3*3C
$GPGGA,165527.000,4026.7013,N,07520.5968,W,2$GPGGA,165526.000,4026.7013,N,07520.5968,W,2,9,0.99,154.0,M,-33.9,M,0000,0000*64
$GPRMC,165526.000,A,4026.7013,N,07520.5968,W,0.05,325.09,100612,,,D*71
$PMTK001,314,3*36
$PMTK001,220,3*30
$PMTK001,185,3*3C
$GPGGA,165527.000,4026.7013,N,07520.5968,W,2$GPGGA,165526.000,4026.7013,N,07520.5968,W,2,9,0.99,154.0,M,-33.9,M,0000,0000*64
$GPRMC,165526.000,A,4026.7013,N,07520.5968,W,0.05,325.09,100612,,,D*71
$PMTK001,314,3*36
$PMTK001,220,3*30
$PMTK001,185,3*3C
$GPGGA,165527.000,4026.7013,N,07520.5968,W,2$GPGGA,165526.000,4026.7013,N,07520.5968,W,2,9,0.99,154.0,M,-33.9,M,0000,0000*64
$GPRMC,165526.000,A,4026.7013,N,07520.5968,W,0.05,325.09,100612,,,D*71
$PMTK001,314,3*36
$PMTK001,220,3*30
$PMTK001,185,3*3C
$GPGGA,165527.000,4026.7013,N,07520.5968,W,2$GPGGA,165526.000,4026.7013,N,07520.5968,W,2,9,0.99,154.0,M,-33.9,M,0000,0000*64
$GPRMC,165526.000,A,4026.7013,N,07520.5968,W,0.05,325.09,100612,,,D*71
$PMTK001,314,3*36
$PMTK001,220,3*30
$PMTK001,185,3*3C
$GPGGA,165527.000,4026.7013,N,07520.5968,W,2$GPGGA,165526.000,4026.7013,N,07520.5968,W,2,9,0.99,154.0,M,-33.9,M,0000,0000*64
$GPRMC,165526.000,A,4026.7013,N,07520.5968,W,0.05,325.09,100612,,,D*71
$PMTK001,314,3*36
$PMTK001,220,3*30
$PMTK001,185,3*3C
$GPGGA,165527.000,4026.7013,N,07520.5968,W,2$GPGGA,165526.000,4026.7013,N,07520.5968,W,2,9,0.99,154.0,M,-33.9,M,0000,0000*64
$GPRMC,165526.000,A,4026.7013,N,07520.5968,W,0.05,325.09,100612,,,D*71
$PMTK001,314,3*36
$PMTK001,220,3*30
$PMTK001,185,3*3C
$GPGGA,165527.000,4026.7013,N,07520.5968,W,2$GPGGA,165526.000,4026.7013,N,07520.5968,W,2,9,0.99,154.0,M,-33.9,M,0000,0000*64
$GPRMC,165526.000,A,4026.7013,N,07520.5968,W,0.05,325.09,100612,,,D*71
$PMTK001,314,3*36
$PMTK001,220,3*30
$PMTK001,185,3*3C
$GPGGA,165527.000,4026.7013,N,07520.5968,W,2$GPGGA,165526.000,4026.7013,N,07520.5968,W,2,9,0.99,154.0,M,-33.9,M,0000,0000*64
$GPRMC,165526.000,A,4026.7013,N,07520.5968,W,0.05,325.09,100612,,,D*71
$PMTK001,314,3*36
$PMTK001,220,3*30
$PMTK001,185,3*3C
$GPGGA,165527.000,4026.7013,N,07520.5968,W,2$GPGGA,165526.000,4026.7013,N,07520.5968,W,2,9,0.99,154.0,M,-33.9,M,0000,0000*64
$GPRMC,165526.000,A,4026.7013,N,07520.5968,W,0.05,325.09,100612,,,D*71
$PMTK001,314,3*36
$PMTK001,220,3*30
$PMTK001,185,3*3C
$GPGGA,165527.000,4026.7013,N,07520.5968,W,2$GPGGA,165526.000,4026.7013,N,07520.5968,W,2,9,0.99,154.0,M,-33.9,M,0000,0000*64
$GPRMC,165526.000,A,4026.7013,N,07520.5968,W,0.05,325.09,100612,,,D*71
$PMTK001,314,3*36
$PMTK001,220,3*30
$PMTK001,185,3*3C
$GPGGA,165527.000,4026.7013,N,07520.5968,W,2$GPGGA,165526.000,4026.7013,N,07520.5968,W,2,9,0.99,154.0,M,-33.9,M,0000,0000*64
$GPRMC,165526.000,A,4026.7013,N,07520.5968,W,0.05,325.09,100612,,,D*71
$PMTK001,314,3*36
$PMTK001,220,3*30
$PMTK001,185,3*3C
$GPGGA,165527.000,4026.7013,N,07520.5968,W,2$GPGGA,165526.000,4026.7013,N,07520.5968,W,2,9,0.99,154.0,M,-33.9,M,0000,0000*64
$GPRMC,165526.000,A,4026.7013,N,07520.5968,W,0.05,325.09,100612,,,D*71
$PMTK001,314,3*36
$PMTK001,220,3*30
$PMTK001,185,3*3C
$GPGGA,165527.000,4026.7013,N,07520.5968,W,2$GPGGA,165526.000,4026.7013,N,07520.5968,W,2,9,0.99,154.0,M,-33.9,M,0000,0000*64
$GPRMC,165526.000,A,4026.7013,N,07520.5968,W,0.05,325.09,100612,,,D*71
$PMTK001,314,3*36
$PMTK001,220,3*30
$PMTK001,185,3*3C
$GPGGA,165527.000,4026.7013,N,07520.5968,W,2$GPGGA,165526.000,4026.7013,N,07520.5968,W,2,9,0.99,154.0,M,-33.9,M,0000,0000*64
$GPRMC,165526.000,A,4026.7013,N,07520.5968,W,0.05,325.09,100612,,,D*71
$PMTK001,314,3*36
$PMTK001,220,3*30
$PMTK001,185,3*3C
$GPGGA,165527.000,4026.7013,N,07520.5968,W,2$GPGGA,165526.000,4026.7013,N,07520.5968,W,2,9,0.99,154.0,M,-33.9,M,0000,0000*64
$GPRMC,165526.000,A,4026.7013,N,07520.5968,W,0.05,325.09,100612,,,D*71
$PMTK001,314,3*36
$PMTK001,220,3*30
$PMTK001,185,3*3C
$GPGGA,165527.000,4026.7013,N,07520.5968,W,2$GPGGA,165526.000,4026.7013,N,07520.5968,W,2,9,0.99,154.0,M,-33.9,M,0000,0000*64
$GPRMC,165526.000,A,4026.7013,N,07520.5968,W,0.05,325.09,100612,,,D*71
$PMTK001,314,3*36
$PMTK001,220,3*30
$PMTK001,185,3*3C
$GPGGA,165527.000,4026.7013,N,07520.5968,W,2$GPGGA,165526.000,4026.7013,N,07520.5968,W,2,9,0.99,154.0,M,-33.9,M,0000,0000*64
$GPRMC,165526.000,A,4026.7013,N,07520.5968,W,0.05,325.09,100612,,,D*71
$PMTK001,314,3*36
$PMTK001,220,3*30
$PMTK001,185,3*3C
$GPGGA,165527.000,4026.7013,N,07520.5968,W,2$GPGGA,165526.000,4026.7013,N,07520.5968,W,2,9,0.99,154.0,M,-33.9,M,0000,0000*64
$GPRMC,165526.000,A,4026.7013,N,07520.5968,W,0.05,325.09,100612,,,D*71
$PMTK001,314,3*36
$PMTK001,220,3*30
$PMTK001,185,3*3C
$GPGGA,165527.000,4026.7013,N,07520.5968,W,2$GPGGA,165526.000,4026.7013,N,07520.5968,W,2,9,0.99,154.0,M,-33.9,M,0000,0000*64
$GPRMC,165526.000,A,4026.7013,N,07520.5968,W,0.05,325.09,100612,,,D*71
$PMTK001,314,3*36
$PMTK001,220,3*30
$PMTK001,185,3*3C
$GPGGA,165527.000,4026.7013,N,07520.5968,W,2$GPGGA,165526.000,4026.7013,N,07520.5968,W,2,9,0.99,154.0,M,-33.9,M,0000,0000*64
$GPRMC,165526.000,A,4026.7013,N,07520.5968,W,0.05,325.09,100612,,,D*71
$PMTK001,314,3*36
$PMTK001,220,3*30
$PMTK001,185,3*3C
$GPGGA,165527.000,4026.7013,N,07520.5968,W,2$GPGGA,165526.000,4026.7013,N,07520.5968,W,2,9,0.99,154.0,M,-33.9,M,0000,0000*64
$GPRMC,165526.000,A,4026.7013,N,07520.5968,W,0.05,325.09,100612,,,D*71
$PMTK001,314,3*36
$PMTK001,220,3*30
$PMTK001,185,3*3C
$GPGGA,165527.000,4026.7013,N,07520.5968,W,2$GPGGA,165526.000,4026.7013,N,07520.5968,W,2,9,0.99,154.0,M,-33.9,M,0000,0000*64
$GPRMC,165526.000,A,4026.7013,N,07520.5968,W,0.05,325.09,100612,,,D*71
$PMTK001,314,3*36
$PMTK001,220,3*30
$PMTK001,185,3*3C
$GPGGA,165527.000,4026.7013,N,07520.5968,W,2$GPGGA,165526.000,4026.7013,N,07520.5968,W,2,9,0.99,154.0,M,-33.9,M,0000,0000*64
$GPRMC,165526.000,A,4026.7013,N,07520.5968,W,0.05,325.09,100612,,,D*71
$PMTK001,314,3*36
$PMTK001,220,3*30
$PMTK001,185,3*3C
$GPGGA,165527.000,4026.7013,N,07520.5968,W,2$GPGGA,165526.000,4026.7013,N,07520.5968,W,2,9,0.99,154.0,M,-33.9,M,0000,0000*64
$GPRMC,165526.000,A,4026.7013,N,07520.5968,W,0.05,325.09,100612,,,D*71
$PMTK001,314,3*36
$PMTK001,220,3*30
$PMTK001,185,3*3C
$GPGGA,165527.000,4026.7013,N,07520.5968,W,2$GPGGA,165526.000,4026.7013,N,07520.5968,W,2,9,0.99,154.0,M,-33.9,M,0000,0000*64
$GPRMC,165526.000,A,4026.7013,N,07520.5968,W,0.05,325.09,100612,,,D*71
$PMTK001,314,3*36
$PMTK001,220,3*30
$PMTK001,185,3*3C
$GPGGA,165527.000,4026.7013,N,07520.5968,W,2$GPGGA,165526.000,4026.7013,N,07520.5968,W,2,9,0.99,154.0,M,-33.9,M,0000,0000*64
$GPRMC,165526.000,A,4026.7013,N,07520.5968,W,0.05,325.09,100612,,,D*71
$PMTK001,314,3*36
$PMTK001,220,3*30
$PMTK001,185,3*3C
$GPGGA,165527.000,4026.7013,N,07520.5968,W,2$GPGGA,165526.000,4026.7013,N,07520.5968,W,2,9,0.99,154.0,M,-33.9,M,0000,0000*64
$GPRMC,165526.000,A,4026.7013,N,07520.5968,W,0.05,325.09,100612,,,D*71
$PMTK001,314,3*36
$PMTK001,220,3*30
$PMTK001,185,3*3C
$GPGGA,165527.000,4026.7013,N,07520.5968,W,2$GPGGA,165526.000,4026.7013,N,07520.5968,W,2,9,0.99,154.0,M,-33.9,M,0000,0000*64
$GPRMC,165526.000,A,4026.7013,N,07520.5968,W,0.05,325.09,100612,,,D*71
$PMTK001,314,3*36
$PMTK001,220,3*30
$PMTK001,185,3*3C
$GPGGA,165527.000,4026.7013,N,07520.5968,W,2