$PMTK001,314,3*36
$PMTK001,220,3*30
$PMTK001,185,3*3C
$GPGGA,184640.000,4009.0588,N,07506.5224,W,2,12,0.82,8382.2,M,-34.0,M,0000,0000*6F
$GPRMC,184640.000,A,4009.0588,N,07506.5224,W,21.31,164.72,100612,,,D*48
$GPGGA,184641.000,4009.0531,N,07506.5202,$PMTK001,314,3*36
$PMTK001,220,3*30
$PMTK001,185,3*3C
$GPGGA,184640.000,4009.0588,N,07506.5224,W,2,12,0.82,8382.2,M,-34.0,M,0000,0000*6F
$GPRMC,184640.000,A,4009.0588,N,07506.5224,W,21.31,164.72,100612,,,D*48
$GPGGA,184641.000,4009.0531,N,07506.5202,$PMTK001,314,3*36
$PMTK001,220,3*30
$PMTK001,185,3*3C
$GPGGA,184640.000,4009.0588,N,07506.5224,W,2,12,0.82,8382.2,M,-34.0,M,0000,0000*6F
$GPRMC,184640.000,A,4009.0588,N,07506.5224,W,21.31,164.72,100612,,,D*48
$GPGGA,184641.000,4009.0531,N,07506.5202,$PMTK001,314,3*36
$PMTK001,220,3*30
$PMTK001,185,3*3C
$GPGGA,184640.000,4009.0588,N,07506.5224,W,2,12,0.82,8382.2,M,-34.0,M,0000,0000*6F
$GPRMC,184640.000,A,4009.0588,N,07506.5224,W,21.31,164.72,100612,,,D*48
$GPGGA,184641.000,4009.0531,N,07506.5202,$PMTK001,314,3*36
$PMTK001,220,3*30
$PMTK001,185,3*3C
$GPGGA,184640.000,4009.0588,N,07506.5224,W,2,12,0.82,8382.2,M,-34.0,M,0000,0000*6F
$GPRMC,184640.000,A,4009.0588,N,07506.5224,W,21.31,164.72,100612,,,D*48
$GPGGA,184641.000,4009.0531,N,07506.5202,$PMTK001,314,3*36
$PMTK001,220,3*30
$PMTK001,185,3*3C
$GPGGA,184640.000,4009.0588,N,07506.5224,W,2,12,0.82,8382.2,M,-34.0,M,0000,0000*6F
$GPRMC,184640.000,A,4009.0588,N,07506.5224,W,21.31,164.72,100612,,,D*48
$GPGGA,184641.000,4009.0531,N,07506.5202,$PMTK001,314,3*36
$PMTK001,220,3*30
$PMTK001,185,3*3C
$GPGGA,184640.000,4009.0588,N,07506.5224,W,2,12,0.82,8382.2,M,-34.0,M,0000,0000*6F
$GPRMC,184640.000,A,4009.0588,N,07506.5224,W,21.31,164.72,100612,,,D*48
$GPGGA,184641.000,4009.0531,N,07506.5202,$PMTK001,314,3*36
$PMTK001,220,3*30
$PMTK001,185,3*3C
$GPGGA,184640.000,4009.0588,N,07506.5224,W,2,12,0.82,8382.2,M,-34.0,M,0000,0000*6F
$GPRMC,184640.000,A,4009.0588,N,07506.5224,W,21.31,164.72,100612,,,D*48
$GPGGA,184641.000,4009.0531,N,07506.5202,$PMTK001,314,3*36
$PMTK001,220,3*30
$PMTK001,185,3*3C
$GPGGA,184640.000,4009.0588,N,07506.5224,W,2,12,0.82,8382.2,M,-34.0,M,0000,0000*6F
$GPRMC,184640.000,A,4009.0588,N,07506.5224,W,21.31,164.72,100612,,,D*48
$GPGGA,184641.000,4009.0531,N,07506.5202,$PMTK001,314,3*36
$PMTK001,220,3*30
$PMTK001,185,3*3C
$GPGGA,184640.000,4009.0588,N,07506.5224,W,2,12,0.82,8382.2,M,-34.0,M,0000,0000*6F
$GPRMC,184640.000,A,4009.0588,N,07506.5224,W,21.31,164.72,100612,,,D*48
$GPGGA,184641.000,4009.0531,N,07506.5202,$PMTK001,314,3*36
$PMTK001,220,3*30
$PMTK001,185,3*3C
$GPGGA,184640.000,4009.0588,N,07506.5224,W,2,12,0.82,8382.2,M,-34.0,M,0000,0000*6F
$GPRMC,184640.000,A,4009.0588,N,07506.5224,W,21.31,164.72,100612,,,D*48
$GPGGA,184641.000,4009.0531,N,07506.5202,$PMTK001,314,3*36
$PMTK001,220,3*30
$PMTK001,185,3*3C
$GPGGA,184640.000,4009.0588,N,07506.5224,W,2,12,0.82,8382.2,M,-34.0,M,0000,0000*6F
$GPRMC,184640.000,A,4009.0588,N,07506.5224,W,21.31,164.72,100612,,,D*48
$GPGGA,184641.000,4009.0531,N,07506.5202,$PMTK001,314,3*36
$PMTK001,220,3*30
$PMTK001,185,3*3C
$GPGGA,184640.000,4009.0588,N,07506.5224,W,2,12,0.82,8382.2,M,-34.0,M,0000,0000*6F
$GPRMC,184640.000,A,4009.0588,N,07506.5224,W,21.31,164.72,100612,,,D*48
$GPGGA,184641.000,4009.0531,N,07506.5202,$PMTK001,314,3*36
$PMTK001,220,3*30
$PMTK001,185,3*3C
$GPGGA,184640.000,4009.0588,N,07506.5224,W,2,12,0.82,8382.2,M,-34.0,M,0000,0000*6F
$GPRMC,184640.000,A,4009.0588,N,07506.5224,W,21.31,164.72,100612,,,D*48
$GPGGA,184641.000,4009.0531,N,07506.5202,$PMTK001,314,3*36
$PMTK001,220,3*30
$PMTK001,185,3*3C
$GPGGA,184640.000,4009.0588,N,07506.5224,W,2,12,0.82,8382.2,M,-34.0,M,0000,0000*6F
$GPRMC,184640.000,A,4009.0588,N,07506.5224,W,21.31,164.72,100612,,,D*48
$GPGGA,184641.000,4009.0531,N,07506.5202,$PMTK001,314,3*36
$PMTK001,220,3*30
$PMTK001,185,3*3C
$GPGGA,184640.000,4009.0588,N,07506.5224,W,2,12,0.82,8382.2,M,-34.0,M,0000,0000*6F
$GPRMC,184640.000,A,4009.0588,N,07506.5224,W,21.31,164.72,100612,,,D*48
$GPGGA,184641.000,4009.0531,N,07506.5202,$PMTK001,314,3*36
$PMTK001,220,3*30
$PMTK001,185,3*3C
$GPGGA,184640.000,4009.0588,N,07506.5224,W,2,12,0.82,8382.2,M,-34.0,M,0000,0000*6F
$GPRMC,184640.000,A,4009.0588,N,07506.5224,W,21.31,164.72,100612,,,D*48
$GPGGA,184641.000,4009.0531,N,07506.5202,$PMTK001,314,3*36
$PMTK001,220,3*30
$PMTK001,185,3*3C
$GPGGA,184640.000,4009.0588,N,07506.5224,W,2,12,0.82,8382.2,M,-34.0,M,0000,0000*6F
$GPRMC,184640.000,A,4009.0588,N,07506.5224,W,21.31,164.72,100612,,,D*48
$GPGGA,184641.000,4009.0531,N,07506.5202,$PMTK001,314,3*36
$PMTK001,220,3*30
$PMTK001,185,3*3C
$GPGGA,184640.000,4009.0588,N,07506.5224,W,2,12,0.82,8382.2,M,-34.0,M,0000,0000*6F
$GPRMC,184640.000,A,4009.0588,N,07506.5224,W,21.31,164.72,100612,,,D*48
$GPGGA,184641.000,4009.0531,N,07506.5202,$PMTK001,314,3*36
$PMTK001,220,3*30
$PMTK001,185,3*3C
$GPGGA,184640.000,4009.0588,N,07506.5224,W,2,12,0.82,8382.2,M,-34.0,M,0000,0000*6F
$GPRMC,184640.000,A,4009.0588,N,07506.5224,W,21.31,164.72,100612,,,D*48
$GPGGA,184641.000,4009.0531,N,07506.5202,$PMTK001,314,3*36
$PMTK001,220,3*30
$PMTK001,185,3*3C
$GPGGA,184640.000,4009.0588,N,07506.5224,W,2,12,0.82,8382.2,M,-34.0,M,0000,0000*6F
$GPRMC,184640.000,A,4009.0588,N,07506.5224,W,21.31,164.72,100612,,,D*48
$GPGGA,184641.000,4009.0531,N,07506.5202,$PMTK001,314,3*36
$PMTK001,220,3*30
$PMTK001,185,3*3C
$GPGGA,184640.000,4009.0588,N,07506.5224,W,2,12,0.82,8382.2,M,-34.0,M,0000,0000*6F
$GPRMC,184640.000,A,4009.0588,N,07506.5224,W,21.31,164.72,100612,,,D*48
$GPGGA,184641.000,4009.0531,N,07506.5202,$PMTK001,314,3*36
$PMTK001,220,3*30
$PMTK001,185,3*3C
$GPGGA,184640.000,4009.0588,N,07506.5224,W,2,12,0.82,8382.2,M,-34.0,M,0000,0000*6F
$GPRMC,184640.000,A,4009.0588,N,07506.5224,W,21.31,164.72,100612,,,D*48
$GPGGA,184641.000,4009.0531,N,07506.5202,$PMTK001,314,3*36
$PMTK001,220,3*30
$PMTK001,185,3*3C
$GPGGA,184640.000,4009.0588,N,07506.5224,W,2,12,0.82,8382.2,M,-34.0,M,0000,0000*6F
$GPRMC,184640.000,A,4009.0588,N,07506.5224,W,21.31,164.72,100612,,,D*48
$GPGGA,184641.000,4009.0531,N,07506.5202,$PMTK001,314,3*36
$PMTK001,220,3*30
$PMTK001,185,3*3C
$GPGGA,184640.000,4009.0588,N,07506.5224,W,2,12,0.82,8382.2,M,-34.0,M,0000,0000*6F
$GPRMC,184640.000,A,4009.0588,N,07506.5224,W,21.31,164.72,100612,,,D*48
$GPGGA,184641.000,4009.0531,N,07506.5202,$PMTK001,314,3*36
$PMTK001,220,3*30
$PMTK001,185,3*3C
$GPGGA,184640.000,4009.0588,N,07506.5224,W,2,12,0.82,8382.2,M,-34.0,M,0000,0000*6F
$GPRMC,184640.000,A,4009.0588,N,07506.5224,W,21.31,164.72,100612,,,D*48
$GPGGA,184641.000,4009.0531,N,07506.5202,$PMTK001,314,3*36
$PMTK001,220,3*30
$PMTK001,185,3*3C
$GPGGA,184640.000,4009.0588,N,07506.5224,W,2,12,0.82,8382.2,M,-34.0,M,0000,0000*6F
$GPRMC,184640.000,A,4009.0588,N,07506.5224,W,21.31,164.72,100612,,,D*48
$GPGGA,184641.000,4009.0531,N,07506.5202,$PMTK001,314,3*36
$PMTK001,220,3*30
$PMTK001,185,3*3C
$GPGGA,184640.000,4009.0588,N,07506.5224,W,2,12,0.82,8382.2,M,-34.0,M,0000,0000*6F
$GPRMC,184640.000,A,4009.0588,N,07506.5224,W,21.31,164.72,100612,,,D*48
$GPGGA,184641.000,4009.0531,N,07506.5202,$PMTK001,314,3*36
$PMTK001,220,3*30
$PMTK001,185,3*3C
$GPGGA,184640.000,4009.0588,N,07506.5224,W,2,12,0.82,8382.2,M,-34.0,M,0000,0000*6F
$GPRMC,184640.000,A,4009.0588,N,07506.5224,W,21.31,164.72,100612,,,D*48
$GPGGA,184641.000,4009.0531,N,07506.5202,$PMTK001,314,3*36
$PMTK001,220,3*30
$PMTK001,185,3*3C
$GPGGA,184640.000,4009.0588,N,07506.5224,W,2,12,0.82,8382.2,M,-34.0,M,0000,0000*6F
$GPRMC,184640.000,A,4009.0588,N,07506.5224,W,21.31,164.72,100612,,,D*48
$GPGGA,184641.000,4009.0531,N,07506.5202,$PMTK001,314,3*36
$PMTK001,220,3*30
$PMTK001,185,3*3C
$GPGGA,184640.000,4009.0588,N,07506.5224,W,2,12,0.82,8382.2,M,-34.0,M,0000,0000*6F
$GPRMC,184640.000,A,4009.0588,N,07506.5224,W,21.31,164.72,100612,,,D*48
$GPGGA,184641.000,4009.0531,N,07506.5202,$PMTK001,314,3*36
$PMTK001,220,3*30
$PMTK001,185,3*3C
$GPGGA,184640.000,4009.0588,N,07506.5224,W,2,12,0.82,8382.2,M,-34.0,M,0000,0000*6F
$GPRMC,184640.000,A,4009.0588,N,07506.5224,W,21.31,164.72,100612,,,D*48
$GPGGA,184641.000,4009.0531,N,07506.5202,$PMTK001,314,3*36
$PMTK001,220,3*30
$PMTK001,185,3*3C
$GPGGA,184640.000,4009.0588,N,07506.5224,W,2,12,0.82,8382.2,M,-34.0,M,0000,0000*6F
$GPRMC,184640.000,A,4009.0588,N,07506.5224,W,21.31,164.72,100612,,,D*48
$GPGGA,184641.000,4009.0531,N,07506.5202,$PMTK001,314,3*36
$PMTK001,220,3*30
$PMTK001,185,3*3C
$GPGGA,184640.000,4009.0588,N,07506.5224,W,2,12,0.82,8382.2,M,-34.0,M,0000,0000*6F
$GPRMC,184640.000,A,4009.0588,N,07506.5224,W,21.31,164.72,100612,,,D*48
$GPGGA,184641.000,4009.0531,N,07506.5202,$PMTK001,314,3*36
$PMTK001,220,3*30
$PMTK001,185,3*3C
$GPGGA,184640.000,4009.0588,N,07506.5224,W,2,12,0.82,8382.2,M,-34.0,M,0000,0000*6F
$GPRMC,184640.000,A,4009.0588,N,07506.5224,W,21.31,164.72,100612,,,D*48
$GPGGA,184641.000,4009.0531,N,07506.5202,$PMTK001,314,3*36
$PMTK001,220,3*30
$PMTK001,185,3*3C
$GPGGA,184640.000,4009.0588,N,07506.5224,W,2,12,0.82,8382.2,M,-34.0,M,0000,0000*6F
$GPRMC,184640.000,A,4009.0588,N,07506.5224,W,21.31,164.72,100612,,,D*48
$GPGGA,184641.000,4009.0531,N,07506.5202,$PMTK001,314,3*36
$PMTK001,220,3*30
$PMTK001,185,3*3C
$GPGGA,184640.000,4009.0588,N,07506.5224,W,2,12,0.82,8382.2,M,-34.0,M,0000,0000*6F
$GPRMC,184640.000,A,4009.0588,N,07506.5224,W,21.31,164.72,100612,,,D*48
$GPGGA,184641.000,4009.0531,N,07506.5202,$PMTK001,314,3*36
$PMTK001,220,3*30
$PMTK001,185,3*3C
$GPGGA,184640.000,4009.0588,N,07506.5224,W,2,12,0.82,8382.2,M,-34.0,M,0000,0000*6F
$GPRMC,184640.000,A,4009.0588,N,07506.5224,W,21.31,164.72,100612,,,D*48
$GPGGA,184641.000,4009.0531,N,07506.5202,$PMTK001,314,3*36
$PMTK001,220,3*30
$PMTK001,185,3*3C
$GPGGA,184640.000,4009.0588,N,07506.5224,W,2,12,0.82,8382.2,M,-34.0,M,0000,0000*6F
$GPRMC,184640.000,A,4009.0588,N,07506.5224,W,21.31,164.72,100612,,,D*48
$GPGGA,184641.000,4009.0531,N,07506.5202,$PMTK001,314,3*36
$PMTK001,220,3*30
$PMTK001,185,3*3C
$GPGGA,184640.000,4009.0588,N,07506.5224,W,2,12,0.82,8382.2,M,-34.0,M,0000,0000*6F
$GPRMC,184640.000,A,4009.0588,N,07506.5224,W,21.31,164.72,100612,,,D*48
$GPGGA,184641.000,4009.0531,N,07506.5202,$PMTK001,314,3*36
$PMTK001,220,3*30
$PMTK001,185,3*3C
$GPGGA,184640.000,4009.0588,N,07506.5224,W,2,12,0.82,8382.2,M,-34.0,M,0000,0000*6F
$GPRMC,184640.000,A,4009.0588,N,07506.5224,W,21.31,164.72,100612,,,D*48
$GPGGA,184641.000,4009.0531,N,07506.5202,$PMTK001,314,3*36
$PMTK001,220,3*30
$PMTK001,185,3*3C
$GPGGA,184640.000,4009.0588,N,07506.5224,W,2,12,0.82,8382.2,M,-34.0,M,0000,0000*6F
$GPRMC,184640.000,A,4009.0588,N,07506.5224,W,21.31,164.72,100612,,,D*48
$GPGGA,184641.000,4009.0531,N,07506.5202,$PMTK001,314,3*36
$PMTK001,220,3*30
$PMTK001,185,3*3C
$GPGGA,184640.000,4009.0588,N,07506.5224,W,2,12,0.82,8382.2,M,-34.0,M,0000,0000*6F
$GPRMC,184640.000,A,4009.0588,N,07506.5224,W,21.31,164.72,100612,,,D*48
$GPGGA,184641.000,4009.0531,N,07506.5202,$PMTK001,314,3*36
$PMTK001,220,3*30
$PMTK001,185,3*3C
$GPGGA,184640.000,4009.0588,N,07506.5224,W,2,12,0.82,8382.2,M,-34.0,M,0000,0000*6F
$GPRMC,184640.000,A,4009.0588,N,07506.5224,W,21.31,164.72,100612,,,D*48
$GPGGA,184641.000,4009.0531,N,07506.5202,$PMTK001,314,3*36
$PMTK001,220,3*30
$PMTK001,185,3*3C
$GPGGA,184640.000,4009.0588,N,07506.5224,W,2,12,0.82,8382.2,M,-34.0,M,0000,0000*6F
$GPRMC,184640.000,A,4009.0588,N,07506.5224,W,21.31,164.72,100612,,,D*48
$GPGGA,184641.000,4009.0531,N,07506.5202,$PMTK001,314,3*36
$PMTK001,220,3*30
$PMTK001,185,3*3C
$GPGGA,184640.000,4009.0588,N,07506.5224,W,2,12,0.82,8382.2,M,-34.0,M,0000,0000*6F
$GPRMC,184640.000,A,4009.0588,N,07506.5224,W,21.31,164.72,100612,,,D*48
$GPGGA,184641.000,4009.0531,N,07506.5202,$PMTK001,314,3*36
$PMTK001,220,3*30
$PMTK001,185,3*3C
$GPGGA,184640.000,4009.0588,N,07506.5224,W,2,12,0.82,8382.2,M,-34.0,M,0000,0000*6F
$GPRMC,184640.000,A,4009.0588,N,07506.5224,W,21.31,164.72,100612,,,D*48
$GPGGA,184641.000,4009.0531,N,07506.5202,$PMTK001,314,3*36
$PMTK001,220,3*30
$PMTK001,185,3*3C
$GPGGA,184640.000,4009.0588,N,07506.5224,W,2,12,0.82,8382.2,M,-34.0,M,0000,0000*6F
$GPRMC,184640.000,A,4009.0588,N,07506.5224,W,21.31,164.72,100612,,,D*48
$GPGGA,184641.000,4009.0531,N,07506.5202,$PMTK001,314,3*36
$PMTK001,220,3*30
$PMTK001,185,3*3C
$GPGGA,184640.000,4009.0588,N,07506.5224,W,2,12,0.82,8382.2,M,-34.0,M,0000,0000*6F
$GPRMC,184640.000,A,4009.0588,N,07506.5224,W,21.31,164.72,100612,,,D*48
$GPGGA,184641.000,4009.0531,N,07506.5202,$PMTK001,314,3*36
$PMTK001,220,3*30
$PMTK001,185,3*3C
$GPGGA,184640.000,4009.0588,N,07506.5224,W,2,12,0.82,8382.2,M,-34.0,M,0000,0000*6F
$GPRMC,184640.000,A,4009.0588,N,07506.5224,W,21.31,164.72,100612,,,D*48
$GPGGA,184641.000,4009.0531,N,07506.5202,$PMTK001,314,3*36
$PMTK001,220,3*30
$PMTK001,185,3*3C
$GPGGA,184640.000,4009.0588,N,07506.5224,W,2,12,0.82,8382.2,M,-34.0,M,0000,0000*6F
$GPRMC,184640.000,A,4009.0588,N,07506.5224,W,21.31,164.72,100612,,,D*48
$GPGGA,184641.000,4009.0531,N,07506.5202,$PMTK001,314,3*36
$PMTK001,220,3*30
$PMTK001,185,3*3C
$GPGGA,184640.000,4009.0588,N,07506.5224,W,2,12,0.82,8382.2,M,-34.0,M,0000,0000*6F
$GPRMC,184640.000,A,4009.0588,N,07506.5224,W,21.31,164.72,100612,,,D*48
$GPGGA,184641.000,4009.0531,N,07506.5202,$PMTK001,314,3*36
$PMTK001,220,3*30
$PMTK001,185,3*3C
$GPGGA,184640.000,4009.0588,N,07506.5224,W,2,12,0.82,8382.2,M,-34.0,M,0000,0000*6F
$GPRMC,184640.000,A,4009.0588,N,07506.5224,W,21.31,164.72,100612,,,D*48
$GPGGA,184641.000,4009.0531,N,07506.5202,$PMTK001,314,3*36
$PMTK001,220,3*30
$PMTK001,185,3*3C
$GPGGA,184640.000,4009.0588,N,07506.5224,W,2,12,0.82,8382.2,M,-34.0,M,0000,0000*6F
$GPRMC,184640.000,A,4009.0588,N,07506.5224,W,21.31,164.72,100612,,,D*48
$GPGGA,184641.000,4009.0531,N,07506.5202,$PMTK001,314,3*36
$PMTK001,220,3*30
$PMTK001,185,3*3C
$GPGGA,184640.000,4009.0588,N,07506.5224,W,2,12,0.82,8382.2,M,-34.0,M,0000,0000*6F
$GPRMC,184640.000,A,4009.0588,N,07506.5224,W,21.31,164.72,100612,,,D*48
$GPGGA,184641.000,4009.0531,N,07506.5202,$PMTK001,314,3*36
$PMTK001,220,3*30
$PMTK001,185,3*3C
$GPGGA,184640.000,4009.0588,N,07506.5224,W,2,12,0.82,8382.2,M,-34.0,M,0000,0000*6F
$GPRMC,184640.000,A,4009.0588,N,07506.5224,W,21.31,164.72,100612,,,D*48
$GPGGA,184641.000,4009.0531,N,07506.5202,$PMTK001,314,3*36
$PMTK001,220,3*30
$PMTK001,185,3*3C
$GPGGA,184640.000,4009.0588,N,07506.5224,W,2,12,0.82,8382.2,M,-34.0,M,0000,0000*6F
$GPRMC,184640.000,A,4009.0588,N,07506.5224,W,21.31,164.72,100612,,,D*48
$GPGGA,184641.000,4009.0531,N,07506.5202,