ŠÂ¢r‚‚‚b
±4018.0319,N,07515.4965,W,32.02,158.26,100612,,,D*4C
$PMTK001,314,3*36
$PMTK001,220,3*30
$PMTK001,185,3*3C
$GPGGA,181841.000,4018.0237,N,07515.4921,W,2,10,0.90,5120.7,M,-33.9,M,0000,0000*66
$GPRMC,181841.000,A,4018.0237,N,07515.4921,W,32.25ŠÂ¢r‚‚‚b
±4018.0319,N,07515.4965,W,32.02,158.26,100612,,,D*4C
$PMTK001,314,3*36
$PMTK001,220,3*30
$PMTK001,185,3*3C
$GPGGA,181841.000,4018.0237,N,07515.4921,W,2,10,0.90,5120.7,M,-33.9,M,0000,0000*66
$GPRMC,181841.000,A,4018.0237,N,07515.4921,W,32.25ŠÂ¢r‚‚‚b
±4018.0319,N,07515.4965,W,32.02,158.26,100612,,,D*4C
$PMTK001,314,3*36
$PMTK001,220,3*30
$PMTK001,185,3*3C
$GPGGA,181841.000,4018.0237,N,07515.4921,W,2,10,0.90,5120.7,M,-33.9,M,0000,0000*66
$GPRMC,181841.000,A,4018.0237,N,07515.4921,W,32.25ŠÂ¢r‚‚‚b
±4018.0319,N,07515.4965,W,32.02,158.26,100612,,,D*4C
$PMTK001,314,3*36
$PMTK001,220,3*30
$PMTK001,185,3*3C
$GPGGA,181841.000,4018.0237,N,07515.4921,W,2,10,0.90,5120.7,M,-33.9,M,0000,0000*66
$GPRMC,181841.000,A,4018.0237,N,07515.4921,W,32.25ŠÂ¢r‚‚‚b
±4018.0319,N,07515.4965,W,32.02,158.26,100612,,,D*4C
$PMTK001,314,3*36
$PMTK001,220,3*30
$PMTK001,185,3*3C
$GPGGA,181841.000,4018.0237,N,07515.4921,W,2,10,0.90,5120.7,M,-33.9,M,0000,0000*66
$GPRMC,181841.000,A,4018.0237,N,07515.4921,W,32.25ŠÂ¢r‚‚‚b
±4018.0319,N,07515.4965,W,32.02,158.26,100612,,,D*4C
$PMTK001,314,3*36
$PMTK001,220,3*30
$PMTK001,185,3*3C
$GPGGA,181841.000,4018.0237,N,07515.4921,W,2,10,0.90,5120.7,M,-33.9,M,0000,0000*66
$GPRMC,181841.000,A,4018.0237,N,07515.4921,W,32.25ŠÂ¢r‚‚‚b
±4018.0319,N,07515.4965,W,32.02,158.26,100612,,,D*4C
$PMTK001,314,3*36
$PMTK001,220,3*30
$PMTK001,185,3*3C
$GPGGA,181841.000,4018.0237,N,07515.4921,W,2,10,0.90,5120.7,M,-33.9,M,0000,0000*66
$GPRMC,181841.000,A,4018.0237,N,07515.4921,W,32.25ŠÂ¢r‚‚‚b
±4018.0319,N,07515.4965,W,32.02,158.26,100612,,,D*4C
$PMTK001,314,3*36
$PMTK001,220,3*30
$PMTK001,185,3*3C
$GPGGA,181841.000,4018.0237,N,07515.4921,W,2,10,0.90,5120.7,M,-33.9,M,0000,0000*66
$GPRMC,181841.000,A,4018.0237,N,07515.4921,W,32.25ŠÂ¢r‚‚‚b
±4018.0319,N,07515.4965,W,32.02,158.26,100612,,,D*4C
$PMTK001,314,3*36
$PMTK001,220,3*30
$PMTK001,185,3*3C
$GPGGA,181841.000,4018.0237,N,07515.4921,W,2,10,0.90,5120.7,M,-33.9,M,0000,0000*66
$GPRMC,181841.000,A,4018.0237,N,07515.4921,W,32.25ŠÂ¢r‚‚‚b
±4018.0319,N,07515.4965,W,32.02,158.26,100612,,,D*4C
$PMTK001,314,3*36
$PMTK001,220,3*30
$PMTK001,185,3*3C
$GPGGA,181841.000,4018.0237,N,07515.4921,W,2,10,0.90,5120.7,M,-33.9,M,0000,0000*66
$GPRMC,181841.000,A,4018.0237,N,07515.4921,W,32.25ŠÂ¢r‚‚‚b
±4018.0319,N,07515.4965,W,32.02,158.26,100612,,,D*4C
$PMTK001,314,3*36
$PMTK001,220,3*30
$PMTK001,185,3*3C
$GPGGA,181841.000,4018.0237,N,07515.4921,W,2,10,0.90,5120.7,M,-33.9,M,0000,0000*66
$GPRMC,181841.000,A,4018.0237,N,07515.4921,W,32.25ŠÂ¢r‚‚‚b
±4018.0319,N,07515.4965,W,32.02,158.26,100612,,,D*4C
$PMTK001,314,3*36
$PMTK001,220,3*30
$PMTK001,185,3*3C
$GPGGA,181841.000,4018.0237,N,07515.4921,W,2,10,0.90,5120.7,M,-33.9,M,0000,0000*66
$GPRMC,181841.000,A,4018.0237,N,07515.4921,W,32.25ŠÂ¢r‚‚‚b
±4018.0319,N,07515.4965,W,32.02,158.26,100612,,,D*4C
$PMTK001,314,3*36
$PMTK001,220,3*30
$PMTK001,185,3*3C
$GPGGA,181841.000,4018.0237,N,07515.4921,W,2,10,0.90,5120.7,M,-33.9,M,0000,0000*66
$GPRMC,181841.000,A,4018.0237,N,07515.4921,W,32.25ŠÂ¢r‚‚‚b
±4018.0319,N,07515.4965,W,32.02,158.26,100612,,,D*4C
$PMTK001,314,3*36
$PMTK001,220,3*30
$PMTK001,185,3*3C
$GPGGA,181841.000,4018.0237,N,07515.4921,W,2,10,0.90,5120.7,M,-33.9,M,0000,0000*66
$GPRMC,181841.000,A,4018.0237,N,07515.4921,W,32.25ŠÂ¢r‚‚‚b
±4018.0319,N,07515.4965,W,32.02,158.26,100612,,,D*4C
$PMTK001,314,3*36
$PMTK001,220,3*30
$PMTK001,185,3*3C
$GPGGA,181841.000,4018.0237,N,07515.4921,W,2,10,0.90,5120.7,M,-33.9,M,0000,0000*66
$GPRMC,181841.000,A,4018.0237,N,07515.4921,W,32.25ŠÂ¢r‚‚‚b
±4018.0319,N,07515.4965,W,32.02,158.26,100612,,,D*4C
$PMTK001,314,3*36
$PMTK001,220,3*30
$PMTK001,185,3*3C
$GPGGA,181841.000,4018.0237,N,07515.4921,W,2,10,0.90,5120.7,M,-33.9,M,0000,0000*66
$GPRMC,181841.000,A,4018.0237,N,07515.4921,W,32.25ŠÂ¢r‚‚‚b
±4018.0319,N,07515.4965,W,32.02,158.26,100612,,,D*4C
$PMTK001,314,3*36
$PMTK001,220,3*30
$PMTK001,185,3*3C
$GPGGA,181841.000,4018.0237,N,07515.4921,W,2,10,0.90,5120.7,M,-33.9,M,0000,0000*66
$GPRMC,181841.000,A,4018.0237,N,07515.4921,W,32.25ŠÂ¢r‚‚‚b
±4018.0319,N,07515.4965,W,32.02,158.26,100612,,,D*4C
$PMTK001,314,3*36
$PMTK001,220,3*30
$PMTK001,185,3*3C
$GPGGA,181841.000,4018.0237,N,07515.4921,W,2,10,0.90,5120.7,M,-33.9,M,0000,0000*66
$GPRMC,181841.000,A,4018.0237,N,07515.4921,W,32.25ŠÂ¢r‚‚‚b
±4018.0319,N,07515.4965,W,32.02,158.26,100612,,,D*4C
$PMTK001,314,3*36
$PMTK001,220,3*30
$PMTK001,185,3*3C
$GPGGA,181841.000,4018.0237,N,07515.4921,W,2,10,0.90,5120.7,M,-33.9,M,0000,0000*66
$GPRMC,181841.000,A,4018.0237,N,07515.4921,W,32.25ŠÂ¢r‚‚‚b
±4018.0319,N,07515.4965,W,32.02,158.26,100612,,,D*4C
$PMTK001,314,3*36
$PMTK001,220,3*30
$PMTK001,185,3*3C
$GPGGA,181841.000,4018.0237,N,07515.4921,W,2,10,0.90,5120.7,M,-33.9,M,0000,0000*66
$GPRMC,181841.000,A,4018.0237,N,07515.4921,W,32.25ŠÂ¢r‚‚‚b
±4018.0319,N,07515.4965,W,32.02,158.26,100612,,,D*4C
$PMTK001,314,3*36
$PMTK001,220,3*30
$PMTK001,185,3*3C
$GPGGA,181841.000,4018.0237,N,07515.4921,W,2,10,0.90,5120.7,M,-33.9,M,0000,0000*66
$GPRMC,181841.000,A,4018.0237,N,07515.4921,W,32.25ŠÂ¢r‚‚‚b
±4018.0319,N,07515.4965,W,32.02,158.26,100612,,,D*4C
$PMTK001,314,3*36
$PMTK001,220,3*30
$PMTK001,185,3*3C
$GPGGA,181841.000,4018.0237,N,07515.4921,W,2,10,0.90,5120.7,M,-33.9,M,0000,0000*66
$GPRMC,181841.000,A,4018.0237,N,07515.4921,W,32.25ŠÂ¢r‚‚‚b
±4018.0319,N,07515.4965,W,32.02,158.26,100612,,,D*4C
$PMTK001,314,3*36
$PMTK001,220,3*30
$PMTK001,185,3*3C
$GPGGA,181841.000,4018.0237,N,07515.4921,W,2,10,0.90,5120.7,M,-33.9,M,0000,0000*66
$GPRMC,181841.000,A,4018.0237,N,07515.4921,W,32.25ŠÂ¢r‚‚‚b
±4018.0319,N,07515.4965,W,32.02,158.26,100612,,,D*4C
$PMTK001,314,3*36
$PMTK001,220,3*30
$PMTK001,185,3*3C
$GPGGA,181841.000,4018.0237,N,07515.4921,W,2,10,0.90,5120.7,M,-33.9,M,0000,0000*66
$GPRMC,181841.000,A,4018.0237,N,07515.4921,W,32.25ŠÂ¢r‚‚‚b
±4018.0319,N,07515.4965,W,32.02,158.26,100612,,,D*4C
$PMTK001,314,3*36
$PMTK001,220,3*30
$PMTK001,185,3*3C
$GPGGA,181841.000,4018.0237,N,07515.4921,W,2,10,0.90,5120.7,M,-33.9,M,0000,0000*66
$GPRMC,181841.000,A,4018.0237,N,07515.4921,W,32.25ŠÂ¢r‚‚‚b
±4018.0319,N,07515.4965,W,32.02,158.26,100612,,,D*4C
$PMTK001,314,3*36
$PMTK001,220,3*30
$PMTK001,185,3*3C
$GPGGA,181841.000,4018.0237,N,07515.4921,W,2,10,0.90,5120.7,M,-33.9,M,0000,0000*66
$GPRMC,181841.000,A,4018.0237,N,07515.4921,W,32.25ŠÂ¢r‚‚‚b
±4018.0319,N,07515.4965,W,32.02,158.26,100612,,,D*4C
$PMTK001,314,3*36
$PMTK001,220,3*30
$PMTK001,185,3*3C
$GPGGA,181841.000,4018.0237,N,07515.4921,W,2,10,0.90,5120.7,M,-33.9,M,0000,0000*66
$GPRMC,181841.000,A,4018.0237,N,07515.4921,W,32.25ŠÂ¢r‚‚‚b
±4018.0319,N,07515.4965,W,32.02,158.26,100612,,,D*4C
$PMTK001,314,3*36
$PMTK001,220,3*30
$PMTK001,185,3*3C
$GPGGA,181841.000,4018.0237,N,07515.4921,W,2,10,0.90,5120.7,M,-33.9,M,0000,0000*66
$GPRMC,181841.000,A,4018.0237,N,07515.4921,W,32.25ŠÂ¢r‚‚‚b
±4018.0319,N,07515.4965,W,32.02,158.26,100612,,,D*4C
$PMTK001,314,3*36
$PMTK001,220,3*30
$PMTK001,185,3*3C
$GPGGA,181841.000,4018.0237,N,07515.4921,W,2,10,0.90,5120.7,M,-33.9,M,0000,0000*66
$GPRMC,181841.000,A,4018.0237,N,07515.4921,W,32.25ŠÂ¢r‚‚‚b
±4018.0319,N,07515.4965,W,32.02,158.26,100612,,,D*4C
$PMTK001,314,3*36
$PMTK001,220,3*30
$PMTK001,185,3*3C
$GPGGA,181841.000,4018.0237,N,07515.4921,W,2,10,0.90,5120.7,M,-33.9,M,0000,0000*66
$GPRMC,181841.000,A,4018.0237,N,07515.4921,W,32.25ŠÂ¢r‚‚‚b
±4018.0319,N,07515.4965,W,32.02,158.26,100612,,,D*4C
$PMTK001,314,3*36
$PMTK001,220,3*30
$PMTK001,185,3*3C
$GPGGA,181841.000,4018.0237,N,07515.4921,W,2,10,0.90,5120.7,M,-33.9,M,0000,0000*66
$GPRMC,181841.000,A,4018.0237,N,07515.4921,W,32.25ŠÂ¢r‚‚‚b
±4018.0319,N,07515.4965,W,32.02,158.26,100612,,,D*4C
$PMTK001,314,3*36
$PMTK001,220,3*30
$PMTK001,185,3*3C
$GPGGA,181841.000,4018.0237,N,07515.4921,W,2,10,0.90,5120.7,M,-33.9,M,0000,0000*66
$GPRMC,181841.000,A,4018.0237,N,07515.4921,W,32.25ŠÂ¢r‚‚‚b
±4018.0319,N,07515.4965,W,32.02,158.26,100612,,,D*4C
$PMTK001,314,3*36
$PMTK001,220,3*30
$PMTK001,185,3*3C
$GPGGA,181841.000,4018.0237,N,07515.4921,W,2,10,0.90,5120.7,M,-33.9,M,0000,0000*66
$GPRMC,181841.000,A,4018.0237,N,07515.4921,W,32.25ŠÂ¢r‚‚‚b
±4018.0319,N,07515.4965,W,32.02,158.26,100612,,,D*4C
$PMTK001,314,3*36
$PMTK001,220,3*30
$PMTK001,185,3*3C
$GPGGA,181841.000,4018.0237,N,07515.4921,W,2,10,0.90,5120.7,M,-33.9,M,0000,0000*66
$GPRMC,181841.000,A,4018.0237,N,07515.4921,W,32.25ŠÂ¢r‚‚‚b
±4018.0319,N,07515.4965,W,32.02,158.26,100612,,,D*4C
$PMTK001,314,3*36
$PMTK001,220,3*30
$PMTK001,185,3*3C
$GPGGA,181841.000,4018.0237,N,07515.4921,W,2,10,0.90,5120.7,M,-33.9,M,0000,0000*66
$GPRMC,181841.000,A,4018.0237,N,07515.4921,W,32.25ŠÂ¢r‚‚‚b
±4018.0319,N,07515.4965,W,32.02,158.26,100612,,,D*4C
$PMTK001,314,3*36
$PMTK001,220,3*30
$PMTK001,185,3*3C
$GPGGA,181841.000,4018.0237,N,07515.4921,W,2,10,0.90,5120.7,M,-33.9,M,0000,0000*66
$GPRMC,181841.000,A,4018.0237,N,07515.4921,W,32.25ŠÂ¢r‚‚‚b
±4018.0319,N,07515.4965,W,32.02,158.26,100612,,,D*4C
$PMTK001,314,3*36
$PMTK001,220,3*30
$PMTK001,185,3*3C
$GPGGA,181841.000,4018.0237,N,07515.4921,W,2,10,0.90,5120.7,M,-33.9,M,0000,0000*66
$GPRMC,181841.000,A,4018.0237,N,07515.4921,W,32.25ŠÂ¢r‚‚‚b
±4018.0319,N,07515.4965,W,32.02,158.26,100612,,,D*4C
$PMTK001,314,3*36
$PMTK001,220,3*30
$PMTK001,185,3*3C
$GPGGA,181841.000,4018.0237,N,07515.4921,W,2,10,0.90,5120.7,M,-33.9,M,0000,0000*66
$GPRMC,181841.000,A,4018.0237,N,07515.4921,W,32.25ŠÂ¢r‚‚‚b
±4018.0319,N,07515.4965,W,32.02,158.26,100612,,,D*4C
$PMTK001,314,3*36
$PMTK001,220,3*30
$PMTK001,185,3*3C
$GPGGA,181841.000,4018.0237,N,07515.4921,W,2,10,0.90,5120.7,M,-33.9,M,0000,0000*66
$GPRMC,181841.000,A,4018.0237,N,07515.4921,W,32.25ŠÂ¢r‚‚‚b
±4018.0319,N,07515.4965,W,32.02,158.26,100612,,,D*4C
$PMTK001,314,3*36
$PMTK001,220,3*30
$PMTK001,185,3*3C
$GPGGA,181841.000,4018.0237,N,07515.4921,W,2,10,0.90,5120.7,M,-33.9,M,0000,0000*66
$GPRMC,181841.000,A,4018.0237,N,07515.4921,W,32.25ŠÂ¢r‚‚‚b
±4018.0319,N,07515.4965,W,32.02,158.26,100612,,,D*4C
$PMTK001,314,3*36
$PMTK001,220,3*30
$PMTK001,185,3*3C
$GPGGA,181841.000,4018.0237,N,07515.4921,W,2,10,0.90,5120.7,M,-33.9,M,0000,0000*66
$GPRMC,181841.000,A,4018.0237,N,07515.4921,W,32.25ŠÂ¢r‚‚‚b
±4018.0319,N,07515.4965,W,32.02,158.26,100612,,,D*4C
$PMTK001,314,3*36
$PMTK001,220,3*30
$PMTK001,185,3*3C
$GPGGA,181841.000,4018.0237,N,07515.4921,W,2,10,0.90,5120.7,M,-33.9,M,0000,0000*66
$GPRMC,181841.000,A,4018.0237,N,07515.4921,W,32.25ŠÂ¢r‚‚‚b
±4018.0319,N,07515.4965,W,32.02,158.26,100612,,,D*4C
$PMTK001,314,3*36
$PMTK001,220,3*30
$PMTK001,185,3*3C
$GPGGA,181841.000,4018.0237,N,07515.4921,W,2,10,0.90,5120.7,M,-33.9,M,0000,0000*66
$GPRMC,181841.000,A,4018.0237,N,07515.4921,W,32.25ŠÂ¢r‚‚‚b
±4018.0319,N,07515.4965,W,32.02,158.26,100612,,,D*4C
$PMTK001,314,3*36
$PMTK001,220,3*30
$PMTK001,185,3*3C
$GPGGA,181841.000,4018.0237,N,07515.4921,W,2,10,0.90,5120.7,M,-33.9,M,0000,0000*66
$GPRMC,181841.000,A,4018.0237,N,07515.4921,W,32.25ŠÂ¢r‚‚‚b
±4018.0319,N,07515.4965,W,32.02,158.26,100612,,,D*4C
$PMTK001,314,3*36
$PMTK001,220,3*30
$PMTK001,185,3*3C
$GPGGA,181841.000,4018.0237,N,07515.4921,W,2,10,0.90,5120.7,M,-33.9,M,0000,0000*66
$GPRMC,181841.000,A,4018.0237,N,07515.4921,W,32.25ŠÂ¢r‚‚‚b
±4018.0319,N,07515.4965,W,32.02,158.26,100612,,,D*4C
$PMTK001,314,3*36
$PMTK001,220,3*30
$PMTK001,185,3*3C
$GPGGA,181841.000,4018.0237,N,07515.4921,W,2,10,0.90,5120.7,M,-33.9,M,0000,0000*66
$GPRMC,181841.000,A,4018.0237,N,07515.4921,W,32.25ŠÂ¢r‚‚‚b
±4018.0319,N,07515.4965,W,32.02,158.26,100612,,,D*4C
$PMTK001,314,3*36
$PMTK001,220,3*30
$PMTK001,185,3*3C
$GPGGA,181841.000,4018.0237,N,07515.4921,W,2,10,0.90,5120.7,M,-33.9,M,0000,0000*66
$GPRMC,181841.000,A,4018.0237,N,07515.4921,W,32.25ŠÂ¢r‚‚‚b
±4018.0319,N,07515.4965,W,32.02,158.26,100612,,,D*4C
$PMTK001,314,3*36
$PMTK001,220,3*30
$PMTK001,185,3*3C
$GPGGA,181841.000,4018.0237,N,07515.4921,W,2,10,0.90,5120.7,M,-33.9,M,0000,0000*66
$GPRMC,181841.000,A,4018.0237,N,07515.4921,W,32.25ŠÂ¢r‚‚‚b
±4018.0319,N,07515.4965,W,32.02,158.26,100612,,,D*4C
$PMTK001,314,3*36
$PMTK001,220,3*30
$PMTK001,185,3*3C
$GPGGA,181841.000,4018.0237,N,07515.4921,W,2,10,0.90,5120.7,M,-33.9,M,0000,0000*66
$GPRMC,181841.000,A,4018.0237,N,07515.4921,W,32.25ŠÂ¢r‚‚‚b
±4018.0319,N,07515.4965,W,32.02,158.26,100612,,,D*4C
$PMTK001,314,3*36
$PMTK001,220,3*30
$PMTK001,185,3*3C
$GPGGA,181841.000,4018.0237,N,07515.4921,W,2,10,0.90,5120.7,M,-33.9,M,0000,0000*66
$GPRMC,181841.000,A,4018.0237,N,07515.4921,W,32.25ŠÂ¢r‚‚‚b
±4018.0319,N,07515.4965,W,32.02,158.26,100612,,,D*4C
$PMTK001,314,3*36
$PMTK001,220,3*30
$PMTK001,185,3*3C
$GPGGA,181841.000,4018.0237,N,07515.4921,W,2,10,0.90,5120.7,M,-33.9,M,0000,0000*66
$GPRMC,181841.000,A,4018.0237,N,07515.4921,W,32.25ŠÂ¢r‚‚‚b
±4018.0319,N,07515.4965,W,32.02,158.26,100612,,,D*4C
$PMTK001,314,3*36
$PMTK001,220,3*30
$PMTK001,185,3*3C
$GPGGA,181841.000,4018.0237,N,07515.4921,W,2,10,0.90,5120.7,M,-33.9,M,0000,0000*66
$GPRMC,181841.000,A,4018.0237,N,07515.4921,W,32.25ŠÂ¢r‚‚‚b
±4018.0319,N,07515.4965,W,32.02,158.26,100612,,,D*4C
$PMTK001,314,3*36
$PMTK001,220,3*30
$PMTK001,185,3*3C
$GPGGA,181841.000,4018.0237,N,07515.4921,W,2,10,0.90,5120.7,M,-33.9,M,0000,0000*66
$GPRMC,181841.000,A,4018.0237,N,07515.4921,W,32.25ŠÂ¢r‚‚‚b
±4018.0319,N,07515.4965,W,32.02,158.26,100612,,,D*4C
$PMTK001,314,3*36
$PMTK001,220,3*30
$PMTK001,185,3*3C
$GPGGA,181841.000,4018.0237,N,07515.4921,W,2,10,0.90,5120.7,M,-33.9,M,0000,0000*66
$GPRMC,181841.000,A,4018.0237,N,07515.4921,W,32.25ŠÂ¢r‚‚‚b
±4018.0319,N,07515.4965,W,32.02,158.26,100612,,,D*4C
$PMTK001,314,3*36
$PMTK001,220,3*30
$PMTK001,185,3*3C
$GPGGA,181841.000,4018.0237,N,07515.4921,W,2,10,0.90,5120.7,M,-33.9,M,0000,0000*66
$GPRMC,181841.000,A,4018.0237,N,07515.4921,W,32.25ŠÂ¢r‚‚‚b
±4018.0319,N,07515.4965,W,32.02,158.26,100612,,,D*4C
$PMTK001,314,3*36
$PMTK001,220,3*30
$PMTK001,185,3*3C
$GPGGA,181841.000,4018.0237,N,07515.4921,W,2,10,0.90,5120.7,M,-33.9,M,0000,0000*66
$GPRMC,181841.000,A,4018.0237,N,07515.4921,W,32.25ŠÂ¢r‚‚‚b
±4018.0319,N,07515.4965,W,32.02,158.26,100612,,,D*4C
$PMTK001,314,3*36
$PMTK001,220,3*30
$PMTK001,185,3*3C
$GPGGA,181841.000,4018.0237,N,07515.4921,W,2,10,0.90,5120.7,M,-33.9,M,0000,0000*66
$GPRMC,181841.000,A,4018.0237,N,07515.4921,W,32.25