.84,148.9,M,-33.9,M,0000,0000*59
$GPRMC,172341.000,A,4026.7003,N,07520.5921,W,0.09,170.55,100612,,,D*7B
$PMTK001,314,3*36
$PMTK001,220,3*30
$PMTK001,185,3*3C
$GPGGA,172342.000,4026.7003,N,07520.5921,W,2,10,0.84,148.9,M,-33.9,M,0000,0000*5A
$GPRMC,17.84,148.9,M,-33.9,M,0000,0000*59
$GPRMC,172341.000,A,4026.7003,N,07520.5921,W,0.09,170.55,100612,,,D*7B
$PMTK001,314,3*36
$PMTK001,220,3*30
$PMTK001,185,3*3C
$GPGGA,172342.000,4026.7003,N,07520.5921,W,2,10,0.84,148.9,M,-33.9,M,0000,0000*5A
$GPRMC,17.84,148.9,M,-33.9,M,0000,0000*59
$GPRMC,172341.000,A,4026.7003,N,07520.5921,W,0.09,170.55,100612,,,D*7B
$PMTK001,314,3*36
$PMTK001,220,3*30
$PMTK001,185,3*3C
$GPGGA,172342.000,4026.7003,N,07520.5921,W,2,10,0.84,148.9,M,-33.9,M,0000,0000*5A
$GPRMC,17.84,148.9,M,-33.9,M,0000,0000*59
$GPRMC,172341.000,A,4026.7003,N,07520.5921,W,0.09,170.55,100612,,,D*7B
$PMTK001,314,3*36
$PMTK001,220,3*30
$PMTK001,185,3*3C
$GPGGA,172342.000,4026.7003,N,07520.5921,W,2,10,0.84,148.9,M,-33.9,M,0000,0000*5A
$GPRMC,17.84,148.9,M,-33.9,M,0000,0000*59
$GPRMC,172341.000,A,4026.7003,N,07520.5921,W,0.09,170.55,100612,,,D*7B
$PMTK001,314,3*36
$PMTK001,220,3*30
$PMTK001,185,3*3C
$GPGGA,172342.000,4026.7003,N,07520.5921,W,2,10,0.84,148.9,M,-33.9,M,0000,0000*5A
$GPRMC,17.84,148.9,M,-33.9,M,0000,0000*59
$GPRMC,172341.000,A,4026.7003,N,07520.5921,W,0.09,170.55,100612,,,D*7B
$PMTK001,314,3*36
$PMTK001,220,3*30
$PMTK001,185,3*3C
$GPGGA,172342.000,4026.7003,N,07520.5921,W,2,10,0.84,148.9,M,-33.9,M,0000,0000*5A
$GPRMC,17.84,148.9,M,-33.9,M,0000,0000*59
$GPRMC,172341.000,A,4026.7003,N,07520.5921,W,0.09,170.55,100612,,,D*7B
$PMTK001,314,3*36
$PMTK001,220,3*30
$PMTK001,185,3*3C
$GPGGA,172342.000,4026.7003,N,07520.5921,W,2,10,0.84,148.9,M,-33.9,M,0000,0000*5A
$GPRMC,17.84,148.9,M,-33.9,M,0000,0000*59
$GPRMC,172341.000,A,4026.7003,N,07520.5921,W,0.09,170.55,100612,,,D*7B
$PMTK001,314,3*36
$PMTK001,220,3*30
$PMTK001,185,3*3C
$GPGGA,172342.000,4026.7003,N,07520.5921,W,2,10,0.84,148.9,M,-33.9,M,0000,0000*5A
$GPRMC,17.84,148.9,M,-33.9,M,0000,0000*59
$GPRMC,172341.000,A,4026.7003,N,07520.5921,W,0.09,170.55,100612,,,D*7B
$PMTK001,314,3*36
$PMTK001,220,3*30
$PMTK001,185,3*3C
$GPGGA,172342.000,4026.7003,N,07520.5921,W,2,10,0.84,148.9,M,-33.9,M,0000,0000*5A
$GPRMC,17.84,148.9,M,-33.9,M,0000,0000*59
$GPRMC,172341.000,A,4026.7003,N,07520.5921,W,0.09,170.55,100612,,,D*7B
$PMTK001,314,3*36
$PMTK001,220,3*30
$PMTK001,185,3*3C
$GPGGA,172342.000,4026.7003,N,07520.5921,W,2,10,0.84,148.9,M,-33.9,M,0000,0000*5A
$GPRMC,17.84,148.9,M,-33.9,M,0000,0000*59
$GPRMC,172341.000,A,4026.7003,N,07520.5921,W,0.09,170.55,100612,,,D*7B
$PMTK001,314,3*36
$PMTK001,220,3*30
$PMTK001,185,3*3C
$GPGGA,172342.000,4026.7003,N,07520.5921,W,2,10,0.84,148.9,M,-33.9,M,0000,0000*5A
$GPRMC,17.84,148.9,M,-33.9,M,0000,0000*59
$GPRMC,172341.000,A,4026.7003,N,07520.5921,W,0.09,170.55,100612,,,D*7B
$PMTK001,314,3*36
$PMTK001,220,3*30
$PMTK001,185,3*3C
$GPGGA,172342.000,4026.7003,N,07520.5921,W,2,10,0.84,148.9,M,-33.9,M,0000,0000*5A
$GPRMC,17.84,148.9,M,-33.9,M,0000,0000*59
$GPRMC,172341.000,A,4026.7003,N,07520.5921,W,0.09,170.55,100612,,,D*7B
$PMTK001,314,3*36
$PMTK001,220,3*30
$PMTK001,185,3*3C
$GPGGA,172342.000,4026.7003,N,07520.5921,W,2,10,0.84,148.9,M,-33.9,M,0000,0000*5A
$GPRMC,17.84,148.9,M,-33.9,M,0000,0000*59
$GPRMC,172341.000,A,4026.7003,N,07520.5921,W,0.09,170.55,100612,,,D*7B
$PMTK001,314,3*36
$PMTK001,220,3*30
$PMTK001,185,3*3C
$GPGGA,172342.000,4026.7003,N,07520.5921,W,2,10,0.84,148.9,M,-33.9,M,0000,0000*5A
$GPRMC,17.84,148.9,M,-33.9,M,0000,0000*59
$GPRMC,172341.000,A,4026.7003,N,07520.5921,W,0.09,170.55,100612,,,D*7B
$PMTK001,314,3*36
$PMTK001,220,3*30
$PMTK001,185,3*3C
$GPGGA,172342.000,4026.7003,N,07520.5921,W,2,10,0.84,148.9,M,-33.9,M,0000,0000*5A
$GPRMC,17.84,148.9,M,-33.9,M,0000,0000*59
$GPRMC,172341.000,A,4026.7003,N,07520.5921,W,0.09,170.55,100612,,,D*7B
$PMTK001,314,3*36
$PMTK001,220,3*30
$PMTK001,185,3*3C
$GPGGA,172342.000,4026.7003,N,07520.5921,W,2,10,0.84,148.9,M,-33.9,M,0000,0000*5A
$GPRMC,17.84,148.9,M,-33.9,M,0000,0000*59
$GPRMC,172341.000,A,4026.7003,N,07520.5921,W,0.09,170.55,100612,,,D*7B
$PMTK001,314,3*36
$PMTK001,220,3*30
$PMTK001,185,3*3C
$GPGGA,172342.000,4026.7003,N,07520.5921,W,2,10,0.84,148.9,M,-33.9,M,0000,0000*5A
$GPRMC,17.84,148.9,M,-33.9,M,0000,0000*59
$GPRMC,172341.000,A,4026.7003,N,07520.5921,W,0.09,170.55,100612,,,D*7B
$PMTK001,314,3*36
$PMTK001,220,3*30
$PMTK001,185,3*3C
$GPGGA,172342.000,4026.7003,N,07520.5921,W,2,10,0.84,148.9,M,-33.9,M,0000,0000*5A
$GPRMC,17.84,148.9,M,-33.9,M,0000,0000*59
$GPRMC,172341.000,A,4026.7003,N,07520.5921,W,0.09,170.55,100612,,,D*7B
$PMTK001,314,3*36
$PMTK001,220,3*30
$PMTK001,185,3*3C
$GPGGA,172342.000,4026.7003,N,07520.5921,W,2,10,0.84,148.9,M,-33.9,M,0000,0000*5A
$GPRMC,17.84,148.9,M,-33.9,M,0000,0000*59
$GPRMC,172341.000,A,4026.7003,N,07520.5921,W,0.09,170.55,100612,,,D*7B
$PMTK001,314,3*36
$PMTK001,220,3*30
$PMTK001,185,3*3C
$GPGGA,172342.000,4026.7003,N,07520.5921,W,2,10,0.84,148.9,M,-33.9,M,0000,0000*5A
$GPRMC,17.84,148.9,M,-33.9,M,0000,0000*59
$GPRMC,172341.000,A,4026.7003,N,07520.5921,W,0.09,170.55,100612,,,D*7B
$PMTK001,314,3*36
$PMTK001,220,3*30
$PMTK001,185,3*3C
$GPGGA,172342.000,4026.7003,N,07520.5921,W,2,10,0.84,148.9,M,-33.9,M,0000,0000*5A
$GPRMC,17.84,148.9,M,-33.9,M,0000,0000*59
$GPRMC,172341.000,A,4026.7003,N,07520.5921,W,0.09,170.55,100612,,,D*7B
$PMTK001,314,3*36
$PMTK001,220,3*30
$PMTK001,185,3*3C
$GPGGA,172342.000,4026.7003,N,07520.5921,W,2,10,0.84,148.9,M,-33.9,M,0000,0000*5A
$GPRMC,17.84,148.9,M,-33.9,M,0000,0000*59
$GPRMC,172341.000,A,4026.7003,N,07520.5921,W,0.09,170.55,100612,,,D*7B
$PMTK001,314,3*36
$PMTK001,220,3*30
$PMTK001,185,3*3C
$GPGGA,172342.000,4026.7003,N,07520.5921,W,2,10,0.84,148.9,M,-33.9,M,0000,0000*5A
$GPRMC,17.84,148.9,M,-33.9,M,0000,0000*59
$GPRMC,172341.000,A,4026.7003,N,07520.5921,W,0.09,170.55,100612,,,D*7B
$PMTK001,314,3*36
$PMTK001,220,3*30
$PMTK001,185,3*3C
$GPGGA,172342.000,4026.7003,N,07520.5921,W,2,10,0.84,148.9,M,-33.9,M,0000,0000*5A
$GPRMC,17.84,148.9,M,-33.9,M,0000,0000*59
$GPRMC,172341.000,A,4026.7003,N,07520.5921,W,0.09,170.55,100612,,,D*7B
$PMTK001,314,3*36
$PMTK001,220,3*30
$PMTK001,185,3*3C
$GPGGA,172342.000,4026.7003,N,07520.5921,W,2,10,0.84,148.9,M,-33.9,M,0000,0000*5A
$GPRMC,17.84,148.9,M,-33.9,M,0000,0000*59
$GPRMC,172341.000,A,4026.7003,N,07520.5921,W,0.09,170.55,100612,,,D*7B
$PMTK001,314,3*36
$PMTK001,220,3*30
$PMTK001,185,3*3C
$GPGGA,172342.000,4026.7003,N,07520.5921,W,2,10,0.84,148.9,M,-33.9,M,0000,0000*5A
$GPRMC,17.84,148.9,M,-33.9,M,0000,0000*59
$GPRMC,172341.000,A,4026.7003,N,07520.5921,W,0.09,170.55,100612,,,D*7B
$PMTK001,314,3*36
$PMTK001,220,3*30
$PMTK001,185,3*3C
$GPGGA,172342.000,4026.7003,N,07520.5921,W,2,10,0.84,148.9,M,-33.9,M,0000,0000*5A
$GPRMC,17.84,148.9,M,-33.9,M,0000,0000*59
$GPRMC,172341.000,A,4026.7003,N,07520.5921,W,0.09,170.55,100612,,,D*7B
$PMTK001,314,3*36
$PMTK001,220,3*30
$PMTK001,185,3*3C
$GPGGA,172342.000,4026.7003,N,07520.5921,W,2,10,0.84,148.9,M,-33.9,M,0000,0000*5A
$GPRMC,17.84,148.9,M,-33.9,M,0000,0000*59
$GPRMC,172341.000,A,4026.7003,N,07520.5921,W,0.09,170.55,100612,,,D*7B
$PMTK001,314,3*36
$PMTK001,220,3*30
$PMTK001,185,3*3C
$GPGGA,172342.000,4026.7003,N,07520.5921,W,2,10,0.84,148.9,M,-33.9,M,0000,0000*5A
$GPRMC,17.84,148.9,M,-33.9,M,0000,0000*59
$GPRMC,172341.000,A,4026.7003,N,07520.5921,W,0.09,170.55,100612,,,D*7B
$PMTK001,314,3*36
$PMTK001,220,3*30
$PMTK001,185,3*3C
$GPGGA,172342.000,4026.7003,N,07520.5921,W,2,10,0.84,148.9,M,-33.9,M,0000,0000*5A
$GPRMC,17.84,148.9,M,-33.9,M,0000,0000*59
$GPRMC,172341.000,A,4026.7003,N,07520.5921,W,0.09,170.55,100612,,,D*7B
$PMTK001,314,3*36
$PMTK001,220,3*30
$PMTK001,185,3*3C
$GPGGA,172342.000,4026.7003,N,07520.5921,W,2,10,0.84,148.9,M,-33.9,M,0000,0000*5A
$GPRMC,17.84,148.9,M,-33.9,M,0000,0000*59
$GPRMC,172341.000,A,4026.7003,N,07520.5921,W,0.09,170.55,100612,,,D*7B
$PMTK001,314,3*36
$PMTK001,220,3*30
$PMTK001,185,3*3C
$GPGGA,172342.000,4026.7003,N,07520.5921,W,2,10,0.84,148.9,M,-33.9,M,0000,0000*5A
$GPRMC,17.84,148.9,M,-33.9,M,0000,0000*59
$GPRMC,172341.000,A,4026.7003,N,07520.5921,W,0.09,170.55,100612,,,D*7B
$PMTK001,314,3*36
$PMTK001,220,3*30
$PMTK001,185,3*3C
$GPGGA,172342.000,4026.7003,N,07520.5921,W,2,10,0.84,148.9,M,-33.9,M,0000,0000*5A
$GPRMC,17.84,148.9,M,-33.9,M,0000,0000*59
$GPRMC,172341.000,A,4026.7003,N,07520.5921,W,0.09,170.55,100612,,,D*7B
$PMTK001,314,3*36
$PMTK001,220,3*30
$PMTK001,185,3*3C
$GPGGA,172342.000,4026.7003,N,07520.5921,W,2,10,0.84,148.9,M,-33.9,M,0000,0000*5A
$GPRMC,17.84,148.9,M,-33.9,M,0000,0000*59
$GPRMC,172341.000,A,4026.7003,N,07520.5921,W,0.09,170.55,100612,,,D*7B
$PMTK001,314,3*36
$PMTK001,220,3*30
$PMTK001,185,3*3C
$GPGGA,172342.000,4026.7003,N,07520.5921,W,2,10,0.84,148.9,M,-33.9,M,0000,0000*5A
$GPRMC,17.84,148.9,M,-33.9,M,0000,0000*59
$GPRMC,172341.000,A,4026.7003,N,07520.5921,W,0.09,170.55,100612,,,D*7B
$PMTK001,314,3*36
$PMTK001,220,3*30
$PMTK001,185,3*3C
$GPGGA,172342.000,4026.7003,N,07520.5921,W,2,10,0.84,148.9,M,-33.9,M,0000,0000*5A
$GPRMC,17.84,148.9,M,-33.9,M,0000,0000*59
$GPRMC,172341.000,A,4026.7003,N,07520.5921,W,0.09,170.55,100612,,,D*7B
$PMTK001,314,3*36
$PMTK001,220,3*30
$PMTK001,185,3*3C
$GPGGA,172342.000,4026.7003,N,07520.5921,W,2,10,0.84,148.9,M,-33.9,M,0000,0000*5A
$GPRMC,17.84,148.9,M,-33.9,M,0000,0000*59
$GPRMC,172341.000,A,4026.7003,N,07520.5921,W,0.09,170.55,100612,,,D*7B
$PMTK001,314,3*36
$PMTK001,220,3*30
$PMTK001,185,3*3C
$GPGGA,172342.000,4026.7003,N,07520.5921,W,2,10,0.84,148.9,M,-33.9,M,0000,0000*5A
$GPRMC,17.84,148.9,M,-33.9,M,0000,0000*59
$GPRMC,172341.000,A,4026.7003,N,07520.5921,W,0.09,170.55,100612,,,D*7B
$PMTK001,314,3*36
$PMTK001,220,3*30
$PMTK001,185,3*3C
$GPGGA,172342.000,4026.7003,N,07520.5921,W,2,10,0.84,148.9,M,-33.9,M,0000,0000*5A
$GPRMC,17.84,148.9,M,-33.9,M,0000,0000*59
$GPRMC,172341.000,A,4026.7003,N,07520.5921,W,0.09,170.55,100612,,,D*7B
$PMTK001,314,3*36
$PMTK001,220,3*30
$PMTK001,185,3*3C
$GPGGA,172342.000,4026.7003,N,07520.5921,W,2,10,0.84,148.9,M,-33.9,M,0000,0000*5A
$GPRMC,17.84,148.9,M,-33.9,M,0000,0000*59
$GPRMC,172341.000,A,4026.7003,N,07520.5921,W,0.09,170.55,100612,,,D*7B
$PMTK001,314,3*36
$PMTK001,220,3*30
$PMTK001,185,3*3C
$GPGGA,172342.000,4026.7003,N,07520.5921,W,2,10,0.84,148.9,M,-33.9,M,0000,0000*5A
$GPRMC,17.84,148.9,M,-33.9,M,0000,0000*59
$GPRMC,172341.000,A,4026.7003,N,07520.5921,W,0.09,170.55,100612,,,D*7B
$PMTK001,314,3*36
$PMTK001,220,3*30
$PMTK001,185,3*3C
$GPGGA,172342.000,4026.7003,N,07520.5921,W,2,10,0.84,148.9,M,-33.9,M,0000,0000*5A
$GPRMC,17.84,148.9,M,-33.9,M,0000,0000*59
$GPRMC,172341.000,A,4026.7003,N,07520.5921,W,0.09,170.55,100612,,,D*7B
$PMTK001,314,3*36
$PMTK001,220,3*30
$PMTK001,185,3*3C
$GPGGA,172342.000,4026.7003,N,07520.5921,W,2,10,0.84,148.9,M,-33.9,M,0000,0000*5A
$GPRMC,17.84,148.9,M,-33.9,M,0000,0000*59
$GPRMC,172341.000,A,4026.7003,N,07520.5921,W,0.09,170.55,100612,,,D*7B
$PMTK001,314,3*36
$PMTK001,220,3*30
$PMTK001,185,3*3C
$GPGGA,172342.000,4026.7003,N,07520.5921,W,2,10,0.84,148.9,M,-33.9,M,0000,0000*5A
$GPRMC,17.84,148.9,M,-33.9,M,0000,0000*59
$GPRMC,172341.000,A,4026.7003,N,07520.5921,W,0.09,170.55,100612,,,D*7B
$PMTK001,314,3*36
$PMTK001,220,3*30
$PMTK001,185,3*3C
$GPGGA,172342.000,4026.7003,N,07520.5921,W,2,10,0.84,148.9,M,-33.9,M,0000,0000*5A
$GPRMC,17.84,148.9,M,-33.9,M,0000,0000*59
$GPRMC,172341.000,A,4026.7003,N,07520.5921,W,0.09,170.55,100612,,,D*7B
$PMTK001,314,3*36
$PMTK001,220,3*30
$PMTK001,185,3*3C
$GPGGA,172342.000,4026.7003,N,07520.5921,W,2,10,0.84,148.9,M,-33.9,M,0000,0000*5A
$GPRMC,17.84,148.9,M,-33.9,M,0000,0000*59
$GPRMC,172341.000,A,4026.7003,N,07520.5921,W,0.09,170.55,100612,,,D*7B
$PMTK001,314,3*36
$PMTK001,220,3*30
$PMTK001,185,3*3C
$GPGGA,172342.000,4026.7003,N,07520.5921,W,2,10,0.84,148.9,M,-33.9,M,0000,0000*5A
$GPRMC,17.84,148.9,M,-33.9,M,0000,0000*59
$GPRMC,172341.000,A,4026.7003,N,07520.5921,W,0.09,170.55,100612,,,D*7B
$PMTK001,314,3*36
$PMTK001,220,3*30
$PMTK001,185,3*3C
$GPGGA,172342.000,4026.7003,N,07520.5921,W,2,10,0.84,148.9,M,-33.9,M,0000,0000*5A
$GPRMC,17.84,148.9,M,-33.9,M,0000,0000*59
$GPRMC,172341.000,A,4026.7003,N,07520.5921,W,0.09,170.55,100612,,,D*7B
$PMTK001,314,3*36
$PMTK001,220,3*30
$PMTK001,185,3*3C
$GPGGA,172342.000,4026.7003,N,07520.5921,W,2,10,0.84,148.9,M,-33.9,M,0000,0000*5A
$GPRMC,17.84,148.9,M,-33.9,M,0000,0000*59
$GPRMC,172341.000,A,4026.7003,N,07520.5921,W,0.09,170.55,100612,,,D*7B
$PMTK001,314,3*36
$PMTK001,220,3*30
$PMTK001,185,3*3C
$GPGGA,172342.000,4026.7003,N,07520.5921,W,2,10,0.84,148.9,M,-33.9,M,0000,0000*5A
$GPRMC,17.84,148.9,M,-33.9,M,0000,0000*59
$GPRMC,172341.000,A,4026.7003,N,07520.5921,W,0.09,170.55,100612,,,D*7B
$PMTK001,314,3*36
$PMTK001,220,3*30
$PMTK001,185,3*3C
$GPGGA,172342.000,4026.7003,N,07520.5921,W,2,10,0.84,148.9,M,-33.9,M,0000,0000*5A
$GPRMC,17.84,148.9,M,-33.9,M,0000,0000*59
$GPRMC,172341.000,A,4026.7003,N,07520.5921,W,0.09,170.55,100612,,,D*7B
$PMTK001,314,3*36
$PMTK001,220,3*30
$PMTK001,185,3*3C
$GPGGA,172342.000,4026.7003,N,07520.5921,W,2,10,0.84,148.9,M,-33.9,M,0000,0000*5A
$GPRMC,17.84,148.9,M,-33.9,M,0000,0000*59
$GPRMC,172341.000,A,4026.7003,N,07520.5921,W,0.09,170.55,100612,,,D*7B
$PMTK001,314,3*36
$PMTK001,220,3*30
$PMTK001,185,3*3C
$GPGGA,172342.000,4026.7003,N,07520.5921,W,2,10,0.84,148.9,M,-33.9,M,0000,0000*5A
$GPRMC,17.84,148.9,M,-33.9,M,0000,0000*59
$GPRMC,172341.000,A,4026.7003,N,07520.5921,W,0.09,170.55,100612,,,D*7B
$PMTK001,314,3*36
$PMTK001,220,3*30
$PMTK001,185,3*3C
$GPGGA,172342.000,4026.7003,N,07520.5921,W,2,10,0.84,148.9,M,-33.9,M,0000,0000*5A
$GPRMC,17.84,148.9,M,-33.9,M,0000,0000*59
$GPRMC,172341.000,A,4026.7003,N,07520.5921,W,0.09,170.55,100612,,,D*7B
$PMTK001,314,3*36
$PMTK001,220,3*30
$PMTK001,185,3*3C
$GPGGA,172342.000,4026.7003,N,07520.5921,W,2,10,0.84,148.9,M,-33.9,M,0000,0000*5A
$GPRMC,17.84,148.9,M,-33.9,M,0000,0000*59
$GPRMC,172341.000,A,4026.7003,N,07520.5921,W,0.09,170.55,100612,,,D*7B
$PMTK001,314,3*36
$PMTK001,220,3*30
$PMTK001,185,3*3C
$GPGGA,172342.000,4026.7003,N,07520.5921,W,2,10,0.84,148.9,M,-33.9,M,0000,0000*5A
$GPRMC,17.84,148.9,M,-33.9,M,0000,0000*59
$GPRMC,172341.000,A,4026.7003,N,07520.5921,W,0.09,170.55,100612,,,D*7B
$PMTK001,314,3*36
$PMTK001,220,3*30
$PMTK001,185,3*3C
$GPGGA,172342.000,4026.7003,N,07520.5921,W,2,10,0.84,148.9,M,-33.9,M,0000,0000*5A
$GPRMC,17.84,148.9,M,-33.9,M,0000,0000*59
$GPRMC,172341.000,A,4026.7003,N,07520.5921,W,0.09,170.55,100612,,,D*7B
$PMTK001,314,3*36
$PMTK001,220,3*30
$PMTK001,185,3*3C
$GPGGA,172342.000,4026.7003,N,07520.5921,W,2,10,0.84,148.9,M,-33.9,M,0000,0000*5A
$GPRMC,17