$PMTK001,314,3*36
$PMTK001,220,3*30
$PMTK001,185,3*3C
$GPGGA,172833.000,4026.6999,N,07520.5977,W,2,11,0.75,148.5,M,-33.9,M,0000,0000*5C
$GPRMC,172833.000,A,4026.6999,N,07520.5977,W,0.23,265.91,100612,,,D*7A
זג‏ֿמת~?ֽnV־ֳ›ןג½-ו«¿~‡nO£ַ‎$PMTK001,314,3*36
$PMTK001,220,3*30
$PMTK001,185,3*3C
$GPGGA,172833.000,4026.6999,N,07520.5977,W,2,11,0.75,148.5,M,-33.9,M,0000,0000*5C
$GPRMC,172833.000,A,4026.6999,N,07520.5977,W,0.23,265.91,100612,,,D*7A
זג‏ֿמת~?ֽnV־ֳ›ןג½-ו«¿~‡nO£ַ‎$PMTK001,314,3*36
$PMTK001,220,3*30
$PMTK001,185,3*3C
$GPGGA,172833.000,4026.6999,N,07520.5977,W,2,11,0.75,148.5,M,-33.9,M,0000,0000*5C
$GPRMC,172833.000,A,4026.6999,N,07520.5977,W,0.23,265.91,100612,,,D*7A
זג‏ֿמת~?ֽnV־ֳ›ןג½-ו«¿~‡nO£ַ‎$PMTK001,314,3*36
$PMTK001,220,3*30
$PMTK001,185,3*3C
$GPGGA,172833.000,4026.6999,N,07520.5977,W,2,11,0.75,148.5,M,-33.9,M,0000,0000*5C
$GPRMC,172833.000,A,4026.6999,N,07520.5977,W,0.23,265.91,100612,,,D*7A
זג‏ֿמת~?ֽnV־ֳ›ןג½-ו«¿~‡nO£ַ‎$PMTK001,314,3*36
$PMTK001,220,3*30
$PMTK001,185,3*3C
$GPGGA,172833.000,4026.6999,N,07520.5977,W,2,11,0.75,148.5,M,-33.9,M,0000,0000*5C
$GPRMC,172833.000,A,4026.6999,N,07520.5977,W,0.23,265.91,100612,,,D*7A
זג‏ֿמת~?ֽnV־ֳ›ןג½-ו«¿~‡nO£ַ‎$PMTK001,314,3*36
$PMTK001,220,3*30
$PMTK001,185,3*3C
$GPGGA,172833.000,4026.6999,N,07520.5977,W,2,11,0.75,148.5,M,-33.9,M,0000,0000*5C
$GPRMC,172833.000,A,4026.6999,N,07520.5977,W,0.23,265.91,100612,,,D*7A
זג‏ֿמת~?ֽnV־ֳ›ןג½-ו«¿~‡nO£ַ‎$PMTK001,314,3*36
$PMTK001,220,3*30
$PMTK001,185,3*3C
$GPGGA,172833.000,4026.6999,N,07520.5977,W,2,11,0.75,148.5,M,-33.9,M,0000,0000*5C
$GPRMC,172833.000,A,4026.6999,N,07520.5977,W,0.23,265.91,100612,,,D*7A
זג‏ֿמת~?ֽnV־ֳ›ןג½-ו«¿~‡nO£ַ‎$PMTK001,314,3*36
$PMTK001,220,3*30
$PMTK001,185,3*3C
$GPGGA,172833.000,4026.6999,N,07520.5977,W,2,11,0.75,148.5,M,-33.9,M,0000,0000*5C
$GPRMC,172833.000,A,4026.6999,N,07520.5977,W,0.23,265.91,100612,,,D*7A
זג‏ֿמת~?ֽnV־ֳ›ןג½-ו«¿~‡nO£ַ‎$PMTK001,314,3*36
$PMTK001,220,3*30
$PMTK001,185,3*3C
$GPGGA,172833.000,4026.6999,N,07520.5977,W,2,11,0.75,148.5,M,-33.9,M,0000,0000*5C
$GPRMC,172833.000,A,4026.6999,N,07520.5977,W,0.23,265.91,100612,,,D*7A
זג‏ֿמת~?ֽnV־ֳ›ןג½-ו«¿~‡nO£ַ‎$PMTK001,314,3*36
$PMTK001,220,3*30
$PMTK001,185,3*3C
$GPGGA,172833.000,4026.6999,N,07520.5977,W,2,11,0.75,148.5,M,-33.9,M,0000,0000*5C
$GPRMC,172833.000,A,4026.6999,N,07520.5977,W,0.23,265.91,100612,,,D*7A
זג‏ֿמת~?ֽnV־ֳ›ןג½-ו«¿~‡nO£ַ‎$PMTK001,314,3*36
$PMTK001,220,3*30
$PMTK001,185,3*3C
$GPGGA,172833.000,4026.6999,N,07520.5977,W,2,11,0.75,148.5,M,-33.9,M,0000,0000*5C
$GPRMC,172833.000,A,4026.6999,N,07520.5977,W,0.23,265.91,100612,,,D*7A
זג‏ֿמת~?ֽnV־ֳ›ןג½-ו«¿~‡nO£ַ‎$PMTK001,314,3*36
$PMTK001,220,3*30
$PMTK001,185,3*3C
$GPGGA,172833.000,4026.6999,N,07520.5977,W,2,11,0.75,148.5,M,-33.9,M,0000,0000*5C
$GPRMC,172833.000,A,4026.6999,N,07520.5977,W,0.23,265.91,100612,,,D*7A
זג‏ֿמת~?ֽnV־ֳ›ןג½-ו«¿~‡nO£ַ‎$PMTK001,314,3*36
$PMTK001,220,3*30
$PMTK001,185,3*3C
$GPGGA,172833.000,4026.6999,N,07520.5977,W,2,11,0.75,148.5,M,-33.9,M,0000,0000*5C
$GPRMC,172833.000,A,4026.6999,N,07520.5977,W,0.23,265.91,100612,,,D*7A
זג‏ֿמת~?ֽnV־ֳ›ןג½-ו«¿~‡nO£ַ‎$PMTK001,314,3*36
$PMTK001,220,3*30
$PMTK001,185,3*3C
$GPGGA,172833.000,4026.6999,N,07520.5977,W,2,11,0.75,148.5,M,-33.9,M,0000,0000*5C
$GPRMC,172833.000,A,4026.6999,N,07520.5977,W,0.23,265.91,100612,,,D*7A
זג‏ֿמת~?ֽnV־ֳ›ןג½-ו«¿~‡nO£ַ‎$PMTK001,314,3*36
$PMTK001,220,3*30
$PMTK001,185,3*3C
$GPGGA,172833.000,4026.6999,N,07520.5977,W,2,11,0.75,148.5,M,-33.9,M,0000,0000*5C
$GPRMC,172833.000,A,4026.6999,N,07520.5977,W,0.23,265.91,100612,,,D*7A
זג‏ֿמת~?ֽnV־ֳ›ןג½-ו«¿~‡nO£ַ‎$PMTK001,314,3*36
$PMTK001,220,3*30
$PMTK001,185,3*3C
$GPGGA,172833.000,4026.6999,N,07520.5977,W,2,11,0.75,148.5,M,-33.9,M,0000,0000*5C
$GPRMC,172833.000,A,4026.6999,N,07520.5977,W,0.23,265.91,100612,,,D*7A
זג‏ֿמת~?ֽnV־ֳ›ןג½-ו«¿~‡nO£ַ‎$PMTK001,314,3*36
$PMTK001,220,3*30
$PMTK001,185,3*3C
$GPGGA,172833.000,4026.6999,N,07520.5977,W,2,11,0.75,148.5,M,-33.9,M,0000,0000*5C
$GPRMC,172833.000,A,4026.6999,N,07520.5977,W,0.23,265.91,100612,,,D*7A
זג‏ֿמת~?ֽnV־ֳ›ןג½-ו«¿~‡nO£ַ‎$PMTK001,314,3*36
$PMTK001,220,3*30
$PMTK001,185,3*3C
$GPGGA,172833.000,4026.6999,N,07520.5977,W,2,11,0.75,148.5,M,-33.9,M,0000,0000*5C
$GPRMC,172833.000,A,4026.6999,N,07520.5977,W,0.23,265.91,100612,,,D*7A
זג‏ֿמת~?ֽnV־ֳ›ןג½-ו«¿~‡nO£ַ‎$PMTK001,314,3*36
$PMTK001,220,3*30
$PMTK001,185,3*3C
$GPGGA,172833.000,4026.6999,N,07520.5977,W,2,11,0.75,148.5,M,-33.9,M,0000,0000*5C
$GPRMC,172833.000,A,4026.6999,N,07520.5977,W,0.23,265.91,100612,,,D*7A
זג‏ֿמת~?ֽnV־ֳ›ןג½-ו«¿~‡nO£ַ‎$PMTK001,314,3*36
$PMTK001,220,3*30
$PMTK001,185,3*3C
$GPGGA,172833.000,4026.6999,N,07520.5977,W,2,11,0.75,148.5,M,-33.9,M,0000,0000*5C
$GPRMC,172833.000,A,4026.6999,N,07520.5977,W,0.23,265.91,100612,,,D*7A
זג‏ֿמת~?ֽnV־ֳ›ןג½-ו«¿~‡nO£ַ‎$PMTK001,314,3*36
$PMTK001,220,3*30
$PMTK001,185,3*3C
$GPGGA,172833.000,4026.6999,N,07520.5977,W,2,11,0.75,148.5,M,-33.9,M,0000,0000*5C
$GPRMC,172833.000,A,4026.6999,N,07520.5977,W,0.23,265.91,100612,,,D*7A
זג‏ֿמת~?ֽnV־ֳ›ןג½-ו«¿~‡nO£ַ‎$PMTK001,314,3*36
$PMTK001,220,3*30
$PMTK001,185,3*3C
$GPGGA,172833.000,4026.6999,N,07520.5977,W,2,11,0.75,148.5,M,-33.9,M,0000,0000*5C
$GPRMC,172833.000,A,4026.6999,N,07520.5977,W,0.23,265.91,100612,,,D*7A
זג‏ֿמת~?ֽnV־ֳ›ןג½-ו«¿~‡nO£ַ‎$PMTK001,314,3*36
$PMTK001,220,3*30
$PMTK001,185,3*3C
$GPGGA,172833.000,4026.6999,N,07520.5977,W,2,11,0.75,148.5,M,-33.9,M,0000,0000*5C
$GPRMC,172833.000,A,4026.6999,N,07520.5977,W,0.23,265.91,100612,,,D*7A
זג‏ֿמת~?ֽnV־ֳ›ןג½-ו«¿~‡nO£ַ‎$PMTK001,314,3*36
$PMTK001,220,3*30
$PMTK001,185,3*3C
$GPGGA,172833.000,4026.6999,N,07520.5977,W,2,11,0.75,148.5,M,-33.9,M,0000,0000*5C
$GPRMC,172833.000,A,4026.6999,N,07520.5977,W,0.23,265.91,100612,,,D*7A
זג‏ֿמת~?ֽnV־ֳ›ןג½-ו«¿~‡nO£ַ‎$PMTK001,314,3*36
$PMTK001,220,3*30
$PMTK001,185,3*3C
$GPGGA,172833.000,4026.6999,N,07520.5977,W,2,11,0.75,148.5,M,-33.9,M,0000,0000*5C
$GPRMC,172833.000,A,4026.6999,N,07520.5977,W,0.23,265.91,100612,,,D*7A
זג‏ֿמת~?ֽnV־ֳ›ןג½-ו«¿~‡nO£ַ‎$PMTK001,314,3*36
$PMTK001,220,3*30
$PMTK001,185,3*3C
$GPGGA,172833.000,4026.6999,N,07520.5977,W,2,11,0.75,148.5,M,-33.9,M,0000,0000*5C
$GPRMC,172833.000,A,4026.6999,N,07520.5977,W,0.23,265.91,100612,,,D*7A
זג‏ֿמת~?ֽnV־ֳ›ןג½-ו«¿~‡nO£ַ‎$PMTK001,314,3*36
$PMTK001,220,3*30
$PMTK001,185,3*3C
$GPGGA,172833.000,4026.6999,N,07520.5977,W,2,11,0.75,148.5,M,-33.9,M,0000,0000*5C
$GPRMC,172833.000,A,4026.6999,N,07520.5977,W,0.23,265.91,100612,,,D*7A
זג‏ֿמת~?ֽnV־ֳ›ןג½-ו«¿~‡nO£ַ‎$PMTK001,314,3*36
$PMTK001,220,3*30
$PMTK001,185,3*3C
$GPGGA,172833.000,4026.6999,N,07520.5977,W,2,11,0.75,148.5,M,-33.9,M,0000,0000*5C
$GPRMC,172833.000,A,4026.6999,N,07520.5977,W,0.23,265.91,100612,,,D*7A
זג‏ֿמת~?ֽnV־ֳ›ןג½-ו«¿~‡nO£ַ‎$PMTK001,314,3*36
$PMTK001,220,3*30
$PMTK001,185,3*3C
$GPGGA,172833.000,4026.6999,N,07520.5977,W,2,11,0.75,148.5,M,-33.9,M,0000,0000*5C
$GPRMC,172833.000,A,4026.6999,N,07520.5977,W,0.23,265.91,100612,,,D*7A
זג‏ֿמת~?ֽnV־ֳ›ןג½-ו«¿~‡nO£ַ‎$PMTK001,314,3*36
$PMTK001,220,3*30
$PMTK001,185,3*3C
$GPGGA,172833.000,4026.6999,N,07520.5977,W,2,11,0.75,148.5,M,-33.9,M,0000,0000*5C
$GPRMC,172833.000,A,4026.6999,N,07520.5977,W,0.23,265.91,100612,,,D*7A
זג‏ֿמת~?ֽnV־ֳ›ןג½-ו«¿~‡nO£ַ‎$PMTK001,314,3*36
$PMTK001,220,3*30
$PMTK001,185,3*3C
$GPGGA,172833.000,4026.6999,N,07520.5977,W,2,11,0.75,148.5,M,-33.9,M,0000,0000*5C
$GPRMC,172833.000,A,4026.6999,N,07520.5977,W,0.23,265.91,100612,,,D*7A
זג‏ֿמת~?ֽnV־ֳ›ןג½-ו«¿~‡nO£ַ‎$PMTK001,314,3*36
$PMTK001,220,3*30
$PMTK001,185,3*3C
$GPGGA,172833.000,4026.6999,N,07520.5977,W,2,11,0.75,148.5,M,-33.9,M,0000,0000*5C
$GPRMC,172833.000,A,4026.6999,N,07520.5977,W,0.23,265.91,100612,,,D*7A
זג‏ֿמת~?ֽnV־ֳ›ןג½-ו«¿~‡nO£ַ‎$PMTK001,314,3*36
$PMTK001,220,3*30
$PMTK001,185,3*3C
$GPGGA,172833.000,4026.6999,N,07520.5977,W,2,11,0.75,148.5,M,-33.9,M,0000,0000*5C
$GPRMC,172833.000,A,4026.6999,N,07520.5977,W,0.23,265.91,100612,,,D*7A
זג‏ֿמת~?ֽnV־ֳ›ןג½-ו«¿~‡nO£ַ‎$PMTK001,314,3*36
$PMTK001,220,3*30
$PMTK001,185,3*3C
$GPGGA,172833.000,4026.6999,N,07520.5977,W,2,11,0.75,148.5,M,-33.9,M,0000,0000*5C
$GPRMC,172833.000,A,4026.6999,N,07520.5977,W,0.23,265.91,100612,,,D*7A
זג‏ֿמת~?ֽnV־ֳ›ןג½-ו«¿~‡nO£ַ‎$PMTK001,314,3*36
$PMTK001,220,3*30
$PMTK001,185,3*3C
$GPGGA,172833.000,4026.6999,N,07520.5977,W,2,11,0.75,148.5,M,-33.9,M,0000,0000*5C
$GPRMC,172833.000,A,4026.6999,N,07520.5977,W,0.23,265.91,100612,,,D*7A
זג‏ֿמת~?ֽnV־ֳ›ןג½-ו«¿~‡nO£ַ‎$PMTK001,314,3*36
$PMTK001,220,3*30
$PMTK001,185,3*3C
$GPGGA,172833.000,4026.6999,N,07520.5977,W,2,11,0.75,148.5,M,-33.9,M,0000,0000*5C
$GPRMC,172833.000,A,4026.6999,N,07520.5977,W,0.23,265.91,100612,,,D*7A
זג‏ֿמת~?ֽnV־ֳ›ןג½-ו«¿~‡nO£ַ‎$PMTK001,314,3*36
$PMTK001,220,3*30
$PMTK001,185,3*3C
$GPGGA,172833.000,4026.6999,N,07520.5977,W,2,11,0.75,148.5,M,-33.9,M,0000,0000*5C
$GPRMC,172833.000,A,4026.6999,N,07520.5977,W,0.23,265.91,100612,,,D*7A
זג‏ֿמת~?ֽnV־ֳ›ןג½-ו«¿~‡nO£ַ‎$PMTK001,314,3*36
$PMTK001,220,3*30
$PMTK001,185,3*3C
$GPGGA,172833.000,4026.6999,N,07520.5977,W,2,11,0.75,148.5,M,-33.9,M,0000,0000*5C
$GPRMC,172833.000,A,4026.6999,N,07520.5977,W,0.23,265.91,100612,,,D*7A
זג‏ֿמת~?ֽnV־ֳ›ןג½-ו«¿~‡nO£ַ‎$PMTK001,314,3*36
$PMTK001,220,3*30
$PMTK001,185,3*3C
$GPGGA,172833.000,4026.6999,N,07520.5977,W,2,11,0.75,148.5,M,-33.9,M,0000,0000*5C
$GPRMC,172833.000,A,4026.6999,N,07520.5977,W,0.23,265.91,100612,,,D*7A
זג‏ֿמת~?ֽnV־ֳ›ןג½-ו«¿~‡nO£ַ‎$PMTK001,314,3*36
$PMTK001,220,3*30
$PMTK001,185,3*3C
$GPGGA,172833.000,4026.6999,N,07520.5977,W,2,11,0.75,148.5,M,-33.9,M,0000,0000*5C
$GPRMC,172833.000,A,4026.6999,N,07520.5977,W,0.23,265.91,100612,,,D*7A
זג‏ֿמת~?ֽnV־ֳ›ןג½-ו«¿~‡nO£ַ‎$PMTK001,314,3*36
$PMTK001,220,3*30
$PMTK001,185,3*3C
$GPGGA,172833.000,4026.6999,N,07520.5977,W,2,11,0.75,148.5,M,-33.9,M,0000,0000*5C
$GPRMC,172833.000,A,4026.6999,N,07520.5977,W,0.23,265.91,100612,,,D*7A
זג‏ֿמת~?ֽnV־ֳ›ןג½-ו«¿~‡nO£ַ‎$PMTK001,314,3*36
$PMTK001,220,3*30
$PMTK001,185,3*3C
$GPGGA,172833.000,4026.6999,N,07520.5977,W,2,11,0.75,148.5,M,-33.9,M,0000,0000*5C
$GPRMC,172833.000,A,4026.6999,N,07520.5977,W,0.23,265.91,100612,,,D*7A
זג‏ֿמת~?ֽnV־ֳ›ןג½-ו«¿~‡nO£ַ‎$PMTK001,314,3*36
$PMTK001,220,3*30
$PMTK001,185,3*3C
$GPGGA,172833.000,4026.6999,N,07520.5977,W,2,11,0.75,148.5,M,-33.9,M,0000,0000*5C
$GPRMC,172833.000,A,4026.6999,N,07520.5977,W,0.23,265.91,100612,,,D*7A
זג‏ֿמת~?ֽnV־ֳ›ןג½-ו«¿~‡nO£ַ‎$PMTK001,314,3*36
$PMTK001,220,3*30
$PMTK001,185,3*3C
$GPGGA,172833.000,4026.6999,N,07520.5977,W,2,11,0.75,148.5,M,-33.9,M,0000,0000*5C
$GPRMC,172833.000,A,4026.6999,N,07520.5977,W,0.23,265.91,100612,,,D*7A
זג‏ֿמת~?ֽnV־ֳ›ןג½-ו«¿~‡nO£ַ‎$PMTK001,314,3*36
$PMTK001,220,3*30
$PMTK001,185,3*3C
$GPGGA,172833.000,4026.6999,N,07520.5977,W,2,11,0.75,148.5,M,-33.9,M,0000,0000*5C
$GPRMC,172833.000,A,4026.6999,N,07520.5977,W,0.23,265.91,100612,,,D*7A
זג‏ֿמת~?ֽnV־ֳ›ןג½-ו«¿~‡nO£ַ‎$PMTK001,314,3*36
$PMTK001,220,3*30
$PMTK001,185,3*3C
$GPGGA,172833.000,4026.6999,N,07520.5977,W,2,11,0.75,148.5,M,-33.9,M,0000,0000*5C
$GPRMC,172833.000,A,4026.6999,N,07520.5977,W,0.23,265.91,100612,,,D*7A
זג‏ֿמת~?ֽnV־ֳ›ןג½-ו«¿~‡nO£ַ‎$PMTK001,314,3*36
$PMTK001,220,3*30
$PMTK001,185,3*3C
$GPGGA,172833.000,4026.6999,N,07520.5977,W,2,11,0.75,148.5,M,-33.9,M,0000,0000*5C
$GPRMC,172833.000,A,4026.6999,N,07520.5977,W,0.23,265.91,100612,,,D*7A
זג‏ֿמת~?ֽnV־ֳ›ןג½-ו«¿~‡nO£ַ‎$PMTK001,314,3*36
$PMTK001,220,3*30
$PMTK001,185,3*3C
$GPGGA,172833.000,4026.6999,N,07520.5977,W,2,11,0.75,148.5,M,-33.9,M,0000,0000*5C
$GPRMC,172833.000,A,4026.6999,N,07520.5977,W,0.23,265.91,100612,,,D*7A
זג‏ֿמת~?ֽnV־ֳ›ןג½-ו«¿~‡nO£ַ‎$PMTK001,314,3*36
$PMTK001,220,3*30
$PMTK001,185,3*3C
$GPGGA,172833.000,4026.6999,N,07520.5977,W,2,11,0.75,148.5,M,-33.9,M,0000,0000*5C
$GPRMC,172833.000,A,4026.6999,N,07520.5977,W,0.23,265.91,100612,,,D*7A
זג‏ֿמת~?ֽnV־ֳ›ןג½-ו«¿~‡nO£ַ‎$PMTK001,314,3*36
$PMTK001,220,3*30
$PMTK001,185,3*3C
$GPGGA,172833.000,4026.6999,N,07520.5977,W,2,11,0.75,148.5,M,-33.9,M,0000,0000*5C
$GPRMC,172833.000,A,4026.6999,N,07520.5977,W,0.23,265.91,100612,,,D*7A
זג‏ֿמת~?ֽnV־ֳ›ןג½-ו«¿~‡nO£ַ‎$PMTK001,314,3*36
$PMTK001,220,3*30
$PMTK001,185,3*3C
$GPGGA,172833.000,4026.6999,N,07520.5977,W,2,11,0.75,148.5,M,-33.9,M,0000,0000*5C
$GPRMC,172833.000,A,4026.6999,N,07520.5977,W,0.23,265.91,100612,,,D*7A
זג‏ֿמת~?ֽnV־ֳ›ןג½-ו«¿~‡nO£ַ‎$PMTK001,314,3*36
$PMTK001,220,3*30
$PMTK001,185,3*3C
$GPGGA,172833.000,4026.6999,N,07520.5977,W,2,11,0.75,148.5,M,-33.9,M,0000,0000*5C
$GPRMC,172833.000,A,4026.6999,N,07520.5977,W,0.23,265.91,100612,,,D*7A
זג‏ֿמת~?ֽnV־ֳ›ןג½-ו«¿~‡nO£ַ‎$PMTK001,314,3*36
$PMTK001,220,3*30
$PMTK001,185,3*3C
$GPGGA,172833.000,4026.6999,N,07520.5977,W,2,11,0.75,148.5,M,-33.9,M,0000,0000*5C
$GPRMC,172833.000,A,4026.6999,N,07520.5977,W,0.23,265.91,100612,,,D*7A
זג‏ֿמת~?ֽnV־ֳ›ןג½-ו«¿~‡nO£ַ‎$PMTK001,314,3*36
$PMTK001,220,3*30
$PMTK001,185,3*3C
$GPGGA,172833.000,4026.6999,N,07520.5977,W,2,11,0.75,148.5,M,-33.9,M,0000,0000*5C
$GPRMC,172833.000,A,4026.6999,N,07520.5977,W,0.23,265.91,100612,,,D*7A
זג‏ֿמת~?ֽnV־ֳ›ןג½-ו«¿~‡nO£ַ‎$PMTK001,314,3*36
$PMTK001,220,3*30
$PMTK001,185,3*3C
$GPGGA,172833.000,4026.6999,N,07520.5977,W,2,11,0.75,148.5,M,-33.9,M,0000,0000*5C
$GPRMC,172833.000,A,4026.6999,N,07520.5977,W,0.23,265.91,100612,,,D*7A
זג‏ֿמת~?ֽnV־ֳ›ןג½-ו«¿~‡nO£ַ‎$PMTK001,314,3*36
$PMTK001,220,3*30
$PMTK001,185,3*3C
$GPGGA,172833.000,4026.6999,N,07520.5977,W,2,11,0.75,148.5,M,-33.9,M,0000,0000*5C
$GPRMC,172833.000,A,4026.6999,N,07520.5977,W,0.23,265.91,100612,,,D*7A
זג‏ֿמת~?ֽnV־ֳ›ןג½-ו«¿~‡nO£ַ‎$PMTK001,314,3*36
$PMTK001,220,3*30
$PMTK001,185,3*3C
$GPGGA,172833.000,4026.6999,N,07520.5977,W,2,11,0.75,148.5,M,-33.9,M,0000,0000*5C
$GPRMC,172833.000,A,4026.6999,N,07520.5977,W,0.23,265.91,100612,,,D*7A
זג‏ֿמת~?ֽnV־ֳ›ןג½-ו«¿~‡nO£ַ‎$PMTK001,314,3*36
$PMTK001,220,3*30
$PMTK001,185,3*3C
$GPGGA,172833.000,4026.6999,N,07520.5977,W,2,11,0.75,148.5,M,-33.9,M,0000,0000*5C
$GPRMC,172833.000,A,4026.6999,N,07520.5977,W,0.23,265.91,100612,,,D*7A
זג‏ֿמת~?ֽnV־ֳ›ןג½-ו«¿~‡nO£ַ‎$PMTK001,314,3*36
$PMTK001,220,3*30
$PMTK001,185,3*3C
$GPGGA,172833.000,4026.6999,N,07520.5977,W,2,11,0.75,148.5,M,-33.9,M,0000,0000*5C
$GPRMC,172833.000,A,4026.6999,N,07520.5977,W,0.23,265.91,100612,,,D*7A
זג‏ֿמת~?ֽnV־ֳ›ןג½-ו«¿~‡nO£ַ‎$PMTK001,314,3*36
$PMTK001,220,3*30
$PMTK001,185,3*3C
$GPGGA,172833.000,4026.6999,N,07520.5977,W,2,11,0.75,148.5,M,-33.9,M,0000,0000*5C
$GPRMC,172833.000,A,4026.6999,N,07520.5977,W,0.23,265.91,100612,,,D*7A
זג‏ֿמת~?ֽnV־ֳ›ןג½-ו«¿~‡nO£ַ‎