$GPGGA,180840.000,4021.9993,N,07517.1311,W,2,10,0.82,3801.6,M,-33.9,M,0000,0000*60
$GPRMC,180840.000,A,4021.9993,N,07517.1311,W,21.87,177.94,100612,,,D*43
$PMTK001,314,3*36
$PMTK001,220,3*30
$PMTK001,185,3*3C
$GPGGA,180841.000,4021.9933,N,07517.1304,$GPGGA,180840.000,4021.9993,N,07517.1311,W,2,10,0.82,3801.6,M,-33.9,M,0000,0000*60
$GPRMC,180840.000,A,4021.9993,N,07517.1311,W,21.87,177.94,100612,,,D*43
$PMTK001,314,3*36
$PMTK001,220,3*30
$PMTK001,185,3*3C
$GPGGA,180841.000,4021.9933,N,07517.1304,$GPGGA,180840.000,4021.9993,N,07517.1311,W,2,10,0.82,3801.6,M,-33.9,M,0000,0000*60
$GPRMC,180840.000,A,4021.9993,N,07517.1311,W,21.87,177.94,100612,,,D*43
$PMTK001,314,3*36
$PMTK001,220,3*30
$PMTK001,185,3*3C
$GPGGA,180841.000,4021.9933,N,07517.1304,$GPGGA,180840.000,4021.9993,N,07517.1311,W,2,10,0.82,3801.6,M,-33.9,M,0000,0000*60
$GPRMC,180840.000,A,4021.9993,N,07517.1311,W,21.87,177.94,100612,,,D*43
$PMTK001,314,3*36
$PMTK001,220,3*30
$PMTK001,185,3*3C
$GPGGA,180841.000,4021.9933,N,07517.1304,$GPGGA,180840.000,4021.9993,N,07517.1311,W,2,10,0.82,3801.6,M,-33.9,M,0000,0000*60
$GPRMC,180840.000,A,4021.9993,N,07517.1311,W,21.87,177.94,100612,,,D*43
$PMTK001,314,3*36
$PMTK001,220,3*30
$PMTK001,185,3*3C
$GPGGA,180841.000,4021.9933,N,07517.1304,$GPGGA,180840.000,4021.9993,N,07517.1311,W,2,10,0.82,3801.6,M,-33.9,M,0000,0000*60
$GPRMC,180840.000,A,4021.9993,N,07517.1311,W,21.87,177.94,100612,,,D*43
$PMTK001,314,3*36
$PMTK001,220,3*30
$PMTK001,185,3*3C
$GPGGA,180841.000,4021.9933,N,07517.1304,$GPGGA,180840.000,4021.9993,N,07517.1311,W,2,10,0.82,3801.6,M,-33.9,M,0000,0000*60
$GPRMC,180840.000,A,4021.9993,N,07517.1311,W,21.87,177.94,100612,,,D*43
$PMTK001,314,3*36
$PMTK001,220,3*30
$PMTK001,185,3*3C
$GPGGA,180841.000,4021.9933,N,07517.1304,$GPGGA,180840.000,4021.9993,N,07517.1311,W,2,10,0.82,3801.6,M,-33.9,M,0000,0000*60
$GPRMC,180840.000,A,4021.9993,N,07517.1311,W,21.87,177.94,100612,,,D*43
$PMTK001,314,3*36
$PMTK001,220,3*30
$PMTK001,185,3*3C
$GPGGA,180841.000,4021.9933,N,07517.1304,$GPGGA,180840.000,4021.9993,N,07517.1311,W,2,10,0.82,3801.6,M,-33.9,M,0000,0000*60
$GPRMC,180840.000,A,4021.9993,N,07517.1311,W,21.87,177.94,100612,,,D*43
$PMTK001,314,3*36
$PMTK001,220,3*30
$PMTK001,185,3*3C
$GPGGA,180841.000,4021.9933,N,07517.1304,$GPGGA,180840.000,4021.9993,N,07517.1311,W,2,10,0.82,3801.6,M,-33.9,M,0000,0000*60
$GPRMC,180840.000,A,4021.9993,N,07517.1311,W,21.87,177.94,100612,,,D*43
$PMTK001,314,3*36
$PMTK001,220,3*30
$PMTK001,185,3*3C
$GPGGA,180841.000,4021.9933,N,07517.1304,$GPGGA,180840.000,4021.9993,N,07517.1311,W,2,10,0.82,3801.6,M,-33.9,M,0000,0000*60
$GPRMC,180840.000,A,4021.9993,N,07517.1311,W,21.87,177.94,100612,,,D*43
$PMTK001,314,3*36
$PMTK001,220,3*30
$PMTK001,185,3*3C
$GPGGA,180841.000,4021.9933,N,07517.1304,$GPGGA,180840.000,4021.9993,N,07517.1311,W,2,10,0.82,3801.6,M,-33.9,M,0000,0000*60
$GPRMC,180840.000,A,4021.9993,N,07517.1311,W,21.87,177.94,100612,,,D*43
$PMTK001,314,3*36
$PMTK001,220,3*30
$PMTK001,185,3*3C
$GPGGA,180841.000,4021.9933,N,07517.1304,$GPGGA,180840.000,4021.9993,N,07517.1311,W,2,10,0.82,3801.6,M,-33.9,M,0000,0000*60
$GPRMC,180840.000,A,4021.9993,N,07517.1311,W,21.87,177.94,100612,,,D*43
$PMTK001,314,3*36
$PMTK001,220,3*30
$PMTK001,185,3*3C
$GPGGA,180841.000,4021.9933,N,07517.1304,$GPGGA,180840.000,4021.9993,N,07517.1311,W,2,10,0.82,3801.6,M,-33.9,M,0000,0000*60
$GPRMC,180840.000,A,4021.9993,N,07517.1311,W,21.87,177.94,100612,,,D*43
$PMTK001,314,3*36
$PMTK001,220,3*30
$PMTK001,185,3*3C
$GPGGA,180841.000,4021.9933,N,07517.1304,$GPGGA,180840.000,4021.9993,N,07517.1311,W,2,10,0.82,3801.6,M,-33.9,M,0000,0000*60
$GPRMC,180840.000,A,4021.9993,N,07517.1311,W,21.87,177.94,100612,,,D*43
$PMTK001,314,3*36
$PMTK001,220,3*30
$PMTK001,185,3*3C
$GPGGA,180841.000,4021.9933,N,07517.1304,$GPGGA,180840.000,4021.9993,N,07517.1311,W,2,10,0.82,3801.6,M,-33.9,M,0000,0000*60
$GPRMC,180840.000,A,4021.9993,N,07517.1311,W,21.87,177.94,100612,,,D*43
$PMTK001,314,3*36
$PMTK001,220,3*30
$PMTK001,185,3*3C
$GPGGA,180841.000,4021.9933,N,07517.1304,$GPGGA,180840.000,4021.9993,N,07517.1311,W,2,10,0.82,3801.6,M,-33.9,M,0000,0000*60
$GPRMC,180840.000,A,4021.9993,N,07517.1311,W,21.87,177.94,100612,,,D*43
$PMTK001,314,3*36
$PMTK001,220,3*30
$PMTK001,185,3*3C
$GPGGA,180841.000,4021.9933,N,07517.1304,$GPGGA,180840.000,4021.9993,N,07517.1311,W,2,10,0.82,3801.6,M,-33.9,M,0000,0000*60
$GPRMC,180840.000,A,4021.9993,N,07517.1311,W,21.87,177.94,100612,,,D*43
$PMTK001,314,3*36
$PMTK001,220,3*30
$PMTK001,185,3*3C
$GPGGA,180841.000,4021.9933,N,07517.1304,$GPGGA,180840.000,4021.9993,N,07517.1311,W,2,10,0.82,3801.6,M,-33.9,M,0000,0000*60
$GPRMC,180840.000,A,4021.9993,N,07517.1311,W,21.87,177.94,100612,,,D*43
$PMTK001,314,3*36
$PMTK001,220,3*30
$PMTK001,185,3*3C
$GPGGA,180841.000,4021.9933,N,07517.1304,$GPGGA,180840.000,4021.9993,N,07517.1311,W,2,10,0.82,3801.6,M,-33.9,M,0000,0000*60
$GPRMC,180840.000,A,4021.9993,N,07517.1311,W,21.87,177.94,100612,,,D*43
$PMTK001,314,3*36
$PMTK001,220,3*30
$PMTK001,185,3*3C
$GPGGA,180841.000,4021.9933,N,07517.1304,$GPGGA,180840.000,4021.9993,N,07517.1311,W,2,10,0.82,3801.6,M,-33.9,M,0000,0000*60
$GPRMC,180840.000,A,4021.9993,N,07517.1311,W,21.87,177.94,100612,,,D*43
$PMTK001,314,3*36
$PMTK001,220,3*30
$PMTK001,185,3*3C
$GPGGA,180841.000,4021.9933,N,07517.1304,$GPGGA,180840.000,4021.9993,N,07517.1311,W,2,10,0.82,3801.6,M,-33.9,M,0000,0000*60
$GPRMC,180840.000,A,4021.9993,N,07517.1311,W,21.87,177.94,100612,,,D*43
$PMTK001,314,3*36
$PMTK001,220,3*30
$PMTK001,185,3*3C
$GPGGA,180841.000,4021.9933,N,07517.1304,$GPGGA,180840.000,4021.9993,N,07517.1311,W,2,10,0.82,3801.6,M,-33.9,M,0000,0000*60
$GPRMC,180840.000,A,4021.9993,N,07517.1311,W,21.87,177.94,100612,,,D*43
$PMTK001,314,3*36
$PMTK001,220,3*30
$PMTK001,185,3*3C
$GPGGA,180841.000,4021.9933,N,07517.1304,$GPGGA,180840.000,4021.9993,N,07517.1311,W,2,10,0.82,3801.6,M,-33.9,M,0000,0000*60
$GPRMC,180840.000,A,4021.9993,N,07517.1311,W,21.87,177.94,100612,,,D*43
$PMTK001,314,3*36
$PMTK001,220,3*30
$PMTK001,185,3*3C
$GPGGA,180841.000,4021.9933,N,07517.1304,$GPGGA,180840.000,4021.9993,N,07517.1311,W,2,10,0.82,3801.6,M,-33.9,M,0000,0000*60
$GPRMC,180840.000,A,4021.9993,N,07517.1311,W,21.87,177.94,100612,,,D*43
$PMTK001,314,3*36
$PMTK001,220,3*30
$PMTK001,185,3*3C
$GPGGA,180841.000,4021.9933,N,07517.1304,$GPGGA,180840.000,4021.9993,N,07517.1311,W,2,10,0.82,3801.6,M,-33.9,M,0000,0000*60
$GPRMC,180840.000,A,4021.9993,N,07517.1311,W,21.87,177.94,100612,,,D*43
$PMTK001,314,3*36
$PMTK001,220,3*30
$PMTK001,185,3*3C
$GPGGA,180841.000,4021.9933,N,07517.1304,$GPGGA,180840.000,4021.9993,N,07517.1311,W,2,10,0.82,3801.6,M,-33.9,M,0000,0000*60
$GPRMC,180840.000,A,4021.9993,N,07517.1311,W,21.87,177.94,100612,,,D*43
$PMTK001,314,3*36
$PMTK001,220,3*30
$PMTK001,185,3*3C
$GPGGA,180841.000,4021.9933,N,07517.1304,$GPGGA,180840.000,4021.9993,N,07517.1311,W,2,10,0.82,3801.6,M,-33.9,M,0000,0000*60
$GPRMC,180840.000,A,4021.9993,N,07517.1311,W,21.87,177.94,100612,,,D*43
$PMTK001,314,3*36
$PMTK001,220,3*30
$PMTK001,185,3*3C
$GPGGA,180841.000,4021.9933,N,07517.1304,$GPGGA,180840.000,4021.9993,N,07517.1311,W,2,10,0.82,3801.6,M,-33.9,M,0000,0000*60
$GPRMC,180840.000,A,4021.9993,N,07517.1311,W,21.87,177.94,100612,,,D*43
$PMTK001,314,3*36
$PMTK001,220,3*30
$PMTK001,185,3*3C
$GPGGA,180841.000,4021.9933,N,07517.1304,$GPGGA,180840.000,4021.9993,N,07517.1311,W,2,10,0.82,3801.6,M,-33.9,M,0000,0000*60
$GPRMC,180840.000,A,4021.9993,N,07517.1311,W,21.87,177.94,100612,,,D*43
$PMTK001,314,3*36
$PMTK001,220,3*30
$PMTK001,185,3*3C
$GPGGA,180841.000,4021.9933,N,07517.1304,$GPGGA,180840.000,4021.9993,N,07517.1311,W,2,10,0.82,3801.6,M,-33.9,M,0000,0000*60
$GPRMC,180840.000,A,4021.9993,N,07517.1311,W,21.87,177.94,100612,,,D*43
$PMTK001,314,3*36
$PMTK001,220,3*30
$PMTK001,185,3*3C
$GPGGA,180841.000,4021.9933,N,07517.1304,$GPGGA,180840.000,4021.9993,N,07517.1311,W,2,10,0.82,3801.6,M,-33.9,M,0000,0000*60
$GPRMC,180840.000,A,4021.9993,N,07517.1311,W,21.87,177.94,100612,,,D*43
$PMTK001,314,3*36
$PMTK001,220,3*30
$PMTK001,185,3*3C
$GPGGA,180841.000,4021.9933,N,07517.1304,$GPGGA,180840.000,4021.9993,N,07517.1311,W,2,10,0.82,3801.6,M,-33.9,M,0000,0000*60
$GPRMC,180840.000,A,4021.9993,N,07517.1311,W,21.87,177.94,100612,,,D*43
$PMTK001,314,3*36
$PMTK001,220,3*30
$PMTK001,185,3*3C
$GPGGA,180841.000,4021.9933,N,07517.1304,$GPGGA,180840.000,4021.9993,N,07517.1311,W,2,10,0.82,3801.6,M,-33.9,M,0000,0000*60
$GPRMC,180840.000,A,4021.9993,N,07517.1311,W,21.87,177.94,100612,,,D*43
$PMTK001,314,3*36
$PMTK001,220,3*30
$PMTK001,185,3*3C
$GPGGA,180841.000,4021.9933,N,07517.1304,$GPGGA,180840.000,4021.9993,N,07517.1311,W,2,10,0.82,3801.6,M,-33.9,M,0000,0000*60
$GPRMC,180840.000,A,4021.9993,N,07517.1311,W,21.87,177.94,100612,,,D*43
$PMTK001,314,3*36
$PMTK001,220,3*30
$PMTK001,185,3*3C
$GPGGA,180841.000,4021.9933,N,07517.1304,$GPGGA,180840.000,4021.9993,N,07517.1311,W,2,10,0.82,3801.6,M,-33.9,M,0000,0000*60
$GPRMC,180840.000,A,4021.9993,N,07517.1311,W,21.87,177.94,100612,,,D*43
$PMTK001,314,3*36
$PMTK001,220,3*30
$PMTK001,185,3*3C
$GPGGA,180841.000,4021.9933,N,07517.1304,$GPGGA,180840.000,4021.9993,N,07517.1311,W,2,10,0.82,3801.6,M,-33.9,M,0000,0000*60
$GPRMC,180840.000,A,4021.9993,N,07517.1311,W,21.87,177.94,100612,,,D*43
$PMTK001,314,3*36
$PMTK001,220,3*30
$PMTK001,185,3*3C
$GPGGA,180841.000,4021.9933,N,07517.1304,$GPGGA,180840.000,4021.9993,N,07517.1311,W,2,10,0.82,3801.6,M,-33.9,M,0000,0000*60
$GPRMC,180840.000,A,4021.9993,N,07517.1311,W,21.87,177.94,100612,,,D*43
$PMTK001,314,3*36
$PMTK001,220,3*30
$PMTK001,185,3*3C
$GPGGA,180841.000,4021.9933,N,07517.1304,$GPGGA,180840.000,4021.9993,N,07517.1311,W,2,10,0.82,3801.6,M,-33.9,M,0000,0000*60
$GPRMC,180840.000,A,4021.9993,N,07517.1311,W,21.87,177.94,100612,,,D*43
$PMTK001,314,3*36
$PMTK001,220,3*30
$PMTK001,185,3*3C
$GPGGA,180841.000,4021.9933,N,07517.1304,$GPGGA,180840.000,4021.9993,N,07517.1311,W,2,10,0.82,3801.6,M,-33.9,M,0000,0000*60
$GPRMC,180840.000,A,4021.9993,N,07517.1311,W,21.87,177.94,100612,,,D*43
$PMTK001,314,3*36
$PMTK001,220,3*30
$PMTK001,185,3*3C
$GPGGA,180841.000,4021.9933,N,07517.1304,$GPGGA,180840.000,4021.9993,N,07517.1311,W,2,10,0.82,3801.6,M,-33.9,M,0000,0000*60
$GPRMC,180840.000,A,4021.9993,N,07517.1311,W,21.87,177.94,100612,,,D*43
$PMTK001,314,3*36
$PMTK001,220,3*30
$PMTK001,185,3*3C
$GPGGA,180841.000,4021.9933,N,07517.1304,$GPGGA,180840.000,4021.9993,N,07517.1311,W,2,10,0.82,3801.6,M,-33.9,M,0000,0000*60
$GPRMC,180840.000,A,4021.9993,N,07517.1311,W,21.87,177.94,100612,,,D*43
$PMTK001,314,3*36
$PMTK001,220,3*30
$PMTK001,185,3*3C
$GPGGA,180841.000,4021.9933,N,07517.1304,$GPGGA,180840.000,4021.9993,N,07517.1311,W,2,10,0.82,3801.6,M,-33.9,M,0000,0000*60
$GPRMC,180840.000,A,4021.9993,N,07517.1311,W,21.87,177.94,100612,,,D*43
$PMTK001,314,3*36
$PMTK001,220,3*30
$PMTK001,185,3*3C
$GPGGA,180841.000,4021.9933,N,07517.1304,$GPGGA,180840.000,4021.9993,N,07517.1311,W,2,10,0.82,3801.6,M,-33.9,M,0000,0000*60
$GPRMC,180840.000,A,4021.9993,N,07517.1311,W,21.87,177.94,100612,,,D*43
$PMTK001,314,3*36
$PMTK001,220,3*30
$PMTK001,185,3*3C
$GPGGA,180841.000,4021.9933,N,07517.1304,$GPGGA,180840.000,4021.9993,N,07517.1311,W,2,10,0.82,3801.6,M,-33.9,M,0000,0000*60
$GPRMC,180840.000,A,4021.9993,N,07517.1311,W,21.87,177.94,100612,,,D*43
$PMTK001,314,3*36
$PMTK001,220,3*30
$PMTK001,185,3*3C
$GPGGA,180841.000,4021.9933,N,07517.1304,$GPGGA,180840.000,4021.9993,N,07517.1311,W,2,10,0.82,3801.6,M,-33.9,M,0000,0000*60
$GPRMC,180840.000,A,4021.9993,N,07517.1311,W,21.87,177.94,100612,,,D*43
$PMTK001,314,3*36
$PMTK001,220,3*30
$PMTK001,185,3*3C
$GPGGA,180841.000,4021.9933,N,07517.1304,$GPGGA,180840.000,4021.9993,N,07517.1311,W,2,10,0.82,3801.6,M,-33.9,M,0000,0000*60
$GPRMC,180840.000,A,4021.9993,N,07517.1311,W,21.87,177.94,100612,,,D*43
$PMTK001,314,3*36
$PMTK001,220,3*30
$PMTK001,185,3*3C
$GPGGA,180841.000,4021.9933,N,07517.1304,$GPGGA,180840.000,4021.9993,N,07517.1311,W,2,10,0.82,3801.6,M,-33.9,M,0000,0000*60
$GPRMC,180840.000,A,4021.9993,N,07517.1311,W,21.87,177.94,100612,,,D*43
$PMTK001,314,3*36
$PMTK001,220,3*30
$PMTK001,185,3*3C
$GPGGA,180841.000,4021.9933,N,07517.1304,$GPGGA,180840.000,4021.9993,N,07517.1311,W,2,10,0.82,3801.6,M,-33.9,M,0000,0000*60
$GPRMC,180840.000,A,4021.9993,N,07517.1311,W,21.87,177.94,100612,,,D*43
$PMTK001,314,3*36
$PMTK001,220,3*30
$PMTK001,185,3*3C
$GPGGA,180841.000,4021.9933,N,07517.1304,$GPGGA,180840.000,4021.9993,N,07517.1311,W,2,10,0.82,3801.6,M,-33.9,M,0000,0000*60
$GPRMC,180840.000,A,4021.9993,N,07517.1311,W,21.87,177.94,100612,,,D*43
$PMTK001,314,3*36
$PMTK001,220,3*30
$PMTK001,185,3*3C
$GPGGA,180841.000,4021.9933,N,07517.1304,$GPGGA,180840.000,4021.9993,N,07517.1311,W,2,10,0.82,3801.6,M,-33.9,M,0000,0000*60
$GPRMC,180840.000,A,4021.9993,N,07517.1311,W,21.87,177.94,100612,,,D*43
$PMTK001,314,3*36
$PMTK001,220,3*30
$PMTK001,185,3*3C
$GPGGA,180841.000,4021.9933,N,07517.1304,$GPGGA,180840.000,4021.9993,N,07517.1311,W,2,10,0.82,3801.6,M,-33.9,M,0000,0000*60
$GPRMC,180840.000,A,4021.9993,N,07517.1311,W,21.87,177.94,100612,,,D*43
$PMTK001,314,3*36
$PMTK001,220,3*30
$PMTK001,185,3*3C
$GPGGA,180841.000,4021.9933,N,07517.1304,$GPGGA,180840.000,4021.9993,N,07517.1311,W,2,10,0.82,3801.6,M,-33.9,M,0000,0000*60
$GPRMC,180840.000,A,4021.9993,N,07517.1311,W,21.87,177.94,100612,,,D*43
$PMTK001,314,3*36
$PMTK001,220,3*30
$PMTK001,185,3*3C
$GPGGA,180841.000,4021.9933,N,07517.1304,$GPGGA,180840.000,4021.9993,N,07517.1311,W,2,10,0.82,3801.6,M,-33.9,M,0000,0000*60
$GPRMC,180840.000,A,4021.9993,N,07517.1311,W,21.87,177.94,100612,,,D*43
$PMTK001,314,3*36
$PMTK001,220,3*30
$PMTK001,185,3*3C
$GPGGA,180841.000,4021.9933,N,07517.1304,$GPGGA,180840.000,4021.9993,N,07517.1311,W,2,10,0.82,3801.6,M,-33.9,M,0000,0000*60
$GPRMC,180840.000,A,4021.9993,N,07517.1311,W,21.87,177.94,100612,,,D*43
$PMTK001,314,3*36
$PMTK001,220,3*30
$PMTK001,185,3*3C
$GPGGA,180841.000,4021.9933,N,07517.1304,$GPGGA,180840.000,4021.9993,N,07517.1311,W,2,10,0.82,3801.6,M,-33.9,M,0000,0000*60
$GPRMC,180840.000,A,4021.9993,N,07517.1311,W,21.87,177.94,100612,,,D*43
$PMTK001,314,3*36
$PMTK001,220,3*30
$PMTK001,185,3*3C
$GPGGA,180841.000,4021.9933,N,07517.1304,$GPGGA,180840.000,4021.9993,N,07517.1311,W,2,10,0.82,3801.6,M,-33.9,M,0000,0000*60
$GPRMC,180840.000,A,4021.9993,N,07517.1311,W,21.87,177.94,100612,,,D*43
$PMTK001,314,3*36
$PMTK001,220,3*30
$PMTK001,185,3*3C
$GPGGA,180841.000,4021.9933,N,07517.1304,