$GPGGA,182040.000,4017.1585,N,07514.9054,W,2,10,0.90,5276.7,M,-33.9,M,0000,0000*6B
$GPRMC,182040.000,A,4017.1585,N,07514.9054,W,25.99,153.84,100612,,,D*4A
$PMTK001,314,3*36
$PMTK001,220,3*30
$PMTK001,185,3*3C
$GPGGA,182041.000,4017.1520,N,07514.9016,$GPGGA,182040.000,4017.1585,N,07514.9054,W,2,10,0.90,5276.7,M,-33.9,M,0000,0000*6B
$GPRMC,182040.000,A,4017.1585,N,07514.9054,W,25.99,153.84,100612,,,D*4A
$PMTK001,314,3*36
$PMTK001,220,3*30
$PMTK001,185,3*3C
$GPGGA,182041.000,4017.1520,N,07514.9016,$GPGGA,182040.000,4017.1585,N,07514.9054,W,2,10,0.90,5276.7,M,-33.9,M,0000,0000*6B
$GPRMC,182040.000,A,4017.1585,N,07514.9054,W,25.99,153.84,100612,,,D*4A
$PMTK001,314,3*36
$PMTK001,220,3*30
$PMTK001,185,3*3C
$GPGGA,182041.000,4017.1520,N,07514.9016,$GPGGA,182040.000,4017.1585,N,07514.9054,W,2,10,0.90,5276.7,M,-33.9,M,0000,0000*6B
$GPRMC,182040.000,A,4017.1585,N,07514.9054,W,25.99,153.84,100612,,,D*4A
$PMTK001,314,3*36
$PMTK001,220,3*30
$PMTK001,185,3*3C
$GPGGA,182041.000,4017.1520,N,07514.9016,$GPGGA,182040.000,4017.1585,N,07514.9054,W,2,10,0.90,5276.7,M,-33.9,M,0000,0000*6B
$GPRMC,182040.000,A,4017.1585,N,07514.9054,W,25.99,153.84,100612,,,D*4A
$PMTK001,314,3*36
$PMTK001,220,3*30
$PMTK001,185,3*3C
$GPGGA,182041.000,4017.1520,N,07514.9016,$GPGGA,182040.000,4017.1585,N,07514.9054,W,2,10,0.90,5276.7,M,-33.9,M,0000,0000*6B
$GPRMC,182040.000,A,4017.1585,N,07514.9054,W,25.99,153.84,100612,,,D*4A
$PMTK001,314,3*36
$PMTK001,220,3*30
$PMTK001,185,3*3C
$GPGGA,182041.000,4017.1520,N,07514.9016,$GPGGA,182040.000,4017.1585,N,07514.9054,W,2,10,0.90,5276.7,M,-33.9,M,0000,0000*6B
$GPRMC,182040.000,A,4017.1585,N,07514.9054,W,25.99,153.84,100612,,,D*4A
$PMTK001,314,3*36
$PMTK001,220,3*30
$PMTK001,185,3*3C
$GPGGA,182041.000,4017.1520,N,07514.9016,$GPGGA,182040.000,4017.1585,N,07514.9054,W,2,10,0.90,5276.7,M,-33.9,M,0000,0000*6B
$GPRMC,182040.000,A,4017.1585,N,07514.9054,W,25.99,153.84,100612,,,D*4A
$PMTK001,314,3*36
$PMTK001,220,3*30
$PMTK001,185,3*3C
$GPGGA,182041.000,4017.1520,N,07514.9016,$GPGGA,182040.000,4017.1585,N,07514.9054,W,2,10,0.90,5276.7,M,-33.9,M,0000,0000*6B
$GPRMC,182040.000,A,4017.1585,N,07514.9054,W,25.99,153.84,100612,,,D*4A
$PMTK001,314,3*36
$PMTK001,220,3*30
$PMTK001,185,3*3C
$GPGGA,182041.000,4017.1520,N,07514.9016,$GPGGA,182040.000,4017.1585,N,07514.9054,W,2,10,0.90,5276.7,M,-33.9,M,0000,0000*6B
$GPRMC,182040.000,A,4017.1585,N,07514.9054,W,25.99,153.84,100612,,,D*4A
$PMTK001,314,3*36
$PMTK001,220,3*30
$PMTK001,185,3*3C
$GPGGA,182041.000,4017.1520,N,07514.9016,$GPGGA,182040.000,4017.1585,N,07514.9054,W,2,10,0.90,5276.7,M,-33.9,M,0000,0000*6B
$GPRMC,182040.000,A,4017.1585,N,07514.9054,W,25.99,153.84,100612,,,D*4A
$PMTK001,314,3*36
$PMTK001,220,3*30
$PMTK001,185,3*3C
$GPGGA,182041.000,4017.1520,N,07514.9016,$GPGGA,182040.000,4017.1585,N,07514.9054,W,2,10,0.90,5276.7,M,-33.9,M,0000,0000*6B
$GPRMC,182040.000,A,4017.1585,N,07514.9054,W,25.99,153.84,100612,,,D*4A
$PMTK001,314,3*36
$PMTK001,220,3*30
$PMTK001,185,3*3C
$GPGGA,182041.000,4017.1520,N,07514.9016,$GPGGA,182040.000,4017.1585,N,07514.9054,W,2,10,0.90,5276.7,M,-33.9,M,0000,0000*6B
$GPRMC,182040.000,A,4017.1585,N,07514.9054,W,25.99,153.84,100612,,,D*4A
$PMTK001,314,3*36
$PMTK001,220,3*30
$PMTK001,185,3*3C
$GPGGA,182041.000,4017.1520,N,07514.9016,$GPGGA,182040.000,4017.1585,N,07514.9054,W,2,10,0.90,5276.7,M,-33.9,M,0000,0000*6B
$GPRMC,182040.000,A,4017.1585,N,07514.9054,W,25.99,153.84,100612,,,D*4A
$PMTK001,314,3*36
$PMTK001,220,3*30
$PMTK001,185,3*3C
$GPGGA,182041.000,4017.1520,N,07514.9016,$GPGGA,182040.000,4017.1585,N,07514.9054,W,2,10,0.90,5276.7,M,-33.9,M,0000,0000*6B
$GPRMC,182040.000,A,4017.1585,N,07514.9054,W,25.99,153.84,100612,,,D*4A
$PMTK001,314,3*36
$PMTK001,220,3*30
$PMTK001,185,3*3C
$GPGGA,182041.000,4017.1520,N,07514.9016,$GPGGA,182040.000,4017.1585,N,07514.9054,W,2,10,0.90,5276.7,M,-33.9,M,0000,0000*6B
$GPRMC,182040.000,A,4017.1585,N,07514.9054,W,25.99,153.84,100612,,,D*4A
$PMTK001,314,3*36
$PMTK001,220,3*30
$PMTK001,185,3*3C
$GPGGA,182041.000,4017.1520,N,07514.9016,$GPGGA,182040.000,4017.1585,N,07514.9054,W,2,10,0.90,5276.7,M,-33.9,M,0000,0000*6B
$GPRMC,182040.000,A,4017.1585,N,07514.9054,W,25.99,153.84,100612,,,D*4A
$PMTK001,314,3*36
$PMTK001,220,3*30
$PMTK001,185,3*3C
$GPGGA,182041.000,4017.1520,N,07514.9016,$GPGGA,182040.000,4017.1585,N,07514.9054,W,2,10,0.90,5276.7,M,-33.9,M,0000,0000*6B
$GPRMC,182040.000,A,4017.1585,N,07514.9054,W,25.99,153.84,100612,,,D*4A
$PMTK001,314,3*36
$PMTK001,220,3*30
$PMTK001,185,3*3C
$GPGGA,182041.000,4017.1520,N,07514.9016,$GPGGA,182040.000,4017.1585,N,07514.9054,W,2,10,0.90,5276.7,M,-33.9,M,0000,0000*6B
$GPRMC,182040.000,A,4017.1585,N,07514.9054,W,25.99,153.84,100612,,,D*4A
$PMTK001,314,3*36
$PMTK001,220,3*30
$PMTK001,185,3*3C
$GPGGA,182041.000,4017.1520,N,07514.9016,$GPGGA,182040.000,4017.1585,N,07514.9054,W,2,10,0.90,5276.7,M,-33.9,M,0000,0000*6B
$GPRMC,182040.000,A,4017.1585,N,07514.9054,W,25.99,153.84,100612,,,D*4A
$PMTK001,314,3*36
$PMTK001,220,3*30
$PMTK001,185,3*3C
$GPGGA,182041.000,4017.1520,N,07514.9016,$GPGGA,182040.000,4017.1585,N,07514.9054,W,2,10,0.90,5276.7,M,-33.9,M,0000,0000*6B
$GPRMC,182040.000,A,4017.1585,N,07514.9054,W,25.99,153.84,100612,,,D*4A
$PMTK001,314,3*36
$PMTK001,220,3*30
$PMTK001,185,3*3C
$GPGGA,182041.000,4017.1520,N,07514.9016,$GPGGA,182040.000,4017.1585,N,07514.9054,W,2,10,0.90,5276.7,M,-33.9,M,0000,0000*6B
$GPRMC,182040.000,A,4017.1585,N,07514.9054,W,25.99,153.84,100612,,,D*4A
$PMTK001,314,3*36
$PMTK001,220,3*30
$PMTK001,185,3*3C
$GPGGA,182041.000,4017.1520,N,07514.9016,$GPGGA,182040.000,4017.1585,N,07514.9054,W,2,10,0.90,5276.7,M,-33.9,M,0000,0000*6B
$GPRMC,182040.000,A,4017.1585,N,07514.9054,W,25.99,153.84,100612,,,D*4A
$PMTK001,314,3*36
$PMTK001,220,3*30
$PMTK001,185,3*3C
$GPGGA,182041.000,4017.1520,N,07514.9016,$GPGGA,182040.000,4017.1585,N,07514.9054,W,2,10,0.90,5276.7,M,-33.9,M,0000,0000*6B
$GPRMC,182040.000,A,4017.1585,N,07514.9054,W,25.99,153.84,100612,,,D*4A
$PMTK001,314,3*36
$PMTK001,220,3*30
$PMTK001,185,3*3C
$GPGGA,182041.000,4017.1520,N,07514.9016,$GPGGA,182040.000,4017.1585,N,07514.9054,W,2,10,0.90,5276.7,M,-33.9,M,0000,0000*6B
$GPRMC,182040.000,A,4017.1585,N,07514.9054,W,25.99,153.84,100612,,,D*4A
$PMTK001,314,3*36
$PMTK001,220,3*30
$PMTK001,185,3*3C
$GPGGA,182041.000,4017.1520,N,07514.9016,$GPGGA,182040.000,4017.1585,N,07514.9054,W,2,10,0.90,5276.7,M,-33.9,M,0000,0000*6B
$GPRMC,182040.000,A,4017.1585,N,07514.9054,W,25.99,153.84,100612,,,D*4A
$PMTK001,314,3*36
$PMTK001,220,3*30
$PMTK001,185,3*3C
$GPGGA,182041.000,4017.1520,N,07514.9016,$GPGGA,182040.000,4017.1585,N,07514.9054,W,2,10,0.90,5276.7,M,-33.9,M,0000,0000*6B
$GPRMC,182040.000,A,4017.1585,N,07514.9054,W,25.99,153.84,100612,,,D*4A
$PMTK001,314,3*36
$PMTK001,220,3*30
$PMTK001,185,3*3C
$GPGGA,182041.000,4017.1520,N,07514.9016,$GPGGA,182040.000,4017.1585,N,07514.9054,W,2,10,0.90,5276.7,M,-33.9,M,0000,0000*6B
$GPRMC,182040.000,A,4017.1585,N,07514.9054,W,25.99,153.84,100612,,,D*4A
$PMTK001,314,3*36
$PMTK001,220,3*30
$PMTK001,185,3*3C
$GPGGA,182041.000,4017.1520,N,07514.9016,$GPGGA,182040.000,4017.1585,N,07514.9054,W,2,10,0.90,5276.7,M,-33.9,M,0000,0000*6B
$GPRMC,182040.000,A,4017.1585,N,07514.9054,W,25.99,153.84,100612,,,D*4A
$PMTK001,314,3*36
$PMTK001,220,3*30
$PMTK001,185,3*3C
$GPGGA,182041.000,4017.1520,N,07514.9016,$GPGGA,182040.000,4017.1585,N,07514.9054,W,2,10,0.90,5276.7,M,-33.9,M,0000,0000*6B
$GPRMC,182040.000,A,4017.1585,N,07514.9054,W,25.99,153.84,100612,,,D*4A
$PMTK001,314,3*36
$PMTK001,220,3*30
$PMTK001,185,3*3C
$GPGGA,182041.000,4017.1520,N,07514.9016,$GPGGA,182040.000,4017.1585,N,07514.9054,W,2,10,0.90,5276.7,M,-33.9,M,0000,0000*6B
$GPRMC,182040.000,A,4017.1585,N,07514.9054,W,25.99,153.84,100612,,,D*4A
$PMTK001,314,3*36
$PMTK001,220,3*30
$PMTK001,185,3*3C
$GPGGA,182041.000,4017.1520,N,07514.9016,$GPGGA,182040.000,4017.1585,N,07514.9054,W,2,10,0.90,5276.7,M,-33.9,M,0000,0000*6B
$GPRMC,182040.000,A,4017.1585,N,07514.9054,W,25.99,153.84,100612,,,D*4A
$PMTK001,314,3*36
$PMTK001,220,3*30
$PMTK001,185,3*3C
$GPGGA,182041.000,4017.1520,N,07514.9016,$GPGGA,182040.000,4017.1585,N,07514.9054,W,2,10,0.90,5276.7,M,-33.9,M,0000,0000*6B
$GPRMC,182040.000,A,4017.1585,N,07514.9054,W,25.99,153.84,100612,,,D*4A
$PMTK001,314,3*36
$PMTK001,220,3*30
$PMTK001,185,3*3C
$GPGGA,182041.000,4017.1520,N,07514.9016,$GPGGA,182040.000,4017.1585,N,07514.9054,W,2,10,0.90,5276.7,M,-33.9,M,0000,0000*6B
$GPRMC,182040.000,A,4017.1585,N,07514.9054,W,25.99,153.84,100612,,,D*4A
$PMTK001,314,3*36
$PMTK001,220,3*30
$PMTK001,185,3*3C
$GPGGA,182041.000,4017.1520,N,07514.9016,$GPGGA,182040.000,4017.1585,N,07514.9054,W,2,10,0.90,5276.7,M,-33.9,M,0000,0000*6B
$GPRMC,182040.000,A,4017.1585,N,07514.9054,W,25.99,153.84,100612,,,D*4A
$PMTK001,314,3*36
$PMTK001,220,3*30
$PMTK001,185,3*3C
$GPGGA,182041.000,4017.1520,N,07514.9016,$GPGGA,182040.000,4017.1585,N,07514.9054,W,2,10,0.90,5276.7,M,-33.9,M,0000,0000*6B
$GPRMC,182040.000,A,4017.1585,N,07514.9054,W,25.99,153.84,100612,,,D*4A
$PMTK001,314,3*36
$PMTK001,220,3*30
$PMTK001,185,3*3C
$GPGGA,182041.000,4017.1520,N,07514.9016,$GPGGA,182040.000,4017.1585,N,07514.9054,W,2,10,0.90,5276.7,M,-33.9,M,0000,0000*6B
$GPRMC,182040.000,A,4017.1585,N,07514.9054,W,25.99,153.84,100612,,,D*4A
$PMTK001,314,3*36
$PMTK001,220,3*30
$PMTK001,185,3*3C
$GPGGA,182041.000,4017.1520,N,07514.9016,$GPGGA,182040.000,4017.1585,N,07514.9054,W,2,10,0.90,5276.7,M,-33.9,M,0000,0000*6B
$GPRMC,182040.000,A,4017.1585,N,07514.9054,W,25.99,153.84,100612,,,D*4A
$PMTK001,314,3*36
$PMTK001,220,3*30
$PMTK001,185,3*3C
$GPGGA,182041.000,4017.1520,N,07514.9016,$GPGGA,182040.000,4017.1585,N,07514.9054,W,2,10,0.90,5276.7,M,-33.9,M,0000,0000*6B
$GPRMC,182040.000,A,4017.1585,N,07514.9054,W,25.99,153.84,100612,,,D*4A
$PMTK001,314,3*36
$PMTK001,220,3*30
$PMTK001,185,3*3C
$GPGGA,182041.000,4017.1520,N,07514.9016,$GPGGA,182040.000,4017.1585,N,07514.9054,W,2,10,0.90,5276.7,M,-33.9,M,0000,0000*6B
$GPRMC,182040.000,A,4017.1585,N,07514.9054,W,25.99,153.84,100612,,,D*4A
$PMTK001,314,3*36
$PMTK001,220,3*30
$PMTK001,185,3*3C
$GPGGA,182041.000,4017.1520,N,07514.9016,$GPGGA,182040.000,4017.1585,N,07514.9054,W,2,10,0.90,5276.7,M,-33.9,M,0000,0000*6B
$GPRMC,182040.000,A,4017.1585,N,07514.9054,W,25.99,153.84,100612,,,D*4A
$PMTK001,314,3*36
$PMTK001,220,3*30
$PMTK001,185,3*3C
$GPGGA,182041.000,4017.1520,N,07514.9016,$GPGGA,182040.000,4017.1585,N,07514.9054,W,2,10,0.90,5276.7,M,-33.9,M,0000,0000*6B
$GPRMC,182040.000,A,4017.1585,N,07514.9054,W,25.99,153.84,100612,,,D*4A
$PMTK001,314,3*36
$PMTK001,220,3*30
$PMTK001,185,3*3C
$GPGGA,182041.000,4017.1520,N,07514.9016,$GPGGA,182040.000,4017.1585,N,07514.9054,W,2,10,0.90,5276.7,M,-33.9,M,0000,0000*6B
$GPRMC,182040.000,A,4017.1585,N,07514.9054,W,25.99,153.84,100612,,,D*4A
$PMTK001,314,3*36
$PMTK001,220,3*30
$PMTK001,185,3*3C
$GPGGA,182041.000,4017.1520,N,07514.9016,$GPGGA,182040.000,4017.1585,N,07514.9054,W,2,10,0.90,5276.7,M,-33.9,M,0000,0000*6B
$GPRMC,182040.000,A,4017.1585,N,07514.9054,W,25.99,153.84,100612,,,D*4A
$PMTK001,314,3*36
$PMTK001,220,3*30
$PMTK001,185,3*3C
$GPGGA,182041.000,4017.1520,N,07514.9016,$GPGGA,182040.000,4017.1585,N,07514.9054,W,2,10,0.90,5276.7,M,-33.9,M,0000,0000*6B
$GPRMC,182040.000,A,4017.1585,N,07514.9054,W,25.99,153.84,100612,,,D*4A
$PMTK001,314,3*36
$PMTK001,220,3*30
$PMTK001,185,3*3C
$GPGGA,182041.000,4017.1520,N,07514.9016,$GPGGA,182040.000,4017.1585,N,07514.9054,W,2,10,0.90,5276.7,M,-33.9,M,0000,0000*6B
$GPRMC,182040.000,A,4017.1585,N,07514.9054,W,25.99,153.84,100612,,,D*4A
$PMTK001,314,3*36
$PMTK001,220,3*30
$PMTK001,185,3*3C
$GPGGA,182041.000,4017.1520,N,07514.9016,$GPGGA,182040.000,4017.1585,N,07514.9054,W,2,10,0.90,5276.7,M,-33.9,M,0000,0000*6B
$GPRMC,182040.000,A,4017.1585,N,07514.9054,W,25.99,153.84,100612,,,D*4A
$PMTK001,314,3*36
$PMTK001,220,3*30
$PMTK001,185,3*3C
$GPGGA,182041.000,4017.1520,N,07514.9016,$GPGGA,182040.000,4017.1585,N,07514.9054,W,2,10,0.90,5276.7,M,-33.9,M,0000,0000*6B
$GPRMC,182040.000,A,4017.1585,N,07514.9054,W,25.99,153.84,100612,,,D*4A
$PMTK001,314,3*36
$PMTK001,220,3*30
$PMTK001,185,3*3C
$GPGGA,182041.000,4017.1520,N,07514.9016,$GPGGA,182040.000,4017.1585,N,07514.9054,W,2,10,0.90,5276.7,M,-33.9,M,0000,0000*6B
$GPRMC,182040.000,A,4017.1585,N,07514.9054,W,25.99,153.84,100612,,,D*4A
$PMTK001,314,3*36
$PMTK001,220,3*30
$PMTK001,185,3*3C
$GPGGA,182041.000,4017.1520,N,07514.9016,$GPGGA,182040.000,4017.1585,N,07514.9054,W,2,10,0.90,5276.7,M,-33.9,M,0000,0000*6B
$GPRMC,182040.000,A,4017.1585,N,07514.9054,W,25.99,153.84,100612,,,D*4A
$PMTK001,314,3*36
$PMTK001,220,3*30
$PMTK001,185,3*3C
$GPGGA,182041.000,4017.1520,N,07514.9016,$GPGGA,182040.000,4017.1585,N,07514.9054,W,2,10,0.90,5276.7,M,-33.9,M,0000,0000*6B
$GPRMC,182040.000,A,4017.1585,N,07514.9054,W,25.99,153.84,100612,,,D*4A
$PMTK001,314,3*36
$PMTK001,220,3*30
$PMTK001,185,3*3C
$GPGGA,182041.000,4017.1520,N,07514.9016,$GPGGA,182040.000,4017.1585,N,07514.9054,W,2,10,0.90,5276.7,M,-33.9,M,0000,0000*6B
$GPRMC,182040.000,A,4017.1585,N,07514.9054,W,25.99,153.84,100612,,,D*4A
$PMTK001,314,3*36
$PMTK001,220,3*30
$PMTK001,185,3*3C
$GPGGA,182041.000,4017.1520,N,07514.9016,$GPGGA,182040.000,4017.1585,N,07514.9054,W,2,10,0.90,5276.7,M,-33.9,M,0000,0000*6B
$GPRMC,182040.000,A,4017.1585,N,07514.9054,W,25.99,153.84,100612,,,D*4A
$PMTK001,314,3*36
$PMTK001,220,3*30
$PMTK001,185,3*3C
$GPGGA,182041.000,4017.1520,N,07514.9016,$GPGGA,182040.000,4017.1585,N,07514.9054,W,2,10,0.90,5276.7,M,-33.9,M,0000,0000*6B
$GPRMC,182040.000,A,4017.1585,N,07514.9054,W,25.99,153.84,100612,,,D*4A
$PMTK001,314,3*36
$PMTK001,220,3*30
$PMTK001,185,3*3C
$GPGGA,182041.000,4017.1520,N,07514.9016,$GPGGA,182040.000,4017.1585,N,07514.9054,W,2,10,0.90,5276.7,M,-33.9,M,0000,0000*6B
$GPRMC,182040.000,A,4017.1585,N,07514.9054,W,25.99,153.84,100612,,,D*4A
$PMTK001,314,3*36
$PMTK001,220,3*30
$PMTK001,185,3*3C
$GPGGA,182041.000,4017.1520,N,07514.9016,$GPGGA,182040.000,4017.1585,N,07514.9054,W,2,10,0.90,5276.7,M,-33.9,M,0000,0000*6B
$GPRMC,182040.000,A,4017.1585,N,07514.9054,W,25.99,153.84,100612,,,D*4A
$PMTK001,314,3*36
$PMTK001,220,3*30
$PMTK001,185,3*3C
$GPGGA,182041.000,4017.1520,N,07514.9016,$GPGGA,182040.000,4017.1585,N,07514.9054,W,2,10,0.90,5276.7,M,-33.9,M,0000,0000*6B
$GPRMC,182040.000,A,4017.1585,N,07514.9054,W,25.99,153.84,100612,,,D*4A
$PMTK001,314,3*36
$PMTK001,220,3*30
$PMTK001,185,3*3C
$GPGGA,182041.000,4017.1520,N,07514.9016,