,,0.00,0.00,050180,,,N*47
$GPVTG,0.00,T,,M,0.00,N,0.00,K,N*32
$PMTK001,314,3*36
$PMTK001,220,3*30
$PMTK001,185,3*3C
$GPGGA,235946.318,,,,,0,0,,,M,,M,,*4D
$GPRMC,235946.318,V,,,,,0.00,0.00,050180,,,N*44
$GPGGA,235947.318,,,,,0,0,,,M,,M,,*4C
$GPRMC,,,0.00,0.00,050180,,,N*47
$GPVTG,0.00,T,,M,0.00,N,0.00,K,N*32
$PMTK001,314,3*36
$PMTK001,220,3*30
$PMTK001,185,3*3C
$GPGGA,235946.318,,,,,0,0,,,M,,M,,*4D
$GPRMC,235946.318,V,,,,,0.00,0.00,050180,,,N*44
$GPGGA,235947.318,,,,,0,0,,,M,,M,,*4C
$GPRMC,,,0.00,0.00,050180,,,N*47
$GPVTG,0.00,T,,M,0.00,N,0.00,K,N*32
$PMTK001,314,3*36
$PMTK001,220,3*30
$PMTK001,185,3*3C
$GPGGA,235946.318,,,,,0,0,,,M,,M,,*4D
$GPRMC,235946.318,V,,,,,0.00,0.00,050180,,,N*44
$GPGGA,235947.318,,,,,0,0,,,M,,M,,*4C
$GPRMC,,,0.00,0.00,050180,,,N*47
$GPVTG,0.00,T,,M,0.00,N,0.00,K,N*32
$PMTK001,314,3*36
$PMTK001,220,3*30
$PMTK001,185,3*3C
$GPGGA,235946.318,,,,,0,0,,,M,,M,,*4D
$GPRMC,235946.318,V,,,,,0.00,0.00,050180,,,N*44
$GPGGA,235947.318,,,,,0,0,,,M,,M,,*4C
$GPRMC,,,0.00,0.00,050180,,,N*47
$GPVTG,0.00,T,,M,0.00,N,0.00,K,N*32
$PMTK001,314,3*36
$PMTK001,220,3*30
$PMTK001,185,3*3C
$GPGGA,235946.318,,,,,0,0,,,M,,M,,*4D
$GPRMC,235946.318,V,,,,,0.00,0.00,050180,,,N*44
$GPGGA,235947.318,,,,,0,0,,,M,,M,,*4C
$GPRMC,,,0.00,0.00,050180,,,N*47
$GPVTG,0.00,T,,M,0.00,N,0.00,K,N*32
$PMTK001,314,3*36
$PMTK001,220,3*30
$PMTK001,185,3*3C
$GPGGA,235946.318,,,,,0,0,,,M,,M,,*4D
$GPRMC,235946.318,V,,,,,0.00,0.00,050180,,,N*44
$GPGGA,235947.318,,,,,0,0,,,M,,M,,*4C
$GPRMC,,,0.00,0.00,050180,,,N*47
$GPVTG,0.00,T,,M,0.00,N,0.00,K,N*32
$PMTK001,314,3*36
$PMTK001,220,3*30
$PMTK001,185,3*3C
$GPGGA,235946.318,,,,,0,0,,,M,,M,,*4D
$GPRMC,235946.318,V,,,,,0.00,0.00,050180,,,N*44
$GPGGA,235947.318,,,,,0,0,,,M,,M,,*4C
$GPRMC,,,0.00,0.00,050180,,,N*47
$GPVTG,0.00,T,,M,0.00,N,0.00,K,N*32
$PMTK001,314,3*36
$PMTK001,220,3*30
$PMTK001,185,3*3C
$GPGGA,235946.318,,,,,0,0,,,M,,M,,*4D
$GPRMC,235946.318,V,,,,,0.00,0.00,050180,,,N*44
$GPGGA,235947.318,,,,,0,0,,,M,,M,,*4C
$GPRMC,,,0.00,0.00,050180,,,N*47
$GPVTG,0.00,T,,M,0.00,N,0.00,K,N*32
$PMTK001,314,3*36
$PMTK001,220,3*30
$PMTK001,185,3*3C
$GPGGA,235946.318,,,,,0,0,,,M,,M,,*4D
$GPRMC,235946.318,V,,,,,0.00,0.00,050180,,,N*44
$GPGGA,235947.318,,,,,0,0,,,M,,M,,*4C
$GPRMC,,,0.00,0.00,050180,,,N*47
$GPVTG,0.00,T,,M,0.00,N,0.00,K,N*32
$PMTK001,314,3*36
$PMTK001,220,3*30
$PMTK001,185,3*3C
$GPGGA,235946.318,,,,,0,0,,,M,,M,,*4D
$GPRMC,235946.318,V,,,,,0.00,0.00,050180,,,N*44
$GPGGA,235947.318,,,,,0,0,,,M,,M,,*4C
$GPRMC,,,0.00,0.00,050180,,,N*47
$GPVTG,0.00,T,,M,0.00,N,0.00,K,N*32
$PMTK001,314,3*36
$PMTK001,220,3*30
$PMTK001,185,3*3C
$GPGGA,235946.318,,,,,0,0,,,M,,M,,*4D
$GPRMC,235946.318,V,,,,,0.00,0.00,050180,,,N*44
$GPGGA,235947.318,,,,,0,0,,,M,,M,,*4C
$GPRMC,,,0.00,0.00,050180,,,N*47
$GPVTG,0.00,T,,M,0.00,N,0.00,K,N*32
$PMTK001,314,3*36
$PMTK001,220,3*30
$PMTK001,185,3*3C
$GPGGA,235946.318,,,,,0,0,,,M,,M,,*4D
$GPRMC,235946.318,V,,,,,0.00,0.00,050180,,,N*44
$GPGGA,235947.318,,,,,0,0,,,M,,M,,*4C
$GPRMC,,,0.00,0.00,050180,,,N*47
$GPVTG,0.00,T,,M,0.00,N,0.00,K,N*32
$PMTK001,314,3*36
$PMTK001,220,3*30
$PMTK001,185,3*3C
$GPGGA,235946.318,,,,,0,0,,,M,,M,,*4D
$GPRMC,235946.318,V,,,,,0.00,0.00,050180,,,N*44
$GPGGA,235947.318,,,,,0,0,,,M,,M,,*4C
$GPRMC,,,0.00,0.00,050180,,,N*47
$GPVTG,0.00,T,,M,0.00,N,0.00,K,N*32
$PMTK001,314,3*36
$PMTK001,220,3*30
$PMTK001,185,3*3C
$GPGGA,235946.318,,,,,0,0,,,M,,M,,*4D
$GPRMC,235946.318,V,,,,,0.00,0.00,050180,,,N*44
$GPGGA,235947.318,,,,,0,0,,,M,,M,,*4C
$GPRMC,,,0.00,0.00,050180,,,N*47
$GPVTG,0.00,T,,M,0.00,N,0.00,K,N*32
$PMTK001,314,3*36
$PMTK001,220,3*30
$PMTK001,185,3*3C
$GPGGA,235946.318,,,,,0,0,,,M,,M,,*4D
$GPRMC,235946.318,V,,,,,0.00,0.00,050180,,,N*44
$GPGGA,235947.318,,,,,0,0,,,M,,M,,*4C
$GPRMC,,,0.00,0.00,050180,,,N*47
$GPVTG,0.00,T,,M,0.00,N,0.00,K,N*32
$PMTK001,314,3*36
$PMTK001,220,3*30
$PMTK001,185,3*3C
$GPGGA,235946.318,,,,,0,0,,,M,,M,,*4D
$GPRMC,235946.318,V,,,,,0.00,0.00,050180,,,N*44
$GPGGA,235947.318,,,,,0,0,,,M,,M,,*4C
$GPRMC,,,0.00,0.00,050180,,,N*47
$GPVTG,0.00,T,,M,0.00,N,0.00,K,N*32
$PMTK001,314,3*36
$PMTK001,220,3*30
$PMTK001,185,3*3C
$GPGGA,235946.318,,,,,0,0,,,M,,M,,*4D
$GPRMC,235946.318,V,,,,,0.00,0.00,050180,,,N*44
$GPGGA,235947.318,,,,,0,0,,,M,,M,,*4C
$GPRMC,,,0.00,0.00,050180,,,N*47
$GPVTG,0.00,T,,M,0.00,N,0.00,K,N*32
$PMTK001,314,3*36
$PMTK001,220,3*30
$PMTK001,185,3*3C
$GPGGA,235946.318,,,,,0,0,,,M,,M,,*4D
$GPRMC,235946.318,V,,,,,0.00,0.00,050180,,,N*44
$GPGGA,235947.318,,,,,0,0,,,M,,M,,*4C
$GPRMC,,,0.00,0.00,050180,,,N*47
$GPVTG,0.00,T,,M,0.00,N,0.00,K,N*32
$PMTK001,314,3*36
$PMTK001,220,3*30
$PMTK001,185,3*3C
$GPGGA,235946.318,,,,,0,0,,,M,,M,,*4D
$GPRMC,235946.318,V,,,,,0.00,0.00,050180,,,N*44
$GPGGA,235947.318,,,,,0,0,,,M,,M,,*4C
$GPRMC,,,0.00,0.00,050180,,,N*47
$GPVTG,0.00,T,,M,0.00,N,0.00,K,N*32
$PMTK001,314,3*36
$PMTK001,220,3*30
$PMTK001,185,3*3C
$GPGGA,235946.318,,,,,0,0,,,M,,M,,*4D
$GPRMC,235946.318,V,,,,,0.00,0.00,050180,,,N*44
$GPGGA,235947.318,,,,,0,0,,,M,,M,,*4C
$GPRMC,,,0.00,0.00,050180,,,N*47
$GPVTG,0.00,T,,M,0.00,N,0.00,K,N*32
$PMTK001,314,3*36
$PMTK001,220,3*30
$PMTK001,185,3*3C
$GPGGA,235946.318,,,,,0,0,,,M,,M,,*4D
$GPRMC,235946.318,V,,,,,0.00,0.00,050180,,,N*44
$GPGGA,235947.318,,,,,0,0,,,M,,M,,*4C
$GPRMC,,,0.00,0.00,050180,,,N*47
$GPVTG,0.00,T,,M,0.00,N,0.00,K,N*32
$PMTK001,314,3*36
$PMTK001,220,3*30
$PMTK001,185,3*3C
$GPGGA,235946.318,,,,,0,0,,,M,,M,,*4D
$GPRMC,235946.318,V,,,,,0.00,0.00,050180,,,N*44
$GPGGA,235947.318,,,,,0,0,,,M,,M,,*4C
$GPRMC,,,0.00,0.00,050180,,,N*47
$GPVTG,0.00,T,,M,0.00,N,0.00,K,N*32
$PMTK001,314,3*36
$PMTK001,220,3*30
$PMTK001,185,3*3C
$GPGGA,235946.318,,,,,0,0,,,M,,M,,*4D
$GPRMC,235946.318,V,,,,,0.00,0.00,050180,,,N*44
$GPGGA,235947.318,,,,,0,0,,,M,,M,,*4C
$GPRMC,,,0.00,0.00,050180,,,N*47
$GPVTG,0.00,T,,M,0.00,N,0.00,K,N*32
$PMTK001,314,3*36
$PMTK001,220,3*30
$PMTK001,185,3*3C
$GPGGA,235946.318,,,,,0,0,,,M,,M,,*4D
$GPRMC,235946.318,V,,,,,0.00,0.00,050180,,,N*44
$GPGGA,235947.318,,,,,0,0,,,M,,M,,*4C
$GPRMC,,,0.00,0.00,050180,,,N*47
$GPVTG,0.00,T,,M,0.00,N,0.00,K,N*32
$PMTK001,314,3*36
$PMTK001,220,3*30
$PMTK001,185,3*3C
$GPGGA,235946.318,,,,,0,0,,,M,,M,,*4D
$GPRMC,235946.318,V,,,,,0.00,0.00,050180,,,N*44
$GPGGA,235947.318,,,,,0,0,,,M,,M,,*4C
$GPRMC,,,0.00,0.00,050180,,,N*47
$GPVTG,0.00,T,,M,0.00,N,0.00,K,N*32
$PMTK001,314,3*36
$PMTK001,220,3*30
$PMTK001,185,3*3C
$GPGGA,235946.318,,,,,0,0,,,M,,M,,*4D
$GPRMC,235946.318,V,,,,,0.00,0.00,050180,,,N*44
$GPGGA,235947.318,,,,,0,0,,,M,,M,,*4C
$GPRMC,,,0.00,0.00,050180,,,N*47
$GPVTG,0.00,T,,M,0.00,N,0.00,K,N*32
$PMTK001,314,3*36
$PMTK001,220,3*30
$PMTK001,185,3*3C
$GPGGA,235946.318,,,,,0,0,,,M,,M,,*4D
$GPRMC,235946.318,V,,,,,0.00,0.00,050180,,,N*44
$GPGGA,235947.318,,,,,0,0,,,M,,M,,*4C
$GPRMC,,,0.00,0.00,050180,,,N*47
$GPVTG,0.00,T,,M,0.00,N,0.00,K,N*32
$PMTK001,314,3*36
$PMTK001,220,3*30
$PMTK001,185,3*3C
$GPGGA,235946.318,,,,,0,0,,,M,,M,,*4D
$GPRMC,235946.318,V,,,,,0.00,0.00,050180,,,N*44
$GPGGA,235947.318,,,,,0,0,,,M,,M,,*4C
$GPRMC,,,0.00,0.00,050180,,,N*47
$GPVTG,0.00,T,,M,0.00,N,0.00,K,N*32
$PMTK001,314,3*36
$PMTK001,220,3*30
$PMTK001,185,3*3C
$GPGGA,235946.318,,,,,0,0,,,M,,M,,*4D
$GPRMC,235946.318,V,,,,,0.00,0.00,050180,,,N*44
$GPGGA,235947.318,,,,,0,0,,,M,,M,,*4C
$GPRMC,,,0.00,0.00,050180,,,N*47
$GPVTG,0.00,T,,M,0.00,N,0.00,K,N*32
$PMTK001,314,3*36
$PMTK001,220,3*30
$PMTK001,185,3*3C
$GPGGA,235946.318,,,,,0,0,,,M,,M,,*4D
$GPRMC,235946.318,V,,,,,0.00,0.00,050180,,,N*44
$GPGGA,235947.318,,,,,0,0,,,M,,M,,*4C
$GPRMC,,,0.00,0.00,050180,,,N*47
$GPVTG,0.00,T,,M,0.00,N,0.00,K,N*32
$PMTK001,314,3*36
$PMTK001,220,3*30
$PMTK001,185,3*3C
$GPGGA,235946.318,,,,,0,0,,,M,,M,,*4D
$GPRMC,235946.318,V,,,,,0.00,0.00,050180,,,N*44
$GPGGA,235947.318,,,,,0,0,,,M,,M,,*4C
$GPRMC,,,0.00,0.00,050180,,,N*47
$GPVTG,0.00,T,,M,0.00,N,0.00,K,N*32
$PMTK001,314,3*36
$PMTK001,220,3*30
$PMTK001,185,3*3C
$GPGGA,235946.318,,,,,0,0,,,M,,M,,*4D
$GPRMC,235946.318,V,,,,,0.00,0.00,050180,,,N*44
$GPGGA,235947.318,,,,,0,0,,,M,,M,,*4C
$GPRMC,,,0.00,0.00,050180,,,N*47
$GPVTG,0.00,T,,M,0.00,N,0.00,K,N*32
$PMTK001,314,3*36
$PMTK001,220,3*30
$PMTK001,185,3*3C
$GPGGA,235946.318,,,,,0,0,,,M,,M,,*4D
$GPRMC,235946.318,V,,,,,0.00,0.00,050180,,,N*44
$GPGGA,235947.318,,,,,0,0,,,M,,M,,*4C
$GPRMC,,,0.00,0.00,050180,,,N*47
$GPVTG,0.00,T,,M,0.00,N,0.00,K,N*32
$PMTK001,314,3*36
$PMTK001,220,3*30
$PMTK001,185,3*3C
$GPGGA,235946.318,,,,,0,0,,,M,,M,,*4D
$GPRMC,235946.318,V,,,,,0.00,0.00,050180,,,N*44
$GPGGA,235947.318,,,,,0,0,,,M,,M,,*4C
$GPRMC,,,0.00,0.00,050180,,,N*47
$GPVTG,0.00,T,,M,0.00,N,0.00,K,N*32
$PMTK001,314,3*36
$PMTK001,220,3*30
$PMTK001,185,3*3C
$GPGGA,235946.318,,,,,0,0,,,M,,M,,*4D
$GPRMC,235946.318,V,,,,,0.00,0.00,050180,,,N*44
$GPGGA,235947.318,,,,,0,0,,,M,,M,,*4C
$GPRMC,,,0.00,0.00,050180,,,N*47
$GPVTG,0.00,T,,M,0.00,N,0.00,K,N*32
$PMTK001,314,3*36
$PMTK001,220,3*30
$PMTK001,185,3*3C
$GPGGA,235946.318,,,,,0,0,,,M,,M,,*4D
$GPRMC,235946.318,V,,,,,0.00,0.00,050180,,,N*44
$GPGGA,235947.318,,,,,0,0,,,M,,M,,*4C
$GPRMC,,,0.00,0.00,050180,,,N*47
$GPVTG,0.00,T,,M,0.00,N,0.00,K,N*32
$PMTK001,314,3*36
$PMTK001,220,3*30
$PMTK001,185,3*3C
$GPGGA,235946.318,,,,,0,0,,,M,,M,,*4D
$GPRMC,235946.318,V,,,,,0.00,0.00,050180,,,N*44
$GPGGA,235947.318,,,,,0,0,,,M,,M,,*4C
$GPRMC,,,0.00,0.00,050180,,,N*47
$GPVTG,0.00,T,,M,0.00,N,0.00,K,N*32
$PMTK001,314,3*36
$PMTK001,220,3*30
$PMTK001,185,3*3C
$GPGGA,235946.318,,,,,0,0,,,M,,M,,*4D
$GPRMC,235946.318,V,,,,,0.00,0.00,050180,,,N*44
$GPGGA,235947.318,,,,,0,0,,,M,,M,,*4C
$GPRMC,,,0.00,0.00,050180,,,N*47
$GPVTG,0.00,T,,M,0.00,N,0.00,K,N*32
$PMTK001,314,3*36
$PMTK001,220,3*30
$PMTK001,185,3*3C
$GPGGA,235946.318,,,,,0,0,,,M,,M,,*4D
$GPRMC,235946.318,V,,,,,0.00,0.00,050180,,,N*44
$GPGGA,235947.318,,,,,0,0,,,M,,M,,*4C
$GPRMC,,,0.00,0.00,050180,,,N*47
$GPVTG,0.00,T,,M,0.00,N,0.00,K,N*32
$PMTK001,314,3*36
$PMTK001,220,3*30
$PMTK001,185,3*3C
$GPGGA,235946.318,,,,,0,0,,,M,,M,,*4D
$GPRMC,235946.318,V,,,,,0.00,0.00,050180,,,N*44
$GPGGA,235947.318,,,,,0,0,,,M,,M,,*4C
$GPRMC,,,0.00,0.00,050180,,,N*47
$GPVTG,0.00,T,,M,0.00,N,0.00,K,N*32
$PMTK001,314,3*36
$PMTK001,220,3*30
$PMTK001,185,3*3C
$GPGGA,235946.318,,,,,0,0,,,M,,M,,*4D
$GPRMC,235946.318,V,,,,,0.00,0.00,050180,,,N*44
$GPGGA,235947.318,,,,,0,0,,,M,,M,,*4C
$GPRMC,,,0.00,0.00,050180,,,N*47
$GPVTG,0.00,T,,M,0.00,N,0.00,K,N*32
$PMTK001,314,3*36
$PMTK001,220,3*30
$PMTK001,185,3*3C
$GPGGA,235946.318,,,,,0,0,,,M,,M,,*4D
$GPRMC,235946.318,V,,,,,0.00,0.00,050180,,,N*44
$GPGGA,235947.318,,,,,0,0,,,M,,M,,*4C
$GPRMC,,,0.00,0.00,050180,,,N*47
$GPVTG,0.00,T,,M,0.00,N,0.00,K,N*32
$PMTK001,314,3*36
$PMTK001,220,3*30
$PMTK001,185,3*3C
$GPGGA,235946.318,,,,,0,0,,,M,,M,,*4D
$GPRMC,235946.318,V,,,,,0.00,0.00,050180,,,N*44
$GPGGA,235947.318,,,,,0,0,,,M,,M,,*4C
$GPRMC,,,0.00,0.00,050180,,,N*47
$GPVTG,0.00,T,,M,0.00,N,0.00,K,N*32
$PMTK001,314,3*36
$PMTK001,220,3*30
$PMTK001,185,3*3C
$GPGGA,235946.318,,,,,0,0,,,M,,M,,*4D
$GPRMC,235946.318,V,,,,,0.00,0.00,050180,,,N*44
$GPGGA,235947.318,,,,,0,0,,,M,,M,,*4C
$GPRMC,,,0.00,0.00,050180,,,N*47
$GPVTG,0.00,T,,M,0.00,N,0.00,K,N*32
$PMTK001,314,3*36
$PMTK001,220,3*30
$PMTK001,185,3*3C
$GPGGA,235946.318,,,,,0,0,,,M,,M,,*4D
$GPRMC,235946.318,V,,,,,0.00,0.00,050180,,,N*44
$GPGGA,235947.318,,,,,0,0,,,M,,M,,*4C
$GPRMC,,,0.00,0.00,050180,,,N*47
$GPVTG,0.00,T,,M,0.00,N,0.00,K,N*32
$PMTK001,314,3*36
$PMTK001,220,3*30
$PMTK001,185,3*3C
$GPGGA,235946.318,,,,,0,0,,,M,,M,,*4D
$GPRMC,235946.318,V,,,,,0.00,0.00,050180,,,N*44
$GPGGA,235947.318,,,,,0,0,,,M,,M,,*4C
$GPRMC,,,0.00,0.00,050180,,,N*47
$GPVTG,0.00,T,,M,0.00,N,0.00,K,N*32
$PMTK001,314,3*36
$PMTK001,220,3*30
$PMTK001,185,3*3C
$GPGGA,235946.318,,,,,0,0,,,M,,M,,*4D
$GPRMC,235946.318,V,,,,,0.00,0.00,050180,,,N*44
$GPGGA,235947.318,,,,,0,0,,,M,,M,,*4C
$GPRMC,,,0.00,0.00,050180,,,N*47
$GPVTG,0.00,T,,M,0.00,N,0.00,K,N*32
$PMTK001,314,3*36
$PMTK001,220,3*30
$PMTK001,185,3*3C
$GPGGA,235946.318,,,,,0,0,,,M,,M,,*4D
$GPRMC,235946.318,V,,,,,0.00,0.00,050180,,,N*44
$GPGGA,235947.318,,,,,0,0,,,M,,M,,*4C
$GPRMC,,,0.00,0.00,050180,,,N*47
$GPVTG,0.00,T,,M,0.00,N,0.00,K,N*32
$PMTK001,314,3*36
$PMTK001,220,3*30
$PMTK001,185,3*3C
$GPGGA,235946.318,,,,,0,0,,,M,,M,,*4D
$GPRMC,235946.318,V,,,,,0.00,0.00,050180,,,N*44
$GPGGA,235947.318,,,,,0,0,,,M,,M,,*4C
$GPRMC,,,0.00,0.00,050180,,,N*47
$GPVTG,0.00,T,,M,0.00,N,0.00,K,N*32
$PMTK001,314,3*36
$PMTK001,220,3*30
$PMTK001,185,3*3C
$GPGGA,235946.318,,,,,0,0,,,M,,M,,*4D
$GPRMC,235946.318,V,,,,,0.00,0.00,050180,,,N*44
$GPGGA,235947.318,,,,,0,0,,,M,,M,,*4C
$GPRMC,,,0.00,0.00,050180,,,N*47
$GPVTG,0.00,T,,M,0.00,N,0.00,K,N*32
$PMTK001,314,3*36
$PMTK001,220,3*30
$PMTK001,185,3*3C
$GPGGA,235946.318,,,,,0,0,,,M,,M,,*4D
$GPRMC,235946.318,V,,,,,0.00,0.00,050180,,,N*44
$GPGGA,235947.318,,,,,0,0,,,M,,M,,*4C
$GPRMC,,,0.00,0.00,050180,,,N*47
$GPVTG,0.00,T,,M,0.00,N,0.00,K,N*32
$PMTK001,314,3*36
$PMTK001,220,3*30
$PMTK001,185,3*3C
$GPGGA,235946.318,,,,,0,0,,,M,,M,,*4D
$GPRMC,235946.318,V,,,,,0.00,0.00,050180,,,N*44
$GPGGA,235947.318,,,,,0,0,,,M,,M,,*4C
$GPRMC,,,0.00,0.00,050180,,,N*47
$GPVTG,0.00,T,,M,0.00,N,0.00,K,N*32
$PMTK001,314,3*36
$PMTK001,220,3*30
$PMTK001,185,3*3C
$GPGGA,235946.318,,,,,0,0,,,M,,M,,*4D
$GPRMC,235946.318,V,,,,,0.00,0.00,050180,,,N*44
$GPGGA,235947.318,,,,,0,0,,,M,,M,,*4C
$GPRMC,,,0.00,0.00,050180,,,N*47
$GPVTG,0.00,T,,M,0.00,N,0.00,K,N*32
$PMTK001,314,3*36
$PMTK001,220,3*30
$PMTK001,185,3*3C
$GPGGA,235946.318,,,,,0,0,,,M,,M,,*4D
$GPRMC,235946.318,V,,,,,0.00,0.00,050180,,,N*44
$GPGGA,235947.318,,,,,0,0,,,M,,M,,*4C
$GPRMC,,,0.00,0.00,050180,,,N*47
$GPVTG,0.00,T,,M,0.00,N,0.00,K,N*32
$PMTK001,314,3*36
$PMTK001,220,3*30
$PMTK001,185,3*3C
$GPGGA,235946.318,,,,,0,0,,,M,,M,,*4D
$GPRMC,235946.318,V,,,,,0.00,0.00,050180,,,N*44
$GPGGA,235947.318,,,,,0,0,,,M,,M,,*4C
$GPRMC,,,0.00,0.00,050180,,,N*47
$GPVTG,0.00,T,,M,0.00,N,0.00,K,N*32
$PMTK001,314,3*36
$PMTK001,220,3*30
$PMTK001,185,3*3C
$GPGGA,235946.318,,,,,0,0,,,M,,M,,*4D
$GPRMC,235946.318,V,,,,,0.00,0.00,050180,,,N*44
$GPGGA,235947.318,,,,,0,0,,,M,,M,,*4C
$GPRMC,,,0.00,0.00,050180,,,N*47
$GPVTG,0.00,T,,M,0.00,N,0.00,K,N*32
$PMTK001,314,3*36
$PMTK001,220,3*30
$PMTK001,185,3*3C
$GPGGA,235946.318,,,,,0,0,,,M,,M,,*4D
$GPRMC,235946.318,V,,,,,0.00,0.00,050180,,,N*44
$GPGGA,235947.318,,,,,0,0,,,M,,M,,*4C
$GPRMC,,,0.00,0.00,050180,,,N*47
$GPVTG,0.00,T,,M,0.00,N,0.00,K,N*32
$PMTK001,314,3*36
$PMTK001,220,3*30
$PMTK001,185,3*3C
$GPGGA,235946.318,,,,,0,0,,,M,,M,,*4D
$GPRMC,235946.318,V,,,,,0.00,0.00,050180,,,N*44
$GPGGA,235947.318,,,,,0,0,,,M,,M,,*4C
$GPRMC,,,0.00,0.00,050180,,,N*47
$GPVTG,0.00,T,,M,0.00,N,0.00,K,N*32
$PMTK001,314,3*36
$PMTK001,220,3*30
$PMTK001,185,3*3C
$GPGGA,235946.318,,,,,0,0,,,M,,M,,*4D
$GPRMC,235946.318,V,,,,,0.00,0.00,050180,,,N*44
$GPGGA,235947.318,,,,,0,0,,,M,,M,,*4C
$GPRMC,,,0.00,0.00,050180,,,N*47
$GPVTG,0.00,T,,M,0.00,N,0.00,K,N*32
$PMTK001,314,3*36
$PMTK001,220,3*30
$PMTK001,185,3*3C
$GPGGA,235946.318,,,,,0,0,,,M,,M,,*4D
$GPRMC,235946.318,V,,,,,0.00,0.00,050180,,,N*44
$GPGGA,235947.318,,,,,0,0,,,M,,M,,*4C
$GPRMC,,,0.00,0.00,050180,,,N*47
$GPVTG,0.00,T,,M,0.00,N,0.00,K,N*32
$PMTK001,314,3*36
$PMTK001,220,3*30
$PMTK001,185,3*3C
$GPGGA,235946.318,,,,,0,0,,,M,,M,,*4D
$GPRMC,235946.318,V,,,,,0.00,0.00,050180,,,N*44
$GPGGA,235947.318,,,,,0,0,,,M,,M,,*4C
$GPRMC,,,0.00,0.00,050180,,,N*47
$GPVTG,0.00,T,,M,0.00,N,0.00,K,N*32
$PMTK001,314,3*36
$PMTK001,220,3*30
$PMTK001,185,3*3C
$GPGGA,235946.318,,,,,0,0,,,M,,M,,*4D
$GPRMC,235946.318,V,,,,,0.00,0.00,050180,,,N*44
$GPGGA,235947.318,,,,,0,0,,,M,,M,,*4C
$GPRMC,,,0.00,0.00,050180,,,N*47
$GPVTG,0.00,T,,M,0.00,N,0.00,K,N*32
$PMTK001,314,3*36
$PMTK001,220,3*30
$PMTK001,185,3*3C
$GPGGA,235946.318,,,,,0,0,,,M,,M,,*4D
$GPRMC,235946.318,V,,,,,0.00,0.00,050180,,,N*44
$GPGGA,235947.318,,,,,0,0,,,M,,M,,*4C
$GPRMC,,,0.00,0.00,050180,,,N*47
$GPVTG,0.00,T,,M,0.00,N,0.00,K,N*32
$PMTK001,314,3*36
$PMTK001,220,3*30
$PMTK001,185,3*3C
$GPGGA,235946.318,,,,,0,0,,,M,,M,,*4D
$GPRMC,235946.318,V,,,,,0.00,0.00,050180,,,N*44
$GPGGA,235947.318,,,,,0,0,,,M,,M,,*4C
$GPRMC,,,0.00,0.00,050180,,,N*47
$GPVTG,0.00,T,,M,0.00,N,0.00,K,N*32
$PMTK001,314,3*36
$PMTK001,220,3*30
$PMTK001,185,3*3C
$GPGGA,235946.318,,,,,0,0,,,M,,M,,*4D
$GPRMC,235946.318,V,,,,,0.00,0.00,050180,,,N*44
$GPGGA,235947.318,,,,,0,0,,,M,,M,,*4C
$GPRMC,,,0.00,0.00,050180,,,N*47
$GPVTG,0.00,T,,M,0.00,N,0.00,K,N*32
$PMTK001,314,3*36
$PMTK001,220,3*30
$PMTK001,185,3*3C
$GPGGA,235946.318,,,,,0,0,,,M,,M,,*4D
$GPRMC,235946.318,V,,,,,0.00,0.00,050180,,,N*44
$GPGGA,235947.318,,,,,0,0,,,M,,M,,*4C
$GPRMC,,,0.00,0.00,050180,,,N*47
$GPVTG,0.00,T,,M,0.00,N,0.00,K,N*32
$PMTK001,314,3*36
$PMTK001,220,3*30
$PMTK001,185,3*3C
$GPGGA,235946.318,,,,,0,0,,,M,,M,,*4D
$GPRMC,235946.318,V,,,,,0.00,0.00,050180,,,N*44
$GPGGA,235947.318,,,,,0,0,,,M,,M,,*4C
$GPRMC,,,0.00,0.00,050180,,,N*47
$GPVTG,0.00,T,,M,0.00,N,0.00,K,N*32
$PMTK001,314,3*36
$PMTK001,220,3*30
$PMTK001,185,3*3C
$GPGGA,235946.318,,,,,0,0,,,M,,M,,*4D
$GPRMC,235946.318,V,,,,,0.00,0.00,050180,,,N*44
$GPGGA,235947.318,,,,,0,0,,,M,,M,,*4C
$GPRMC,,,0.00,0.00,050180,,,N*47
$GPVTG,0.00,T,,M,0.00,N,0.00,K,N*32
$PMTK001,314,3*36
$PMTK001,220,3*30
$PMTK001,185,3*3C
$GPGGA,235946.318,,,,,0,0,,,M,,M,,*4D
$GPRMC,235946.318,V,,,,,0.00,0.00,050180,,,N*44
$GPGGA,235947.318,,,,,0,0,,,M,,M,,*4C
$GPRMC,,,0.00,0.00,050180,,,N*47
$GPVTG,0.00,T,,M,0.00,N,0.00,K,N*32
$PMTK001,314,3*36
$PMTK001,220,3*30
$PMTK001,185,3*3C
$GPGGA,235946.318,,,,,0,0,,,M,,M,,*4D
$GPRMC,235946.318,V,,,,,0.00,0.00,050180,,,N*44
$GPGGA,235947.318,,,,,0,0,,,M,,M,,*4C
$GPRMC,,,0.00,0.00,050180,,,N*47
$GPVTG,0.00,T,,M,0.00,N,0.00,K,N*32
$PMTK001,314,3*36
$PMTK001,220,3*30
$PMTK001,185,3*3C
$GPGGA,235946.318,,,,,0,0,,,M,,M,,*4D
$GPRMC,235946.318,V,,,,,0.00,0.00,050180,,,N*44
$GPGGA,235947.318,,,,,0,0,,,M,,M,,*4C
$GPRMC,,,0.00,0.00,050180,,,N*47
$GPVTG,0.00,T,,M,0.00,N,0.00,K,N*32
$PMTK001,314,3*36
$PMTK001,220,3*30
$PMTK001,185,3*3C
$GPGGA,235946.318,,,,,0,0,,,M,,M,,*4D
$GPRMC,235946.318,V,,,,,0.00,0.00,050180,,,N*44
$GPGGA,235947.318,,,,,0,0,,,M,,M,,*4C
$GPRMC,,,0.00,0.00,050180,,,N*47
$GPVTG,0.00,T,,M,0.00,N,0.00,K,N*32
$PMTK001,314,3*36
$PMTK001,220,3*30
$PMTK001,185,3*3C
$GPGGA,235946.318,,,,,0,0,,,M,,M,,*4D
$GPRMC,235946.318,V,,,,,0.00,0.00,050180,,,N*44
$GPGGA,235947.318,,,,,0,0,,,M,,M,,*4C
$GPRMC,,,0.00,0.00,050180,,,N*47
$GPVTG,0.00,T,,M,0.00,N,0.00,K,N*32
$PMTK001,314,3*36
$PMTK001,220,3*30
$PMTK001,185,3*3C
$GPGGA,235946.318,,,,,0,0,,,M,,M,,*4D
$GPRMC,235946.318,V,,,,,0.00,0.00,050180,,,N*44
$GPGGA,235947.318,,,,,0,0,,,M,,M,,*4C
$GPRMC,,,0.00,0.00,050180,,,N*47
$GPVTG,0.00,T,,M,0.00,N,0.00,K,N*32
$PMTK001,314,3*36
$PMTK001,220,3*30
$PMTK001,185,3*3C
$GPGGA,235946.318,,,,,0,0,,,M,,M,,*4D
$GPRMC,235946.318,V,,,,,0.00,0.00,050180,,,N*44
$GPGGA,235947.318,,,,,0,0,,,M,,M,,*4C
$GPRMC,,,0.00,0.00,050180,,,N*47
$GPVTG,0.00,T,,M,0.00,N,0.00,K,N*32
$PMTK001,314,3*36
$PMTK001,220,3*30
$PMTK001,185,3*3C
$GPGGA,235946.318,,,,,0,0,,,M,,M,,*4D
$GPRMC,235946.318,V,,,,,0.00,0.00,050180,,,N*44
$GPGGA,235947.318,,,,,0,0,,,M,,M,,*4C
$GPRMC,$PMTK001,314,3*36
$PMTK001,220,3*30
$GPGGA,155108.000,4026.7499,N,07520.5885,W,1,9,0.86,161.2,M,-33.9,M,,*62
$GPRMC,155108.000,A,4026.7499,N,07520.5885,W,0.12,186.91,100612,,,A*77
$PMTK001,185,3*3C
$GPGGA,155109.000,4026.7499,N,07520.5885,W,1,9,0.86,$PMTK001,314,3*36
$PMTK001,220,3*30
$GPGGA,155108.000,4026.7499,N,07520.5885,W,1,9,0.86,161.2,M,-33.9,M,,*62
$GPRMC,155108.000,A,4026.7499,N,07520.5885,W,0.12,186.91,100612,,,A*77
$PMTK001,185,3*3C
$GPGGA,155109.000,4026.7499,N,07520.5885,W,1,9,0.86,$PMTK001,314,3*36
$PMTK001,220,3*30
$GPGGA,155108.000,4026.7499,N,07520.5885,W,1,9,0.86,161.2,M,-33.9,M,,*62
$GPRMC,155108.000,A,4026.7499,N,07520.5885,W,0.12,186.91,100612,,,A*77
$PMTK001,185,3*3C
$GPGGA,155109.000,4026.7499,N,07520.5885,W,1,9,0.86,$PMTK001,314,3*36
$PMTK001,220,3*30
$GPGGA,155108.000,4026.7499,N,07520.5885,W,1,9,0.86,161.2,M,-33.9,M,,*62
$GPRMC,155108.000,A,4026.7499,N,07520.5885,W,0.12,186.91,100612,,,A*77
$PMTK001,185,3*3C
$GPGGA,155109.000,4026.7499,N,07520.5885,W,1,9,0.86,$PMTK001,314,3*36
$PMTK001,220,3*30
$GPGGA,155108.000,4026.7499,N,07520.5885,W,1,9,0.86,161.2,M,-33.9,M,,*62
$GPRMC,155108.000,A,4026.7499,N,07520.5885,W,0.12,186.91,100612,,,A*77
$PMTK001,185,3*3C
$GPGGA,155109.000,4026.7499,N,07520.5885,W,1,9,0.86,$PMTK001,314,3*36
$PMTK001,220,3*30
$GPGGA,155108.000,4026.7499,N,07520.5885,W,1,9,0.86,161.2,M,-33.9,M,,*62
$GPRMC,155108.000,A,4026.7499,N,07520.5885,W,0.12,186.91,100612,,,A*77
$PMTK001,185,3*3C
$GPGGA,155109.000,4026.7499,N,07520.5885,W,1,9,0.86,$PMTK001,314,3*36
$PMTK001,220,3*30
$PMTK001,185,3*3C
$GPGGA,155129.000,4026.7472,N,07520.5868,W,1,9,0.86,157.8,M,-33.9,M,,*68
$GPRMC,155129.000,A,4026.7472,N,07520.5868,W,0.32,353.11,100612,,,A*72
$GPGGA,155130.000,4026.7471,N,07520.5872,W,1,8,0.90,$PMTK001,314,3*36
$PMTK001,220,3*30
$PMTK001,185,3*3C
$GPGGA,155129.000,4026.7472,N,07520.5868,W,1,9,0.86,157.8,M,-33.9,M,,*68
$GPRMC,155129.000,A,4026.7472,N,07520.5868,W,0.32,353.11,100612,,,A*72
$GPGGA,155130.000,4026.7471,N,07520.5872,W,1,8,0.90,$PMTK001,314,3*36
$PMTK001,220,3*30
$PMTK001,185,3*3C
$GPGGA,155341.000,4026.7497,N,07520.5884,W,1,9,0.90,160.6,M,-33.9,M,,*60
$GPRMC,155341.000,A,4026.7497,N,07520.5884,W,0.13,353.11,100612,,,A*74
$GPGGA,155342.000,4026.7497,N,07520.5884,W,1,9,0.86,$PMTK001,314,3*36
$PMTK001,220,3*30
$PMTK001,185,3*3C
$GPGGA,155341.000,4026.7497,N,07520.5884,W,1,9,0.90,160.6,M,-33.9,M,,*60
$GPRMC,155341.000,A,4026.7497,N,07520.5884,W,0.13,353.11,100612,,,A*74
$GPGGA,155342.000,4026.7497,N,07520.5884,W,1,9,0.86,$GPGGA,155418.000,4026.7474,N,07520.5885,W,1,8,0.94,161.8,M,-33.9,M,,*6D
$GPRMC,155418.000,A,4026.7474,N,07520.5885,W,0.66,234.10,100612,,,A*70
$PMTK001,314,3*36
$PMTK001,220,3*30
$PMTK001,185,3*3C
$GPGGA,155419.000,4026.7467,N,07520.5882,W,1,9,0.86,$GPGGA,155418.000,4026.7474,N,07520.5885,W,1,8,0.94,161.8,M,-33.9,M,,*6D
$GPRMC,155418.000,A,4026.7474,N,07520.5885,W,0.66,234.10,100612,,,A*70
$PMTK001,314,3*36
$PMTK001,220,3*30
$PMTK001,185,3*3C
$GPGGA,155419.000,4026.7467,N,07520.5882,W,1,9,0.86,$GPGGA,155418.000,4026.7474,N,07520.5885,W,1,8,0.94,161.8,M,-33.9,M,,*6D
$GPRMC,155418.000,A,4026.7474,N,07520.5885,W,0.66,234.10,100612,,,A*70
$PMTK001,314,3*36
$PMTK001,220,3*30
$PMTK001,185,3*3C
$GPGGA,155419.000,4026.7467,N,07520.5882,W,1,9,0.86,$GPGGA,155418.000,4026.7474,N,07520.5885,W,1,8,0.94,161.8,M,-33.9,M,,*6D
$GPRMC,155418.000,A,4026.7474,N,07520.5885,W,0.66,234.10,100612,,,A*70
$PMTK001,314,3*36
$PMTK001,220,3*30
$PMTK001,185,3*3C
$GPGGA,155419.000,4026.7467,N,07520.5882,W,1,9,0.86,$GPGGA,155418.000,4026.7474,N,07520.5885,W,1,8,0.94,161.8,M,-33.9,M,,*6D
$GPRMC,155418.000,A,4026.7474,N,07520.5885,W,0.66,234.10,100612,,,A*70
$PMTK001,314,3*36
$PMTK001,220,3*30
$PMTK001,185,3*3C
$GPGGA,155419.000,4026.7467,N,07520.5882,W,1,9,0.86,$GPGGA,155418.000,4026.7474,N,07520.5885,W,1,8,0.94,161.8,M,-33.9,M,,*6D
$GPRMC,155418.000,A,4026.7474,N,07520.5885,W,0.66,234.10,100612,,,A*70
$PMTK001,314,3*36
$PMTK001,220,3*30
$PMTK001,185,3*3C
$GPGGA,155419.000,4026.7467,N,07520.5882,W,1,9,0.86,$GPGGA,155418.000,4026.7474,N,07520.5885,W,1,8,0.94,161.8,M,-33.9,M,,*6D
$GPRMC,155418.000,A,4026.7474,N,07520.5885,W,0.66,234.10,100612,,,A*70
$PMTK001,314,3*36
$PMTK001,220,3*30
$PMTK001,185,3*3C
$GPGGA,155419.000,4026.7467,N,07520.5882,W,1,9,0.86,$GPGGA,155418.000,4026.7474,N,07520.5885,W,1,8,0.94,161.8,M,-33.9,M,,*6D
$GPRMC,155418.000,A,4026.7474,N,07520.5885,W,0.66,234.10,100612,,,A*70
$PMTK001,314,3*36
$PMTK001,220,3*30
$PMTK001,185,3*3C
$GPGGA,155419.000,4026.7467,N,07520.5882,W,1,9,0.86,$GPGGA,155418.000,4026.7474,N,07520.5885,W,1,8,0.94,161.8,M,-33.9,M,,*6D
$GPRMC,155418.000,A,4026.7474,N,07520.5885,W,0.66,234.10,100612,,,A*70
$PMTK001,314,3*36
$PMTK001,220,3*30
$PMTK001,185,3*3C
$GPGGA,155419.000,4026.7467,N,07520.5882,W,1,9,0.86,$GPGGA,155418.000,4026.7474,N,07520.5885,W,1,8,0.94,161.8,M,-33.9,M,,*6D
$GPRMC,155418.000,A,4026.7474,N,07520.5885,W,0.66,234.10,100612,,,A*70
$PMTK001,314,3*36
$PMTK001,220,3*30
$PMTK001,185,3*3C
$GPGGA,155419.000,4026.7467,N,07520.5882,W,1,9,0.86,$PMTK001,314,3*36
$PMTK001,220,3*30
$PMTK001,185,3*3C
$GPGGA,160143.221,,,,,0,0,,,M,,M,,*48
$GPRMC,160143.221,V,,,,,0.00,0.00,100612,,,N*49
$GPGGA,160144.221,,,,,0,2,,,M,,M,,*4D
$GPRMC,160144.221,V,,,,,0.24,0.00,100612,,,N*48
$GPGGA,160145.208,,,,,$PMTK001,314,3*36
$PMTK001,220,3*30
$PMTK001,185,3*3C
$GPGGA,160143.221,,,,,0,0,,,M,,M,,*48
$GPRMC,160143.221,V,,,,,0.00,0.00,100612,,,N*49
$GPGGA,160144.221,,,,,0,2,,,M,,M,,*4D
$GPRMC,160144.221,V,,,,,0.24,0.00,100612,,,N*48
$GPGGA,160145.208,,,,,$PMTK001,314,3*36
$PMTK001,220,3*30
$PMTK001,185,3*3C
$GPGGA,160143.221,,,,,0,0,,,M,,M,,*48
$GPRMC,160143.221,V,,,,,0.00,0.00,100612,,,N*49
$GPGGA,160144.221,,,,,0,2,,,M,,M,,*4D
$GPRMC,160144.221,V,,,,,0.24,0.00,100612,,,N*48
$GPGGA,160145.208,,,,,$PMTK001,314,3*36
$PMTK001,220,3*30
$PMTK001,185,3*3C
$GPGGA,160143.221,,,,,0,0,,,M,,M,,*48
$GPRMC,160143.221,V,,,,,0.00,0.00,100612,,,N*49
$GPGGA,160144.221,,,,,0,2,,,M,,M,,*4D
$GPRMC,160144.221,V,,,,,0.24,0.00,100612,,,N*48
$GPGGA,160145.208,,,,,$GPGGA,160155.000,4026.7517,N,07520.5901,W,1,9,0.87,151.4,M,-33.9,M,,*62
$GPRMC,160155.000,A,4026.7517,N,07520.5901,W,0.11,96.86,100612,,,A*46
$PMTK001,314,3*36
$PMTK001,220,3*30
$PMTK001,185,3*3C
$GPGGA,160156.000,4026.7521,N,07520.5902,W,1,9,0.87,1$GPGGA,160155.000,4026.7517,N,07520.5901,W,1,9,0.87,151.4,M,-33.9,M,,*62
$GPRMC,160155.000,A,4026.7517,N,07520.5901,W,0.11,96.86,100612,,,A*46
$PMTK001,314,3*36
$PMTK001,220,3*30
$PMTK001,185,3*3C
$GPGGA,160156.000,4026.7521,N,07520.5902,W,1,9,0.87,1$GPGGA,160155.000,4026.7517,N,07520.5901,W,1,9,0.87,151.4,M,-33.9,M,,*62
$GPRMC,160155.000,A,4026.7517,N,07520.5901,W,0.11,96.86,100612,,,A*46
$PMTK001,314,3*36
$PMTK001,220,3*30
$PMTK001,185,3*3C
$GPGGA,160156.000,4026.7521,N,07520.5902,W,1,9,0.87,1$GPGGA,160155.000,4026.7517,N,07520.5901,W,1,9,0.87,151.4,M,-33.9,M,,*62
$GPRMC,160155.000,A,4026.7517,N,07520.5901,W,0.11,96.86,100612,,,A*46
$PMTK001,314,3*36
$PMTK001,220,3*30
$PMTK001,185,3*3C
$GPGGA,160156.000,4026.7521,N,07520.5902,W,1,9,0.87,1$GPGGA,160155.000,4026.7517,N,07520.5901,W,1,9,0.87,151.4,M,-33.9,M,,*62
$GPRMC,160155.000,A,4026.7517,N,07520.5901,W,0.11,96.86,100612,,,A*46
$PMTK001,314,3*36
$PMTK001,220,3*30
$PMTK001,185,3*3C
$GPGGA,160156.000,4026.7521,N,07520.5902,W,1,9,0.87,1$GPGGA,160155.000,4026.7517,N,07520.5901,W,1,9,0.87,151.4,M,-33.9,M,,*62
$GPRMC,160155.000,A,4026.7517,N,07520.5901,W,0.11,96.86,100612,,,A*46
$PMTK001,314,3*36
$PMTK001,220,3*30
$PMTK001,185,3*3C
$GPGGA,160156.000,4026.7521,N,07520.5902,W,1,9,0.87,1$GPGGA,160155.000,4026.7517,N,07520.5901,W,1,9,0.87,151.4,M,-33.9,M,,*62
$GPRMC,160155.000,A,4026.7517,N,07520.5901,W,0.11,96.86,100612,,,A*46
$PMTK001,314,3*36
$PMTK001,220,3*30
$PMTK001,185,3*3C
$GPGGA,160156.000,4026.7521,N,07520.5902,W,1,9,0.87,1$GPGGA,160155.000,4026.7517,N,07520.5901,W,1,9,0.87,151.4,M,-33.9,M,,*62
$GPRMC,160155.000,A,4026.7517,N,07520.5901,W,0.11,96.86,100612,,,A*46
$PMTK001,314,3*36
$PMTK001,220,3*30
$PMTK001,185,3*3C
$GPGGA,160156.000,4026.7521,N,07520.5902,W,1,9,0.87,1$GPGGA,160155.000,4026.7517,N,07520.5901,W,1,9,0.87,151.4,M,-33.9,M,,*62
$GPRMC,160155.000,A,4026.7517,N,07520.5901,W,0.11,96.86,100612,,,A*46
$PMTK001,314,3*36
$PMTK001,220,3*30
$PMTK001,185,3*3C
$GPGGA,160156.000,4026.7521,N,07520.5902,W,1,9,0.87,1$GPGGA,160155.000,4026.7517,N,07520.5901,W,1,9,0.87,151.4,M,-33.9,M,,*62
$GPRMC,160155.000,A,4026.7517,N,07520.5901,W,0.11,96.86,100612,,,A*46
$PMTK001,314,3*36
$PMTK001,220,3*30
$PMTK001,185,3*3C
$GPGGA,160156.000,4026.7521,N,07520.5902,W,1,9,0.87,1$GPGGA,160155.000,4026.7517,N,07520.5901,W,1,9,0.87,151.4,M,-33.9,M,,*62
$GPRMC,160155.000,A,4026.7517,N,07520.5901,W,0.11,96.86,100612,,,A*46
$PMTK001,314,3*36
$PMTK001,220,3*30
$PMTK001,185,3*3C
$GPGGA,160156.000,4026.7521,N,07520.5902,W,1,9,0.87,1$GPGGA,160155.000,4026.7517,N,07520.5901,W,1,9,0.87,151.4,M,-33.9,M,,*62
$GPRMC,160155.000,A,4026.7517,N,07520.5901,W,0.11,96.86,100612,,,A*46
$PMTK001,314,3*36
$PMTK001,220,3*30
$PMTK001,185,3*3C
$GPGGA,160156.000,4026.7521,N,07520.5902,W,1,9,0.87,1$GPGGA,160155.000,4026.7517,N,07520.5901,W,1,9,0.87,151.4,M,-33.9,M,,*62
$GPRMC,160155.000,A,4026.7517,N,07520.5901,W,0.11,96.86,100612,,,A*46
$PMTK001,314,3*36
$PMTK001,220,3*30
$PMTK001,185,3*3C
$GPGGA,160156.000,4026.7521,N,07520.5902,W,1,9,0.87,1$GPGGA,160155.000,4026.7517,N,07520.5901,W,1,9,0.87,151.4,M,-33.9,M,,*62
$GPRMC,160155.000,A,4026.7517,N,07520.5901,W,0.11,96.86,100612,,,A*46
$PMTK001,314,3*36
$PMTK001,220,3*30
$PMTK001,185,3*3C
$GPGGA,160156.000,4026.7521,N,07520.5902,W,1,9,0.87,1$GPGGA,160155.000,4026.7517,N,07520.5901,W,1,9,0.87,151.4,M,-33.9,M,,*62
$GPRMC,160155.000,A,4026.7517,N,07520.5901,W,0.11,96.86,100612,,,A*46
$PMTK001,314,3*36
$PMTK001,220,3*30
$PMTK001,185,3*3C
$GPGGA,160156.000,4026.7521,N,07520.5902,W,1,9,0.87,1$GPGGA,160155.000,4026.7517,N,07520.5901,W,1,9,0.87,151.4,M,-33.9,M,,*62
$GPRMC,160155.000,A,4026.7517,N,07520.5901,W,0.11,96.86,100612,,,A*46
$PMTK001,314,3*36
$PMTK001,220,3*30
$PMTK001,185,3*3C
$GPGGA,160156.000,4026.7521,N,07520.5902,W,1,9,0.87,1$GPGGA,160155.000,4026.7517,N,07520.5901,W,1,9,0.87,151.4,M,-33.9,M,,*62
$GPRMC,160155.000,A,4026.7517,N,07520.5901,W,0.11,96.86,100612,,,A*46
$PMTK001,314,3*36
$PMTK001,220,3*30
$PMTK001,185,3*3C
$GPGGA,160156.000,4026.7521,N,07520.5902,W,1,9,0.87,1$GPGGA,160155.000,4026.7517,N,07520.5901,W,1,9,0.87,151.4,M,-33.9,M,,*62
$GPRMC,160155.000,A,4026.7517,N,07520.5901,W,0.11,96.86,100612,,,A*46
$PMTK001,314,3*36
$PMTK001,220,3*30
$PMTK001,185,3*3C
$GPGGA,160156.000,4026.7521,N,07520.5902,W,1,9,0.87,1$GPGGA,160155.000,4026.7517,N,07520.5901,W,1,9,0.87,151.4,M,-33.9,M,,*62
$GPRMC,160155.000,A,4026.7517,N,07520.5901,W,0.11,96.86,100612,,,A*46
$PMTK001,314,3*36
$PMTK001,220,3*30
$PMTK001,185,3*3C
$GPGGA,160156.000,4026.7521,N,07520.5902,W,1,9,0.87,1$PMTK001,314,3*36
$PMTK001,220,3*30
$PMTK001,185,3*3C
$GPGGA,160237.000,4026.7502,N,07520.5886,W,1,9,0.91,153.5,M,-33.9,M,,*6B
$GPRMC,160237.000,A,4026.7502,N,07520.5886,W,0.01,96.86,100612,,,A*4A
$GPGGA,160238.000,4026.7502,N,07520.5886,W,1,9,0.91,1$PMTK001,314,3*36
$PMTK001,220,3*30
$PMTK001,185,3*3C
$GPGGA,160237.000,4026.7502,N,07520.5886,W,1,9,0.91,153.5,M,-33.9,M,,*6B
$GPRMC,160237.000,A,4026.7502,N,07520.5886,W,0.01,96.86,100612,,,A*4A
$GPGGA,160238.000,4026.7502,N,07520.5886,W,1,9,0.91,1$PMTK001,314,3*36
$PMTK001,220,3*30
$PMTK001,185,3*3C
$GPGGA,160237.000,4026.7502,N,07520.5886,W,1,9,0.91,153.5,M,-33.9,M,,*6B
$GPRMC,160237.000,A,4026.7502,N,07520.5886,W,0.01,96.86,100612,,,A*4A
$GPGGA,160238.000,4026.7502,N,07520.5886,W,1,9,0.91,1$PMTK001,314,3*36
$PMTK001,220,3*30
$PMTK001,185,3*3C
$GPGGA,160237.000,4026.7502,N,07520.5886,W,1,9,0.91,153.5,M,-33.9,M,,*6B
$GPRMC,160237.000,A,4026.7502,N,07520.5886,W,0.01,96.86,100612,,,A*4A
$GPGGA,160238.000,4026.7502,N,07520.5886,W,1,9,0.91,1$PMTK001,314,3*36
$PMTK001,220,3*30
$PMTK001,185,3*3C
$GPGGA,160237.000,4026.7502,N,07520.5886,W,1,9,0.91,153.5,M,-33.9,M,,*6B
$GPRMC,160237.000,A,4026.7502,N,07520.5886,W,0.01,96.86,100612,,,A*4A
$GPGGA,160238.000,4026.7502,N,07520.5886,W,1,9,0.91,1$PMTK001,314,3*36
$PMTK001,220,3*30
$PMTK001,185,3*3C
$GPGGA,160237.000,4026.7502,N,07520.5886,W,1,9,0.91,153.5,M,-33.9,M,,*6B
$GPRMC,160237.000,A,4026.7502,N,07520.5886,W,0.01,96.86,100612,,,A*4A
$GPGGA,160238.000,4026.7502,N,07520.5886,W,1,9,0.91,1$PMTK001,314,3*36
$PMTK001,220,3*30
$PMTK001,185,3*3C
$GPGGA,160237.000,4026.7502,N,07520.5886,W,1,9,0.91,153.5,M,-33.9,M,,*6B
$GPRMC,160237.000,A,4026.7502,N,07520.5886,W,0.01,96.86,100612,,,A*4A
$GPGGA,160238.000,4026.7502,N,07520.5886,W,1,9,0.91,1$PMTK001,314,3*36
$PMTK001,220,3*30
$PMTK001,185,3*3C
$GPGGA,160237.000,4026.7502,N,07520.5886,W,1,9,0.91,153.5,M,-33.9,M,,*6B
$GPRMC,160237.000,A,4026.7502,N,07520.5886,W,0.01,96.86,100612,,,A*4A
$GPGGA,160238.000,4026.7502,N,07520.5886,W,1,9,0.91,1$PMTK001,314,3*36
$PMTK001,220,3*30
$PMTK001,185,3*3C
$GPGGA,160237.000,4026.7502,N,07520.5886,W,1,9,0.91,153.5,M,-33.9,M,,*6B
$GPRMC,160237.000,A,4026.7502,N,07520.5886,W,0.01,96.86,100612,,,A*4A
$GPGGA,160238.000,4026.7502,N,07520.5886,W,1,9,0.91,1$PMTK001,314,3*36
$PMTK001,220,3*30
$PMTK001,185,3*3C
$GPGGA,160237.000,4026.7502,N,07520.5886,W,1,9,0.91,153.5,M,-33.9,M,,*6B
$GPRMC,160237.000,A,4026.7502,N,07520.5886,W,0.01,96.86,100612,,,A*4A
$GPGGA,160238.000,4026.7502,N,07520.5886,W,1,9,0.91,1$PMTK001,314,3*36
$PMTK001,220,3*30
$PMTK001,185,3*3C
$GPGGA,160237.000,4026.7502,N,07520.5886,W,1,9,0.91,153.5,M,-33.9,M,,*6B
$GPRMC,160237.000,A,4026.7502,N,07520.5886,W,0.01,96.86,100612,,,A*4A
$GPGGA,160238.000,4026.7502,N,07520.5886,W,1,9,0.91,1$PMTK001,314,3*36
$PMTK001,220,3*30
$PMTK001,185,3*3C
$GPGGA,160237.000,4026.7502,N,07520.5886,W,1,9,0.91,153.5,M,-33.9,M,,*6B
$GPRMC,160237.000,A,4026.7502,N,07520.5886,W,0.01,96.86,100612,,,A*4A
$GPGGA,160238.000,4026.7502,N,07520.5886,W,1,9,0.91,1$PMTK001,314,3*36
$PMTK001,220,3*30
$PMTK001,185,3*3C
$GPGGA,160237.000,4026.7502,N,07520.5886,W,1,9,0.91,153.5,M,-33.9,M,,*6B
$GPRMC,160237.000,A,4026.7502,N,07520.5886,W,0.01,96.86,100612,,,A*4A
$GPGGA,160238.000,4026.7502,N,07520.5886,W,1,9,0.91,1$PMTK001,314,3*36
$PMTK001,220,3*30
$PMTK001,185,3*3C
$GPGGA,160237.000,4026.7502,N,07520.5886,W,1,9,0.91,153.5,M,-33.9,M,,*6B
$GPRMC,160237.000,A,4026.7502,N,07520.5886,W,0.01,96.86,100612,,,A*4A
$GPGGA,160238.000,4026.7502,N,07520.5886,W,1,9,0.91,1$PMTK001,314,3*36
$PMTK001,220,3*30
$PMTK001,185,3*3C
$GPGGA,160237.000,4026.7502,N,07520.5886,W,1,9,0.91,153.5,M,-33.9,M,,*6B
$GPRMC,160237.000,A,4026.7502,N,07520.5886,W,0.01,96.86,100612,,,A*4A
$GPGGA,160238.000,4026.7502,N,07520.5886,W,1,9,0.91,1$PMTK001,314,3*36
$PMTK001,220,3*30
$PMTK001,185,3*3C
$GPGGA,160237.000,4026.7502,N,07520.5886,W,1,9,0.91,153.5,M,-33.9,M,,*6B
$GPRMC,160237.000,A,4026.7502,N,07520.5886,W,0.01,96.86,100612,,,A*4A
$GPGGA,160238.000,4026.7502,N,07520.5886,W,1,9,0.91,1$PMTK001,314,3*36
$PMTK001,220,3*30
$PMTK001,185,3*3C
$GPGGA,160237.000,4026.7502,N,07520.5886,W,1,9,0.91,153.5,M,-33.9,M,,*6B
$GPRMC,160237.000,A,4026.7502,N,07520.5886,W,0.01,96.86,100612,,,A*4A
$GPGGA,160238.000,4026.7502,N,07520.5886,W,1,9,0.91,1$PMTK001,314,3*36
$PMTK001,220,3*30
$PMTK001,185,3*3C
$GPGGA,160237.000,4026.7502,N,07520.5886,W,1,9,0.91,153.5,M,-33.9,M,,*6B
$GPRMC,160237.000,A,4026.7502,N,07520.5886,W,0.01,96.86,100612,,,A*4A
$GPGGA,160238.000,4026.7502,N,07520.5886,W,1,9,0.91,1$PMTK001,314,3*36
$PMTK001,220,3*30
$PMTK001,185,3*3C
$GPGGA,160237.000,4026.7502,N,07520.5886,W,1,9,0.91,153.5,M,-33.9,M,,*6B
$GPRMC,160237.000,A,4026.7502,N,07520.5886,W,0.01,96.86,100612,,,A*4A
$GPGGA,160238.000,4026.7502,N,07520.5886,W,1,9,0.91,1$PMTK001,314,3*36
$PMTK001,220,3*30
$PMTK001,185,3*3C
$GPGGA,160237.000,4026.7502,N,07520.5886,W,1,9,0.91,153.5,M,-33.9,M,,*6B
$GPRMC,160237.000,A,4026.7502,N,07520.5886,W,0.01,96.86,100612,,,A*4A
$GPGGA,160238.000,4026.7502,N,07520.5886,W,1,9,0.91,1$PMTK001,314,3*36
$PMTK001,220,3*30
$PMTK001,185,3*3C
$GPGGA,160237.000,4026.7502,N,07520.5886,W,1,9,0.91,153.5,M,-33.9,M,,*6B
$GPRMC,160237.000,A,4026.7502,N,07520.5886,W,0.01,96.86,100612,,,A*4A
$GPGGA,160238.000,4026.7502,N,07520.5886,W,1,9,0.91,1$PMTK001,314,3*36
$PMTK001,220,3*30
$PMTK001,185,3*3C
$GPGGA,160237.000,4026.7502,N,07520.5886,W,1,9,0.91,153.5,M,-33.9,M,,*6B
$GPRMC,160237.000,A,4026.7502,N,07520.5886,W,0.01,96.86,100612,,,A*4A
$GPGGA,160238.000,4026.7502,N,07520.5886,W,1,9,0.91,1$PMTK001,314,3*36
$PMTK001,220,3*30
$PMTK001,185,3*3C
$GPGGA,160237.000,4026.7502,N,07520.5886,W,1,9,0.91,153.5,M,-33.9,M,,*6B
$GPRMC,160237.000,A,4026.7502,N,07520.5886,W,0.01,96.86,100612,,,A*4A
$GPGGA,160238.000,4026.7502,N,07520.5886,W,1,9,0.91,1$PMTK001,314,3*36
$PMTK001,220,3*30
$PMTK001,185,3*3C
$GPGGA,160237.000,4026.7502,N,07520.5886,W,1,9,0.91,153.5,M,-33.9,M,,*6B
$GPRMC,160237.000,A,4026.7502,N,07520.5886,W,0.01,96.86,100612,,,A*4A
$GPGGA,160238.000,4026.7502,N,07520.5886,W,1,9,0.91,1$PMTK001,314,3*36
$PMTK001,220,3*30
$PMTK001,185,3*3C
$GPGGA,160237.000,4026.7502,N,07520.5886,W,1,9,0.91,153.5,M,-33.9,M,,*6B
$GPRMC,160237.000,A,4026.7502,N,07520.5886,W,0.01,96.86,100612,,,A*4A
$GPGGA,160238.000,4026.7502,N,07520.5886,W,1,9,0.91,1$PMTK001,314,3*36
$PMTK001,220,3*30
$PMTK001,185,3*3C
$GPGGA,160237.000,4026.7502,N,07520.5886,W,1,9,0.91,153.5,M,-33.9,M,,*6B
$GPRMC,160237.000,A,4026.7502,N,07520.5886,W,0.01,96.86,100612,,,A*4A
$GPGGA,160238.000,4026.7502,N,07520.5886,W,1,9,0.91,1$PMTK001,314,3*36
$PMTK001,220,3*30
$PMTK001,185,3*3C
$GPGGA,160237.000,4026.7502,N,07520.5886,W,1,9,0.91,153.5,M,-33.9,M,,*6B
$GPRMC,160237.000,A,4026.7502,N,07520.5886,W,0.01,96.86,100612,,,A*4A
$GPGGA,160238.000,4026.7502,N,07520.5886,W,1,9,0.91,1$PMTK001,314,3*36
$PMTK001,220,3*30
$PMTK001,185,3*3C
$GPGGA,160237.000,4026.7502,N,07520.5886,W,1,9,0.91,153.5,M,-33.9,M,,*6B
$GPRMC,160237.000,A,4026.7502,N,07520.5886,W,0.01,96.86,100612,,,A*4A
$GPGGA,160238.000,4026.7502,N,07520.5886,W,1,9,0.91,1$PMTK001,314,3*36
$PMTK001,220,3*30
$PMTK001,185,3*3C
$GPGGA,160237.000,4026.7502,N,07520.5886,W,1,9,0.91,153.5,M,-33.9,M,,*6B
$GPRMC,160237.000,A,4026.7502,N,07520.5886,W,0.01,96.86,100612,,,A*4A
$GPGGA,160238.000,4026.7502,N,07520.5886,W,1,9,0.91,1$PMTK001,314,3*36
$PMTK001,220,3*30
$PMTK001,185,3*3C
$GPGGA,160237.000,4026.7502,N,07520.5886,W,1,9,0.91,153.5,M,-33.9,M,,*6B
$GPRMC,160237.000,A,4026.7502,N,07520.5886,W,0.01,96.86,100612,,,A*4A
$GPGGA,160238.000,4026.7502,N,07520.5886,W,1,9,0.91,1$PMTK001,314,3*36
$PMTK001,220,3*30
$PMTK001,185,3*3C
$GPGGA,160237.000,4026.7502,N,07520.5886,W,1,9,0.91,153.5,M,-33.9,M,,*6B
$GPRMC,160237.000,A,4026.7502,N,07520.5886,W,0.01,96.86,100612,,,A*4A
$GPGGA,160238.000,4026.7502,N,07520.5886,W,1,9,0.91,1$PMTK001,314,3*36
$PMTK001,220,3*30
$PMTK001,185,3*3C
$GPGGA,160237.000,4026.7502,N,07520.5886,W,1,9,0.91,153.5,M,-33.9,M,,*6B
$GPRMC,160237.000,A,4026.7502,N,07520.5886,W,0.01,96.86,100612,,,A*4A
$GPGGA,160238.000,4026.7502,N,07520.5886,W,1,9,0.91,1$PMTK001,314,3*36
$PMTK001,220,3*30
$PMTK001,185,3*3C
$GPGGA,160237.000,4026.7502,N,07520.5886,W,1,9,0.91,153.5,M,-33.9,M,,*6B
$GPRMC,160237.000,A,4026.7502,N,07520.5886,W,0.01,96.86,100612,,,A*4A
$GPGGA,160238.000,4026.7502,N,07520.5886,W,1,9,0.91,1$PMTK001,314,3*36
$PMTK001,220,3*30
$PMTK001,185,3*3C
$GPGGA,160237.000,4026.7502,N,07520.5886,W,1,9,0.91,153.5,M,-33.9,M,,*6B
$GPRMC,160237.000,A,4026.7502,N,07520.5886,W,0.01,96.86,100612,,,A*4A
$GPGGA,160238.000,4026.7502,N,07520.5886,W,1,9,0.91,1$PMTK001,314,3*36
$PMTK001,220,3*30
$PMTK001,185,3*3C
$GPGGA,160237.000,4026.7502,N,07520.5886,W,1,9,0.91,153.5,M,-33.9,M,,*6B
$GPRMC,160237.000,A,4026.7502,N,07520.5886,W,0.01,96.86,100612,,,A*4A
$GPGGA,160238.000,4026.7502,N,07520.5886,W,1,9,0.91,1$PMTK001,314,3*36
$PMTK001,220,3*30
$PMTK001,185,3*3C
$GPGGA,160237.000,4026.7502,N,07520.5886,W,1,9,0.91,153.5,M,-33.9,M,,*6B
$GPRMC,160237.000,A,4026.7502,N,07520.5886,W,0.01,96.86,100612,,,A*4A
$GPGGA,160238.000,4026.7502,N,07520.5886,W,1,9,0.91,1$PMTK001,314,3*36
$PMTK001,220,3*30
$PMTK001,185,3*3C
$GPGGA,160237.000,4026.7502,N,07520.5886,W,1,9,0.91,153.5,M,-33.9,M,,*6B
$GPRMC,160237.000,A,4026.7502,N,07520.5886,W,0.01,96.86,100612,,,A*4A
$GPGGA,160238.000,4026.7502,N,07520.5886,W,1,9,0.91,1$PMTK001,314,3*36
$PMTK001,220,3*30
$PMTK001,185,3*3C
$GPGGA,160237.000,4026.7502,N,07520.5886,W,1,9,0.91,153.5,M,-33.9,M,,*6B
$GPRMC,160237.000,A,4026.7502,N,07520.5886,W,0.01,96.86,100612,,,A*4A
$GPGGA,160238.000,4026.7502,N,07520.5886,W,1,9,0.91,1$PMTK001,314,3*36
$PMTK001,220,3*30
$PMTK001,185,3*3C
$GPGGA,160237.000,4026.7502,N,07520.5886,W,1,9,0.91,153.5,M,-33.9,M,,*6B
$GPRMC,160237.000,A,4026.7502,N,07520.5886,W,0.01,96.86,100612,,,A*4A
$GPGGA,160238.000,4026.7502,N,07520.5886,W,1,9,0.91,1$PMTK001,314,3*36
$PMTK001,220,3*30
$PMTK001,185,3*3C
$GPGGA,160237.000,4026.7502,N,07520.5886,W,1,9,0.91,153.5,M,-33.9,M,,*6B
$GPRMC,160237.000,A,4026.7502,N,07520.5886,W,0.01,96.86,100612,,,A*4A
$GPGGA,160238.000,4026.7502,N,07520.5886,W,1,9,0.91,1$PMTK001,314,3*36
$PMTK001,220,3*30
$PMTK001,185,3*3C
$GPGGA,160237.000,4026.7502,N,07520.5886,W,1,9,0.91,153.5,M,-33.9,M,,*6B
$GPRMC,160237.000,A,4026.7502,N,07520.5886,W,0.01,96.86,100612,,,A*4A
$GPGGA,160238.000,4026.7502,N,07520.5886,W,1,9,0.91,1$PMTK001,314,3*36
$PMTK001,220,3*30
$PMTK001,185,3*3C
$GPGGA,160237.000,4026.7502,N,07520.5886,W,1,9,0.91,153.5,M,-33.9,M,,*6B
$GPRMC,160237.000,A,4026.7502,N,07520.5886,W,0.01,96.86,100612,,,A*4A
$GPGGA,160238.000,4026.7502,N,07520.5886,W,1,9,0.91,1$PMTK001,314,3*36
$PMTK001,220,3*30
$PMTK001,185,3*3C
$GPGGA,160237.000,4026.7502,N,07520.5886,W,1,9,0.91,153.5,M,-33.9,M,,*6B
$GPRMC,160237.000,A,4026.7502,N,07520.5886,W,0.01,96.86,100612,,,A*4A
$GPGGA,160238.000,4026.7502,N,07520.5886,W,1,9,0.91,1$PMTK001,314,3*36
$PMTK001,220,3*30
$PMTK001,185,3*3C
$GPGGA,160237.000,4026.7502,N,07520.5886,W,1,9,0.91,153.5,M,-33.9,M,,*6B
$GPRMC,160237.000,A,4026.7502,N,07520.5886,W,0.01,96.86,100612,,,A*4A
$GPGGA,160238.000,4026.7502,N,07520.5886,W,1,9,0.91,1$PMTK001,314,3*36
$PMTK001,220,3*30
$PMTK001,185,3*3C
$GPGGA,160237.000,4026.7502,N,07520.5886,W,1,9,0.91,153.5,M,-33.9,M,,*6B
$GPRMC,160237.000,A,4026.7502,N,07520.5886,W,0.01,96.86,100612,,,A*4A
$GPGGA,160238.000,4026.7502,N,07520.5886,W,1,9,0.91,1$PMTK001,314,3*36
$PMTK001,220,3*30
$PMTK001,185,3*3C
$GPGGA,160237.000,4026.7502,N,07520.5886,W,1,9,0.91,153.5,M,-33.9,M,,*6B
$GPRMC,160237.000,A,4026.7502,N,07520.5886,W,0.01,96.86,100612,,,A*4A
$GPGGA,160238.000,4026.7502,N,07520.5886,W,1,9,0.91,1$PMTK001,314,3*36
$PMTK001,220,3*30
$PMTK001,185,3*3C
$GPGGA,160237.000,4026.7502,N,07520.5886,W,1,9,0.91,153.5,M,-33.9,M,,*6B
$GPRMC,160237.000,A,4026.7502,N,07520.5886,W,0.01,96.86,100612,,,A*4A
$GPGGA,160238.000,4026.7502,N,07520.5886,W,1,9,0.91,1$PMTK001,314,3*36
$PMTK001,220,3*30
$PMTK001,185,3*3C
$GPGGA,160237.000,4026.7502,N,07520.5886,W,1,9,0.91,153.5,M,-33.9,M,,*6B
$GPRMC,160237.000,A,4026.7502,N,07520.5886,W,0.01,96.86,100612,,,A*4A
$GPGGA,160238.000,4026.7502,N,07520.5886,W,1,9,0.91,1$PMTK001,314,3*36
$PMTK001,220,3*30
$PMTK001,185,3*3C
$GPGGA,160237.000,4026.7502,N,07520.5886,W,1,9,0.91,153.5,M,-33.9,M,,*6B
$GPRMC,160237.000,A,4026.7502,N,07520.5886,W,0.01,96.86,100612,,,A*4A
$GPGGA,160238.000,4026.7502,N,07520.5886,W,1,9,0.91,1$PMTK001,314,3*36
$PMTK001,220,3*30
$PMTK001,185,3*3C
$GPGGA,160237.000,4026.7502,N,07520.5886,W,1,9,0.91,153.5,M,-33.9,M,,*6B
$GPRMC,160237.000,A,4026.7502,N,07520.5886,W,0.01,96.86,100612,,,A*4A
$GPGGA,160238.000,4026.7502,N,07520.5886,W,1,9,0.91,1$PMTK001,314,3*36
$PMTK001,220,3*30
$PMTK001,185,3*3C
$GPGGA,160237.000,4026.7502,N,07520.5886,W,1,9,0.91,153.5,M,-33.9,M,,*6B
$GPRMC,160237.000,A,4026.7502,N,07520.5886,W,0.01,96.86,100612,,,A*4A
$GPGGA,160238.000,4026.7502,N,07520.5886,W,1,9,0.91,1$PMTK001,314,3*36
$PMTK001,220,3*30
$PMTK001,185,3*3C
$GPGGA,160237.000,4026.7502,N,07520.5886,W,1,9,0.91,153.5,M,-33.9,M,,*6B
$GPRMC,160237.000,A,4026.7502,N,07520.5886,W,0.01,96.86,100612,,,A*4A
$GPGGA,160238.000,4026.7502,N,07520.5886,W,1,9,0.91,1$PMTK001,314,3*36
$PMTK001,220,3*30
$PMTK001,185,3*3C
$GPGGA,160237.000,4026.7502,N,07520.5886,W,1,9,0.91,153.5,M,-33.9,M,,*6B
$GPRMC,160237.000,A,4026.7502,N,07520.5886,W,0.01,96.86,100612,,,A*4A
$GPGGA,160238.000,4026.7502,N,07520.5886,W,1,9,0.91,1$PMTK001,314,3*36
$PMTK001,220,3*30
$PMTK001,185,3*3C
$GPGGA,160237.000,4026.7502,N,07520.5886,W,1,9,0.91,153.5,M,-33.9,M,,*6B
$GPRMC,160237.000,A,4026.7502,N,07520.5886,W,0.01,96.86,100612,,,A*4A
$GPGGA,160238.000,4026.7502,N,07520.5886,W,1,9,0.91,1$PMTK001,314,3*36
$PMTK001,220,3*30
$PMTK001,185,3*3C
$GPGGA,160237.000,4026.7502,N,07520.5886,W,1,9,0.91,153.5,M,-33.9,M,,*6B
$GPRMC,160237.000,A,4026.7502,N,07520.5886,W,0.01,96.86,100612,,,A*4A
$GPGGA,160238.000,4026.7502,N,07520.5886,W,1,9,0.91,1$PMTK001,314,3*36
$PMTK001,220,3*30
$PMTK001,185,3*3C
$GPGGA,160237.000,4026.7502,N,07520.5886,W,1,9,0.91,153.5,M,-33.9,M,,*6B
$GPRMC,160237.000,A,4026.7502,N,07520.5886,W,0.01,96.86,100612,,,A*4A
$GPGGA,160238.000,4026.7502,N,07520.5886,W,1,9,0.91,1$PMTK001,314,3*36
$PMTK001,220,3*30
$PMTK001,185,3*3C
$GPGGA,160237.000,4026.7502,N,07520.5886,W,1,9,0.91,153.5,M,-33.9,M,,*6B
$GPRMC,160237.000,A,4026.7502,N,07520.5886,W,0.01,96.86,100612,,,A*4A
$GPGGA,160238.000,4026.7502,N,07520.5886,W,1,9,0.91,1$PMTK001,314,3*36
$PMTK001,220,3*30
$PMTK001,185,3*3C
$GPGGA,160237.000,4026.7502,N,07520.5886,W,1,9,0.91,153.5,M,-33.9,M,,*6B
$GPRMC,160237.000,A,4026.7502,N,07520.5886,W,0.01,96.86,100612,,,A*4A
$GPGGA,160238.000,4026.7502,N,07520.5886,W,1,9,0.91,1¹bj±0000,0000*6D
$GPRMC,160436.000,A,4026.7502,N,07520.5890,W,0.02,96.86,100612,,,D*4C
$PMTK001,314,3*36
$PMTK001,220,3*30
$PMTK001,185,3*3C
$GPGGA,160437.000,4026.7502,N,07520.5890,W,2,9,0.88,153.8,M,-33.9,M,0000,0000*6C
$GPRMC,160437.000,A,4026.75¹bj±0000,0000*6D
$GPRMC,160436.000,A,4026.7502,N,07520.5890,W,0.02,96.86,100612,,,D*4C
$PMTK001,314,3*36
$PMTK001,220,3*30
$PMTK001,185,3*3C
$GPGGA,160437.000,4026.7502,N,07520.5890,W,2,9,0.88,153.8,M,-33.9,M,0000,0000*6C
$GPRMC,160437.000,A,4026.75¹bj±0000,0000*6D
$GPRMC,160436.000,A,4026.7502,N,07520.5890,W,0.02,96.86,100612,,,D*4C
$PMTK001,314,3*36
$PMTK001,220,3*30
$PMTK001,185,3*3C
$GPGGA,160437.000,4026.7502,N,07520.5890,W,2,9,0.88,153.8,M,-33.9,M,0000,0000*6C
$GPRMC,160437.000,A,4026.75¹bj±0000,0000*6D
$GPRMC,160436.000,A,4026.7502,N,07520.5890,W,0.02,96.86,100612,,,D*4C
$PMTK001,314,3*36
$PMTK001,220,3*30
$PMTK001,185,3*3C
$GPGGA,160437.000,4026.7502,N,07520.5890,W,2,9,0.88,153.8,M,-33.9,M,0000,0000*6C
$GPRMC,160437.000,A,4026.75¹bj±0000,0000*6D
$GPRMC,160436.000,A,4026.7502,N,07520.5890,W,0.02,96.86,100612,,,D*4C
$PMTK001,314,3*36
$PMTK001,220,3*30
$PMTK001,185,3*3C
$GPGGA,160437.000,4026.7502,N,07520.5890,W,2,9,0.88,153.8,M,-33.9,M,0000,0000*6C
$GPRMC,160437.000,A,4026.75¹bj±0000,0000*6D
$GPRMC,160436.000,A,4026.7502,N,07520.5890,W,0.02,96.86,100612,,,D*4C
$PMTK001,314,3*36
$PMTK001,220,3*30
$PMTK001,185,3*3C
$GPGGA,160437.000,4026.7502,N,07520.5890,W,2,9,0.88,153.8,M,-33.9,M,0000,0000*6C
$GPRMC,160437.000,A,4026.75¹bj±0000,0000*6D
$GPRMC,160436.000,A,4026.7502,N,07520.5890,W,0.02,96.86,100612,,,D*4C
$PMTK001,314,3*36
$PMTK001,220,3*30
$PMTK001,185,3*3C
$GPGGA,160437.000,4026.7502,N,07520.5890,W,2,9,0.88,153.8,M,-33.9,M,0000,0000*6C
$GPRMC,160437.000,A,4026.75¹bj±0000,0000*6D
$GPRMC,160436.000,A,4026.7502,N,07520.5890,W,0.02,96.86,100612,,,D*4C
$PMTK001,314,3*36
$PMTK001,220,3*30
$PMTK001,185,3*3C
$GPGGA,160437.000,4026.7502,N,07520.5890,W,2,9,0.88,153.8,M,-33.9,M,0000,0000*6C
$GPRMC,160437.000,A,4026.75¹bj±0000,0000*6D
$GPRMC,160436.000,A,4026.7502,N,07520.5890,W,0.02,96.86,100612,,,D*4C
$PMTK001,314,3*36
$PMTK001,220,3*30
$PMTK001,185,3*3C
$GPGGA,160437.000,4026.7502,N,07520.5890,W,2,9,0.88,153.8,M,-33.9,M,0000,0000*6C
$GPRMC,160437.000,A,4026.75¹bj±0000,0000*6D
$GPRMC,160436.000,A,4026.7502,N,07520.5890,W,0.02,96.86,100612,,,D*4C
$PMTK001,314,3*36
$PMTK001,220,3*30
$PMTK001,185,3*3C
$GPGGA,160437.000,4026.7502,N,07520.5890,W,2,9,0.88,153.8,M,-33.9,M,0000,0000*6C
$GPRMC,160437.000,A,4026.75¹bj±0000,0000*6D
$GPRMC,160436.000,A,4026.7502,N,07520.5890,W,0.02,96.86,100612,,,D*4C
$PMTK001,314,3*36
$PMTK001,220,3*30
$PMTK001,185,3*3C
$GPGGA,160437.000,4026.7502,N,07520.5890,W,2,9,0.88,153.8,M,-33.9,M,0000,0000*6C
$GPRMC,160437.000,A,4026.75¹bj±0000,0000*6D
$GPRMC,160436.000,A,4026.7502,N,07520.5890,W,0.02,96.86,100612,,,D*4C
$PMTK001,314,3*36
$PMTK001,220,3*30
$PMTK001,185,3*3C
$GPGGA,160437.000,4026.7502,N,07520.5890,W,2,9,0.88,153.8,M,-33.9,M,0000,0000*6C
$GPRMC,160437.000,A,4026.75¹bj±0000,0000*6D
$GPRMC,160436.000,A,4026.7502,N,07520.5890,W,0.02,96.86,100612,,,D*4C
$PMTK001,314,3*36
$PMTK001,220,3*30
$PMTK001,185,3*3C
$GPGGA,160437.000,4026.7502,N,07520.5890,W,2,9,0.88,153.8,M,-33.9,M,0000,0000*6C
$GPRMC,160437.000,A,4026.75¹bj±0000,0000*6D
$GPRMC,160436.000,A,4026.7502,N,07520.5890,W,0.02,96.86,100612,,,D*4C
$PMTK001,314,3*36
$PMTK001,220,3*30
$PMTK001,185,3*3C
$GPGGA,160437.000,4026.7502,N,07520.5890,W,2,9,0.88,153.8,M,-33.9,M,0000,0000*6C
$GPRMC,160437.000,A,4026.75¹bj±0000,0000*6D
$GPRMC,160436.000,A,4026.7502,N,07520.5890,W,0.02,96.86,100612,,,D*4C
$PMTK001,314,3*36
$PMTK001,220,3*30
$PMTK001,185,3*3C
$GPGGA,160437.000,4026.7502,N,07520.5890,W,2,9,0.88,153.8,M,-33.9,M,0000,0000*6C
$GPRMC,160437.000,A,4026.75¹bj±0000,0000*6D
$GPRMC,160436.000,A,4026.7502,N,07520.5890,W,0.02,96.86,100612,,,D*4C
$PMTK001,314,3*36
$PMTK001,220,3*30
$PMTK001,185,3*3C
$GPGGA,160437.000,4026.7502,N,07520.5890,W,2,9,0.88,153.8,M,-33.9,M,0000,0000*6C
$GPRMC,160437.000,A,4026.75¹bj±0000,0000*6D
$GPRMC,160436.000,A,4026.7502,N,07520.5890,W,0.02,96.86,100612,,,D*4C
$PMTK001,314,3*36
$PMTK001,220,3*30
$PMTK001,185,3*3C
$GPGGA,160437.000,4026.7502,N,07520.5890,W,2,9,0.88,153.8,M,-33.9,M,0000,0000*6C
$GPRMC,160437.000,A,4026.75¹bj±0000,0000*6D
$GPRMC,160436.000,A,4026.7502,N,07520.5890,W,0.02,96.86,100612,,,D*4C
$PMTK001,314,3*36
$PMTK001,220,3*30
$PMTK001,185,3*3C
$GPGGA,160437.000,4026.7502,N,07520.5890,W,2,9,0.88,153.8,M,-33.9,M,0000,0000*6C
$GPRMC,160437.000,A,4026.75¹bj±0000,0000*6D
$GPRMC,160436.000,A,4026.7502,N,07520.5890,W,0.02,96.86,100612,,,D*4C
$PMTK001,314,3*36
$PMTK001,220,3*30
$PMTK001,185,3*3C
$GPGGA,160437.000,4026.7502,N,07520.5890,W,2,9,0.88,153.8,M,-33.9,M,0000,0000*6C
$GPRMC,160437.000,A,4026.75¹bj±0000,0000*6D
$GPRMC,160436.000,A,4026.7502,N,07520.5890,W,0.02,96.86,100612,,,D*4C
$PMTK001,314,3*36
$PMTK001,220,3*30
$PMTK001,185,3*3C
$GPGGA,160437.000,4026.7502,N,07520.5890,W,2,9,0.88,153.8,M,-33.9,M,0000,0000*6C
$GPRMC,160437.000,A,4026.75¹bj±0000,0000*6D
$GPRMC,160436.000,A,4026.7502,N,07520.5890,W,0.02,96.86,100612,,,D*4C
$PMTK001,314,3*36
$PMTK001,220,3*30
$PMTK001,185,3*3C
$GPGGA,160437.000,4026.7502,N,07520.5890,W,2,9,0.88,153.8,M,-33.9,M,0000,0000*6C
$GPRMC,160437.000,A,4026.75¹bj±0000,0000*6D
$GPRMC,160436.000,A,4026.7502,N,07520.5890,W,0.02,96.86,100612,,,D*4C
$PMTK001,314,3*36
$PMTK001,220,3*30
$PMTK001,185,3*3C
$GPGGA,160437.000,4026.7502,N,07520.5890,W,2,9,0.88,153.8,M,-33.9,M,0000,0000*6C
$GPRMC,160437.000,A,4026.75¹bj±0000,0000*6D
$GPRMC,160436.000,A,4026.7502,N,07520.5890,W,0.02,96.86,100612,,,D*4C
$PMTK001,314,3*36
$PMTK001,220,3*30
$PMTK001,185,3*3C
$GPGGA,160437.000,4026.7502,N,07520.5890,W,2,9,0.88,153.8,M,-33.9,M,0000,0000*6C
$GPRMC,160437.000,A,4026.75¹bj±0000,0000*6D
$GPRMC,160436.000,A,4026.7502,N,07520.5890,W,0.02,96.86,100612,,,D*4C
$PMTK001,314,3*36
$PMTK001,220,3*30
$PMTK001,185,3*3C
$GPGGA,160437.000,4026.7502,N,07520.5890,W,2,9,0.88,153.8,M,-33.9,M,0000,0000*6C
$GPRMC,160437.000,A,4026.75¹bj±0000,0000*6D
$GPRMC,160436.000,A,4026.7502,N,07520.5890,W,0.02,96.86,100612,,,D*4C
$PMTK001,314,3*36
$PMTK001,220,3*30
$PMTK001,185,3*3C
$GPGGA,160437.000,4026.7502,N,07520.5890,W,2,9,0.88,153.8,M,-33.9,M,0000,0000*6C
$GPRMC,160437.000,A,4026.75¹bj±0000,0000*6D
$GPRMC,160436.000,A,4026.7502,N,07520.5890,W,0.02,96.86,100612,,,D*4C
$PMTK001,314,3*36
$PMTK001,220,3*30
$PMTK001,185,3*3C
$GPGGA,160437.000,4026.7502,N,07520.5890,W,2,9,0.88,153.8,M,-33.9,M,0000,0000*6C
$GPRMC,160437.000,A,4026.75¹bj±0000,0000*6D
$GPRMC,160436.000,A,4026.7502,N,07520.5890,W,0.02,96.86,100612,,,D*4C
$PMTK001,314,3*36
$PMTK001,220,3*30
$PMTK001,185,3*3C
$GPGGA,160437.000,4026.7502,N,07520.5890,W,2,9,0.88,153.8,M,-33.9,M,0000,0000*6C
$GPRMC,160437.000,A,4026.75¹bj±0000,0000*6D
$GPRMC,160436.000,A,4026.7502,N,07520.5890,W,0.02,96.86,100612,,,D*4C
$PMTK001,314,3*36
$PMTK001,220,3*30
$PMTK001,185,3*3C
$GPGGA,160437.000,4026.7502,N,07520.5890,W,2,9,0.88,153.8,M,-33.9,M,0000,0000*6C
$GPRMC,160437.000,A,4026.75¹bj±0000,0000*6D
$GPRMC,160436.000,A,4026.7502,N,07520.5890,W,0.02,96.86,100612,,,D*4C
$PMTK001,314,3*36
$PMTK001,220,3*30
$PMTK001,185,3*3C
$GPGGA,160437.000,4026.7502,N,07520.5890,W,2,9,0.88,153.8,M,-33.9,M,0000,0000*6C
$GPRMC,160437.000,A,4026.75¹bj±0000,0000*6D
$GPRMC,160436.000,A,4026.7502,N,07520.5890,W,0.02,96.86,100612,,,D*4C
$PMTK001,314,3*36
$PMTK001,220,3*30
$PMTK001,185,3*3C
$GPGGA,160437.000,4026.7502,N,07520.5890,W,2,9,0.88,153.8,M,-33.9,M,0000,0000*6C
$GPRMC,160437.000,A,4026.75¹bj±0000,0000*6D
$GPRMC,160436.000,A,4026.7502,N,07520.5890,W,0.02,96.86,100612,,,D*4C
$PMTK001,314,3*36
$PMTK001,220,3*30
$PMTK001,185,3*3C
$GPGGA,160437.000,4026.7502,N,07520.5890,W,2,9,0.88,153.8,M,-33.9,M,0000,0000*6C
$GPRMC,160437.000,A,4026.75¹bj±0000,0000*6D
$GPRMC,160436.000,A,4026.7502,N,07520.5890,W,0.02,96.86,100612,,,D*4C
$PMTK001,314,3*36
$PMTK001,220,3*30
$PMTK001,185,3*3C
$GPGGA,160437.000,4026.7502,N,07520.5890,W,2,9,0.88,153.8,M,-33.9,M,0000,0000*6C
$GPRMC,160437.000,A,4026.75¹bj±0000,0000*6D
$GPRMC,160436.000,A,4026.7502,N,07520.5890,W,0.02,96.86,100612,,,D*4C
$PMTK001,314,3*36
$PMTK001,220,3*30
$PMTK001,185,3*3C
$GPGGA,160437.000,4026.7502,N,07520.5890,W,2,9,0.88,153.8,M,-33.9,M,0000,0000*6C
$GPRMC,160437.000,A,4026.75¹bj±0000,0000*6D
$GPRMC,160436.000,A,4026.7502,N,07520.5890,W,0.02,96.86,100612,,,D*4C
$PMTK001,314,3*36
$PMTK001,220,3*30
$PMTK001,185,3*3C
$GPGGA,160437.000,4026.7502,N,07520.5890,W,2,9,0.88,153.8,M,-33.9,M,0000,0000*6C
$GPRMC,160437.000,A,4026.75¹bj±0000,0000*6D
$GPRMC,160436.000,A,4026.7502,N,07520.5890,W,0.02,96.86,100612,,,D*4C
$PMTK001,314,3*36
$PMTK001,220,3*30
$PMTK001,185,3*3C
$GPGGA,160437.000,4026.7502,N,07520.5890,W,2,9,0.88,153.8,M,-33.9,M,0000,0000*6C
$GPRMC,160437.000,A,4026.75¹bj±0000,0000*6D
$GPRMC,160436.000,A,4026.7502,N,07520.5890,W,0.02,96.86,100612,,,D*4C
$PMTK001,314,3*36
$PMTK001,220,3*30
$PMTK001,185,3*3C
$GPGGA,160437.000,4026.7502,N,07520.5890,W,2,9,0.88,153.8,M,-33.9,M,0000,0000*6C
$GPRMC,160437.000,A,4026.75¹bj±0000,0000*6D
$GPRMC,160436.000,A,4026.7502,N,07520.5890,W,0.02,96.86,100612,,,D*4C
$PMTK001,314,3*36
$PMTK001,220,3*30
$PMTK001,185,3*3C
$GPGGA,160437.000,4026.7502,N,07520.5890,W,2,9,0.88,153.8,M,-33.9,M,0000,0000*6C
$GPRMC,160437.000,A,4026.75¹bj±0000,0000*6D
$GPRMC,160436.000,A,4026.7502,N,07520.5890,W,0.02,96.86,100612,,,D*4C
$PMTK001,314,3*36
$PMTK001,220,3*30
$PMTK001,185,3*3C
$GPGGA,160437.000,4026.7502,N,07520.5890,W,2,9,0.88,153.8,M,-33.9,M,0000,0000*6C
$GPRMC,160437.000,A,4026.75¹bj±0000,0000*6D
$GPRMC,160436.000,A,4026.7502,N,07520.5890,W,0.02,96.86,100612,,,D*4C
$PMTK001,314,3*36
$PMTK001,220,3*30
$PMTK001,185,3*3C
$GPGGA,160437.000,4026.7502,N,07520.5890,W,2,9,0.88,153.8,M,-33.9,M,0000,0000*6C
$GPRMC,160437.000,A,4026.75¹bj±0000,0000*6D
$GPRMC,160436.000,A,4026.7502,N,07520.5890,W,0.02,96.86,100612,,,D*4C
$PMTK001,314,3*36
$PMTK001,220,3*30
$PMTK001,185,3*3C
$GPGGA,160437.000,4026.7502,N,07520.5890,W,2,9,0.88,153.8,M,-33.9,M,0000,0000*6C
$GPRMC,160437.000,A,4026.75¹bj±0000,0000*6D
$GPRMC,160436.000,A,4026.7502,N,07520.5890,W,0.02,96.86,100612,,,D*4C
$PMTK001,314,3*36
$PMTK001,220,3*30
$PMTK001,185,3*3C
$GPGGA,160437.000,4026.7502,N,07520.5890,W,2,9,0.88,153.8,M,-33.9,M,0000,0000*6C
$GPRMC,160437.000,A,4026.75¹bj±0000,0000*6D
$GPRMC,160436.000,A,4026.7502,N,07520.5890,W,0.02,96.86,100612,,,D*4C
$PMTK001,314,3*36
$PMTK001,220,3*30
$PMTK001,185,3*3C
$GPGGA,160437.000,4026.7502,N,07520.5890,W,2,9,0.88,153.8,M,-33.9,M,0000,0000*6C
$GPRMC,160437.000,A,4026.75¹bj±0000,0000*6D
$GPRMC,160436.000,A,4026.7502,N,07520.5890,W,0.02,96.86,100612,,,D*4C
$PMTK001,314,3*36
$PMTK001,220,3*30
$PMTK001,185,3*3C
$GPGGA,160437.000,4026.7502,N,07520.5890,W,2,9,0.88,153.8,M,-33.9,M,0000,0000*6C
$GPRMC,160437.000,A,4026.75¹bj±0000,0000*6D
$GPRMC,160436.000,A,4026.7502,N,07520.5890,W,0.02,96.86,100612,,,D*4C
$PMTK001,314,3*36
$PMTK001,220,3*30
$PMTK001,185,3*3C
$GPGGA,160437.000,4026.7502,N,07520.5890,W,2,9,0.88,153.8,M,-33.9,M,0000,0000*6C
$GPRMC,160437.000,A,4026.75¹bj±0000,0000*6D
$GPRMC,160436.000,A,4026.7502,N,07520.5890,W,0.02,96.86,100612,,,D*4C
$PMTK001,314,3*36
$PMTK001,220,3*30
$PMTK001,185,3*3C
$GPGGA,160437.000,4026.7502,N,07520.5890,W,2,9,0.88,153.8,M,-33.9,M,0000,0000*6C
$GPRMC,160437.000,A,4026.75¹bj±0000,0000*6D
$GPRMC,160436.000,A,4026.7502,N,07520.5890,W,0.02,96.86,100612,,,D*4C
$PMTK001,314,3*36
$PMTK001,220,3*30
$PMTK001,185,3*3C
$GPGGA,160437.000,4026.7502,N,07520.5890,W,2,9,0.88,153.8,M,-33.9,M,0000,0000*6C
$GPRMC,160437.000,A,4026.75¹bj±0000,0000*6D
$GPRMC,160436.000,A,4026.7502,N,07520.5890,W,0.02,96.86,100612,,,D*4C
$PMTK001,314,3*36
$PMTK001,220,3*30
$PMTK001,185,3*3C
$GPGGA,160437.000,4026.7502,N,07520.5890,W,2,9,0.88,153.8,M,-33.9,M,0000,0000*6C
$GPRMC,160437.000,A,4026.75¹bj±0000,0000*6D
$GPRMC,160436.000,A,4026.7502,N,07520.5890,W,0.02,96.86,100612,,,D*4C
$PMTK001,314,3*36
$PMTK001,220,3*30
$PMTK001,185,3*3C
$GPGGA,160437.000,4026.7502,N,07520.5890,W,2,9,0.88,153.8,M,-33.9,M,0000,0000*6C
$GPRMC,160437.000,A,4026.75¹bj±0000,0000*6D
$GPRMC,160436.000,A,4026.7502,N,07520.5890,W,0.02,96.86,100612,,,D*4C
$PMTK001,314,3*36
$PMTK001,220,3*30
$PMTK001,185,3*3C
$GPGGA,160437.000,4026.7502,N,07520.5890,W,2,9,0.88,153.8,M,-33.9,M,0000,0000*6C
$GPRMC,160437.000,A,4026.75¹bj±0000,0000*6D
$GPRMC,160436.000,A,4026.7502,N,07520.5890,W,0.02,96.86,100612,,,D*4C
$PMTK001,314,3*36
$PMTK001,220,3*30
$PMTK001,185,3*3C
$GPGGA,160437.000,4026.7502,N,07520.5890,W,2,9,0.88,153.8,M,-33.9,M,0000,0000*6C
$GPRMC,160437.000,A,4026.75¹bj±0000,0000*6D
$GPRMC,160436.000,A,4026.7502,N,07520.5890,W,0.02,96.86,100612,,,D*4C
$PMTK001,314,3*36
$PMTK001,220,3*30
$PMTK001,185,3*3C
$GPGGA,160437.000,4026.7502,N,07520.5890,W,2,9,0.88,153.8,M,-33.9,M,0000,0000*6C
$GPRMC,160437.000,A,4026.75¹bj±0000,0000*6D
$GPRMC,160436.000,A,4026.7502,N,07520.5890,W,0.02,96.86,100612,,,D*4C
$PMTK001,314,3*36
$PMTK001,220,3*30
$PMTK001,185,3*3C
$GPGGA,160437.000,4026.7502,N,07520.5890,W,2,9,0.88,153.8,M,-33.9,M,0000,0000*6C
$GPRMC,160437.000,A,4026.75¹bj±0000,0000*6D
$GPRMC,160436.000,A,4026.7502,N,07520.5890,W,0.02,96.86,100612,,,D*4C
$PMTK001,314,3*36
$PMTK001,220,3*30
$PMTK001,185,3*3C
