$GPGGA,183040.000,4014.3040,N,07512.2020,W,2,12,0.79,6503.8,M,-33.9,M,0000,0000*65
$GPRMC,183040.000,A,4014.3040,N,07512.2020,W,22.92,140.09,100612,,,D*43
$PMTK001,314,3*36
$PMTK001,220,3*30
$PMTK001,185,3*3C
$GPGGA,183041.000,4014.2991,N,07512.1964,$GPGGA,183040.000,4014.3040,N,07512.2020,W,2,12,0.79,6503.8,M,-33.9,M,0000,0000*65
$GPRMC,183040.000,A,4014.3040,N,07512.2020,W,22.92,140.09,100612,,,D*43
$PMTK001,314,3*36
$PMTK001,220,3*30
$PMTK001,185,3*3C
$GPGGA,183041.000,4014.2991,N,07512.1964,$GPGGA,183040.000,4014.3040,N,07512.2020,W,2,12,0.79,6503.8,M,-33.9,M,0000,0000*65
$GPRMC,183040.000,A,4014.3040,N,07512.2020,W,22.92,140.09,100612,,,D*43
$PMTK001,314,3*36
$PMTK001,220,3*30
$PMTK001,185,3*3C
$GPGGA,183041.000,4014.2991,N,07512.1964,$GPGGA,183040.000,4014.3040,N,07512.2020,W,2,12,0.79,6503.8,M,-33.9,M,0000,0000*65
$GPRMC,183040.000,A,4014.3040,N,07512.2020,W,22.92,140.09,100612,,,D*43
$PMTK001,314,3*36
$PMTK001,220,3*30
$PMTK001,185,3*3C
$GPGGA,183041.000,4014.2991,N,07512.1964,$GPGGA,183040.000,4014.3040,N,07512.2020,W,2,12,0.79,6503.8,M,-33.9,M,0000,0000*65
$GPRMC,183040.000,A,4014.3040,N,07512.2020,W,22.92,140.09,100612,,,D*43
$PMTK001,314,3*36
$PMTK001,220,3*30
$PMTK001,185,3*3C
$GPGGA,183041.000,4014.2991,N,07512.1964,$GPGGA,183040.000,4014.3040,N,07512.2020,W,2,12,0.79,6503.8,M,-33.9,M,0000,0000*65
$GPRMC,183040.000,A,4014.3040,N,07512.2020,W,22.92,140.09,100612,,,D*43
$PMTK001,314,3*36
$PMTK001,220,3*30
$PMTK001,185,3*3C
$GPGGA,183041.000,4014.2991,N,07512.1964,$GPGGA,183040.000,4014.3040,N,07512.2020,W,2,12,0.79,6503.8,M,-33.9,M,0000,0000*65
$GPRMC,183040.000,A,4014.3040,N,07512.2020,W,22.92,140.09,100612,,,D*43
$PMTK001,314,3*36
$PMTK001,220,3*30
$PMTK001,185,3*3C
$GPGGA,183041.000,4014.2991,N,07512.1964,$GPGGA,183040.000,4014.3040,N,07512.2020,W,2,12,0.79,6503.8,M,-33.9,M,0000,0000*65
$GPRMC,183040.000,A,4014.3040,N,07512.2020,W,22.92,140.09,100612,,,D*43
$PMTK001,314,3*36
$PMTK001,220,3*30
$PMTK001,185,3*3C
$GPGGA,183041.000,4014.2991,N,07512.1964,$GPGGA,183040.000,4014.3040,N,07512.2020,W,2,12,0.79,6503.8,M,-33.9,M,0000,0000*65
$GPRMC,183040.000,A,4014.3040,N,07512.2020,W,22.92,140.09,100612,,,D*43
$PMTK001,314,3*36
$PMTK001,220,3*30
$PMTK001,185,3*3C
$GPGGA,183041.000,4014.2991,N,07512.1964,$GPGGA,183040.000,4014.3040,N,07512.2020,W,2,12,0.79,6503.8,M,-33.9,M,0000,0000*65
$GPRMC,183040.000,A,4014.3040,N,07512.2020,W,22.92,140.09,100612,,,D*43
$PMTK001,314,3*36
$PMTK001,220,3*30
$PMTK001,185,3*3C
$GPGGA,183041.000,4014.2991,N,07512.1964,$GPGGA,183040.000,4014.3040,N,07512.2020,W,2,12,0.79,6503.8,M,-33.9,M,0000,0000*65
$GPRMC,183040.000,A,4014.3040,N,07512.2020,W,22.92,140.09,100612,,,D*43
$PMTK001,314,3*36
$PMTK001,220,3*30
$PMTK001,185,3*3C
$GPGGA,183041.000,4014.2991,N,07512.1964,$GPGGA,183040.000,4014.3040,N,07512.2020,W,2,12,0.79,6503.8,M,-33.9,M,0000,0000*65
$GPRMC,183040.000,A,4014.3040,N,07512.2020,W,22.92,140.09,100612,,,D*43
$PMTK001,314,3*36
$PMTK001,220,3*30
$PMTK001,185,3*3C
$GPGGA,183041.000,4014.2991,N,07512.1964,$GPGGA,183040.000,4014.3040,N,07512.2020,W,2,12,0.79,6503.8,M,-33.9,M,0000,0000*65
$GPRMC,183040.000,A,4014.3040,N,07512.2020,W,22.92,140.09,100612,,,D*43
$PMTK001,314,3*36
$PMTK001,220,3*30
$PMTK001,185,3*3C
$GPGGA,183041.000,4014.2991,N,07512.1964,$GPGGA,183040.000,4014.3040,N,07512.2020,W,2,12,0.79,6503.8,M,-33.9,M,0000,0000*65
$GPRMC,183040.000,A,4014.3040,N,07512.2020,W,22.92,140.09,100612,,,D*43
$PMTK001,314,3*36
$PMTK001,220,3*30
$PMTK001,185,3*3C
$GPGGA,183041.000,4014.2991,N,07512.1964,$GPGGA,183040.000,4014.3040,N,07512.2020,W,2,12,0.79,6503.8,M,-33.9,M,0000,0000*65
$GPRMC,183040.000,A,4014.3040,N,07512.2020,W,22.92,140.09,100612,,,D*43
$PMTK001,314,3*36
$PMTK001,220,3*30
$PMTK001,185,3*3C
$GPGGA,183041.000,4014.2991,N,07512.1964,$GPGGA,183040.000,4014.3040,N,07512.2020,W,2,12,0.79,6503.8,M,-33.9,M,0000,0000*65
$GPRMC,183040.000,A,4014.3040,N,07512.2020,W,22.92,140.09,100612,,,D*43
$PMTK001,314,3*36
$PMTK001,220,3*30
$PMTK001,185,3*3C
$GPGGA,183041.000,4014.2991,N,07512.1964,$GPGGA,183040.000,4014.3040,N,07512.2020,W,2,12,0.79,6503.8,M,-33.9,M,0000,0000*65
$GPRMC,183040.000,A,4014.3040,N,07512.2020,W,22.92,140.09,100612,,,D*43
$PMTK001,314,3*36
$PMTK001,220,3*30
$PMTK001,185,3*3C
$GPGGA,183041.000,4014.2991,N,07512.1964,$GPGGA,183040.000,4014.3040,N,07512.2020,W,2,12,0.79,6503.8,M,-33.9,M,0000,0000*65
$GPRMC,183040.000,A,4014.3040,N,07512.2020,W,22.92,140.09,100612,,,D*43
$PMTK001,314,3*36
$PMTK001,220,3*30
$PMTK001,185,3*3C
$GPGGA,183041.000,4014.2991,N,07512.1964,$GPGGA,183040.000,4014.3040,N,07512.2020,W,2,12,0.79,6503.8,M,-33.9,M,0000,0000*65
$GPRMC,183040.000,A,4014.3040,N,07512.2020,W,22.92,140.09,100612,,,D*43
$PMTK001,314,3*36
$PMTK001,220,3*30
$PMTK001,185,3*3C
$GPGGA,183041.000,4014.2991,N,07512.1964,$GPGGA,183040.000,4014.3040,N,07512.2020,W,2,12,0.79,6503.8,M,-33.9,M,0000,0000*65
$GPRMC,183040.000,A,4014.3040,N,07512.2020,W,22.92,140.09,100612,,,D*43
$PMTK001,314,3*36
$PMTK001,220,3*30
$PMTK001,185,3*3C
$GPGGA,183041.000,4014.2991,N,07512.1964,$GPGGA,183040.000,4014.3040,N,07512.2020,W,2,12,0.79,6503.8,M,-33.9,M,0000,0000*65
$GPRMC,183040.000,A,4014.3040,N,07512.2020,W,22.92,140.09,100612,,,D*43
$PMTK001,314,3*36
$PMTK001,220,3*30
$PMTK001,185,3*3C
$GPGGA,183041.000,4014.2991,N,07512.1964,$GPGGA,183040.000,4014.3040,N,07512.2020,W,2,12,0.79,6503.8,M,-33.9,M,0000,0000*65
$GPRMC,183040.000,A,4014.3040,N,07512.2020,W,22.92,140.09,100612,,,D*43
$PMTK001,314,3*36
$PMTK001,220,3*30
$PMTK001,185,3*3C
$GPGGA,183041.000,4014.2991,N,07512.1964,$GPGGA,183040.000,4014.3040,N,07512.2020,W,2,12,0.79,6503.8,M,-33.9,M,0000,0000*65
$GPRMC,183040.000,A,4014.3040,N,07512.2020,W,22.92,140.09,100612,,,D*43
$PMTK001,314,3*36
$PMTK001,220,3*30
$PMTK001,185,3*3C
$GPGGA,183041.000,4014.2991,N,07512.1964,$GPGGA,183040.000,4014.3040,N,07512.2020,W,2,12,0.79,6503.8,M,-33.9,M,0000,0000*65
$GPRMC,183040.000,A,4014.3040,N,07512.2020,W,22.92,140.09,100612,,,D*43
$PMTK001,314,3*36
$PMTK001,220,3*30
$PMTK001,185,3*3C
$GPGGA,183041.000,4014.2991,N,07512.1964,$GPGGA,183040.000,4014.3040,N,07512.2020,W,2,12,0.79,6503.8,M,-33.9,M,0000,0000*65
$GPRMC,183040.000,A,4014.3040,N,07512.2020,W,22.92,140.09,100612,,,D*43
$PMTK001,314,3*36
$PMTK001,220,3*30
$PMTK001,185,3*3C
$GPGGA,183041.000,4014.2991,N,07512.1964,$GPGGA,183040.000,4014.3040,N,07512.2020,W,2,12,0.79,6503.8,M,-33.9,M,0000,0000*65
$GPRMC,183040.000,A,4014.3040,N,07512.2020,W,22.92,140.09,100612,,,D*43
$PMTK001,314,3*36
$PMTK001,220,3*30
$PMTK001,185,3*3C
$GPGGA,183041.000,4014.2991,N,07512.1964,$GPGGA,183040.000,4014.3040,N,07512.2020,W,2,12,0.79,6503.8,M,-33.9,M,0000,0000*65
$GPRMC,183040.000,A,4014.3040,N,07512.2020,W,22.92,140.09,100612,,,D*43
$PMTK001,314,3*36
$PMTK001,220,3*30
$PMTK001,185,3*3C
$GPGGA,183041.000,4014.2991,N,07512.1964,$GPGGA,183040.000,4014.3040,N,07512.2020,W,2,12,0.79,6503.8,M,-33.9,M,0000,0000*65
$GPRMC,183040.000,A,4014.3040,N,07512.2020,W,22.92,140.09,100612,,,D*43
$PMTK001,314,3*36
$PMTK001,220,3*30
$PMTK001,185,3*3C
$GPGGA,183041.000,4014.2991,N,07512.1964,$GPGGA,183040.000,4014.3040,N,07512.2020,W,2,12,0.79,6503.8,M,-33.9,M,0000,0000*65
$GPRMC,183040.000,A,4014.3040,N,07512.2020,W,22.92,140.09,100612,,,D*43
$PMTK001,314,3*36
$PMTK001,220,3*30
$PMTK001,185,3*3C
$GPGGA,183041.000,4014.2991,N,07512.1964,$GPGGA,183040.000,4014.3040,N,07512.2020,W,2,12,0.79,6503.8,M,-33.9,M,0000,0000*65
$GPRMC,183040.000,A,4014.3040,N,07512.2020,W,22.92,140.09,100612,,,D*43
$PMTK001,314,3*36
$PMTK001,220,3*30
$PMTK001,185,3*3C
$GPGGA,183041.000,4014.2991,N,07512.1964,$GPGGA,183040.000,4014.3040,N,07512.2020,W,2,12,0.79,6503.8,M,-33.9,M,0000,0000*65
$GPRMC,183040.000,A,4014.3040,N,07512.2020,W,22.92,140.09,100612,,,D*43
$PMTK001,314,3*36
$PMTK001,220,3*30
$PMTK001,185,3*3C
$GPGGA,183041.000,4014.2991,N,07512.1964,$GPGGA,183040.000,4014.3040,N,07512.2020,W,2,12,0.79,6503.8,M,-33.9,M,0000,0000*65
$GPRMC,183040.000,A,4014.3040,N,07512.2020,W,22.92,140.09,100612,,,D*43
$PMTK001,314,3*36
$PMTK001,220,3*30
$PMTK001,185,3*3C
$GPGGA,183041.000,4014.2991,N,07512.1964,$GPGGA,183040.000,4014.3040,N,07512.2020,W,2,12,0.79,6503.8,M,-33.9,M,0000,0000*65
$GPRMC,183040.000,A,4014.3040,N,07512.2020,W,22.92,140.09,100612,,,D*43
$PMTK001,314,3*36
$PMTK001,220,3*30
$PMTK001,185,3*3C
$GPGGA,183041.000,4014.2991,N,07512.1964,$GPGGA,183040.000,4014.3040,N,07512.2020,W,2,12,0.79,6503.8,M,-33.9,M,0000,0000*65
$GPRMC,183040.000,A,4014.3040,N,07512.2020,W,22.92,140.09,100612,,,D*43
$PMTK001,314,3*36
$PMTK001,220,3*30
$PMTK001,185,3*3C
$GPGGA,183041.000,4014.2991,N,07512.1964,$GPGGA,183040.000,4014.3040,N,07512.2020,W,2,12,0.79,6503.8,M,-33.9,M,0000,0000*65
$GPRMC,183040.000,A,4014.3040,N,07512.2020,W,22.92,140.09,100612,,,D*43
$PMTK001,314,3*36
$PMTK001,220,3*30
$PMTK001,185,3*3C
$GPGGA,183041.000,4014.2991,N,07512.1964,$GPGGA,183040.000,4014.3040,N,07512.2020,W,2,12,0.79,6503.8,M,-33.9,M,0000,0000*65
$GPRMC,183040.000,A,4014.3040,N,07512.2020,W,22.92,140.09,100612,,,D*43
$PMTK001,314,3*36
$PMTK001,220,3*30
$PMTK001,185,3*3C
$GPGGA,183041.000,4014.2991,N,07512.1964,$GPGGA,183040.000,4014.3040,N,07512.2020,W,2,12,0.79,6503.8,M,-33.9,M,0000,0000*65
$GPRMC,183040.000,A,4014.3040,N,07512.2020,W,22.92,140.09,100612,,,D*43
$PMTK001,314,3*36
$PMTK001,220,3*30
$PMTK001,185,3*3C
$GPGGA,183041.000,4014.2991,N,07512.1964,$GPGGA,183040.000,4014.3040,N,07512.2020,W,2,12,0.79,6503.8,M,-33.9,M,0000,0000*65
$GPRMC,183040.000,A,4014.3040,N,07512.2020,W,22.92,140.09,100612,,,D*43
$PMTK001,314,3*36
$PMTK001,220,3*30
$PMTK001,185,3*3C
$GPGGA,183041.000,4014.2991,N,07512.1964,$GPGGA,183040.000,4014.3040,N,07512.2020,W,2,12,0.79,6503.8,M,-33.9,M,0000,0000*65
$GPRMC,183040.000,A,4014.3040,N,07512.2020,W,22.92,140.09,100612,,,D*43
$PMTK001,314,3*36
$PMTK001,220,3*30
$PMTK001,185,3*3C
$GPGGA,183041.000,4014.2991,N,07512.1964,$GPGGA,183040.000,4014.3040,N,07512.2020,W,2,12,0.79,6503.8,M,-33.9,M,0000,0000*65
$GPRMC,183040.000,A,4014.3040,N,07512.2020,W,22.92,140.09,100612,,,D*43
$PMTK001,314,3*36
$PMTK001,220,3*30
$PMTK001,185,3*3C
$GPGGA,183041.000,4014.2991,N,07512.1964,$GPGGA,183040.000,4014.3040,N,07512.2020,W,2,12,0.79,6503.8,M,-33.9,M,0000,0000*65
$GPRMC,183040.000,A,4014.3040,N,07512.2020,W,22.92,140.09,100612,,,D*43
$PMTK001,314,3*36
$PMTK001,220,3*30
$PMTK001,185,3*3C
$GPGGA,183041.000,4014.2991,N,07512.1964,$GPGGA,183040.000,4014.3040,N,07512.2020,W,2,12,0.79,6503.8,M,-33.9,M,0000,0000*65
$GPRMC,183040.000,A,4014.3040,N,07512.2020,W,22.92,140.09,100612,,,D*43
$PMTK001,314,3*36
$PMTK001,220,3*30
$PMTK001,185,3*3C
$GPGGA,183041.000,4014.2991,N,07512.1964,$GPGGA,183040.000,4014.3040,N,07512.2020,W,2,12,0.79,6503.8,M,-33.9,M,0000,0000*65
$GPRMC,183040.000,A,4014.3040,N,07512.2020,W,22.92,140.09,100612,,,D*43
$PMTK001,314,3*36
$PMTK001,220,3*30
$PMTK001,185,3*3C
$GPGGA,183041.000,4014.2991,N,07512.1964,$GPGGA,183040.000,4014.3040,N,07512.2020,W,2,12,0.79,6503.8,M,-33.9,M,0000,0000*65
$GPRMC,183040.000,A,4014.3040,N,07512.2020,W,22.92,140.09,100612,,,D*43
$PMTK001,314,3*36
$PMTK001,220,3*30
$PMTK001,185,3*3C
$GPGGA,183041.000,4014.2991,N,07512.1964,$GPGGA,183040.000,4014.3040,N,07512.2020,W,2,12,0.79,6503.8,M,-33.9,M,0000,0000*65
$GPRMC,183040.000,A,4014.3040,N,07512.2020,W,22.92,140.09,100612,,,D*43
$PMTK001,314,3*36
$PMTK001,220,3*30
$PMTK001,185,3*3C
$GPGGA,183041.000,4014.2991,N,07512.1964,$GPGGA,183040.000,4014.3040,N,07512.2020,W,2,12,0.79,6503.8,M,-33.9,M,0000,0000*65
$GPRMC,183040.000,A,4014.3040,N,07512.2020,W,22.92,140.09,100612,,,D*43
$PMTK001,314,3*36
$PMTK001,220,3*30
$PMTK001,185,3*3C
$GPGGA,183041.000,4014.2991,N,07512.1964,$GPGGA,183040.000,4014.3040,N,07512.2020,W,2,12,0.79,6503.8,M,-33.9,M,0000,0000*65
$GPRMC,183040.000,A,4014.3040,N,07512.2020,W,22.92,140.09,100612,,,D*43
$PMTK001,314,3*36
$PMTK001,220,3*30
$PMTK001,185,3*3C
$GPGGA,183041.000,4014.2991,N,07512.1964,$GPGGA,183040.000,4014.3040,N,07512.2020,W,2,12,0.79,6503.8,M,-33.9,M,0000,0000*65
$GPRMC,183040.000,A,4014.3040,N,07512.2020,W,22.92,140.09,100612,,,D*43
$PMTK001,314,3*36
$PMTK001,220,3*30
$PMTK001,185,3*3C
$GPGGA,183041.000,4014.2991,N,07512.1964,$GPGGA,183040.000,4014.3040,N,07512.2020,W,2,12,0.79,6503.8,M,-33.9,M,0000,0000*65
$GPRMC,183040.000,A,4014.3040,N,07512.2020,W,22.92,140.09,100612,,,D*43
$PMTK001,314,3*36
$PMTK001,220,3*30
$PMTK001,185,3*3C
$GPGGA,183041.000,4014.2991,N,07512.1964,$GPGGA,183040.000,4014.3040,N,07512.2020,W,2,12,0.79,6503.8,M,-33.9,M,0000,0000*65
$GPRMC,183040.000,A,4014.3040,N,07512.2020,W,22.92,140.09,100612,,,D*43
$PMTK001,314,3*36
$PMTK001,220,3*30
$PMTK001,185,3*3C
$GPGGA,183041.000,4014.2991,N,07512.1964,$GPGGA,183040.000,4014.3040,N,07512.2020,W,2,12,0.79,6503.8,M,-33.9,M,0000,0000*65
$GPRMC,183040.000,A,4014.3040,N,07512.2020,W,22.92,140.09,100612,,,D*43
$PMTK001,314,3*36
$PMTK001,220,3*30
$PMTK001,185,3*3C
$GPGGA,183041.000,4014.2991,N,07512.1964,$GPGGA,183040.000,4014.3040,N,07512.2020,W,2,12,0.79,6503.8,M,-33.9,M,0000,0000*65
$GPRMC,183040.000,A,4014.3040,N,07512.2020,W,22.92,140.09,100612,,,D*43
$PMTK001,314,3*36
$PMTK001,220,3*30
$PMTK001,185,3*3C
$GPGGA,183041.000,4014.2991,N,07512.1964,$GPGGA,183040.000,4014.3040,N,07512.2020,W,2,12,0.79,6503.8,M,-33.9,M,0000,0000*65
$GPRMC,183040.000,A,4014.3040,N,07512.2020,W,22.92,140.09,100612,,,D*43
$PMTK001,314,3*36
$PMTK001,220,3*30
$PMTK001,185,3*3C
$GPGGA,183041.000,4014.2991,N,07512.1964,$GPGGA,183040.000,4014.3040,N,07512.2020,W,2,12,0.79,6503.8,M,-33.9,M,0000,0000*65
$GPRMC,183040.000,A,4014.3040,N,07512.2020,W,22.92,140.09,100612,,,D*43
$PMTK001,314,3*36
$PMTK001,220,3*30
$PMTK001,185,3*3C
$GPGGA,183041.000,4014.2991,N,07512.1964,$GPGGA,183040.000,4014.3040,N,07512.2020,W,2,12,0.79,6503.8,M,-33.9,M,0000,0000*65
$GPRMC,183040.000,A,4014.3040,N,07512.2020,W,22.92,140.09,100612,,,D*43
$PMTK001,314,3*36
$PMTK001,220,3*30
$PMTK001,185,3*3C
$GPGGA,183041.000,4014.2991,N,07512.1964,$GPGGA,183040.000,4014.3040,N,07512.2020,W,2,12,0.79,6503.8,M,-33.9,M,0000,0000*65
$GPRMC,183040.000,A,4014.3040,N,07512.2020,W,22.92,140.09,100612,,,D*43
$PMTK001,314,3*36
$PMTK001,220,3*30
$PMTK001,185,3*3C
$GPGGA,183041.000,4014.2991,N,07512.1964,$GPGGA,183040.000,4014.3040,N,07512.2020,W,2,12,0.79,6503.8,M,-33.9,M,0000,0000*65
$GPRMC,183040.000,A,4014.3040,N,07512.2020,W,22.92,140.09,100612,,,D*43
$PMTK001,314,3*36
$PMTK001,220,3*30
$PMTK001,185,3*3C
$GPGGA,183041.000,4014.2991,N,07512.1964,