Æbb"©4C
$PMTK001,314,3*36
$PMTK001,220,3*30
$PMTK001,185,3*3C
$GPGGA,161238.000,4026.7496,N,07520.5899,W,2,9,0.90,155.2,M,-33.9,M,0000,0000*64
$GPRMC,161238.000,A,4026.7496,N,07520.5899,W,0.00,96.86,100612,,,D*42
$GPGGA,161239.000,4026.7496,N,07520.Æbb"©4C
$PMTK001,314,3*36
$PMTK001,220,3*30
$PMTK001,185,3*3C
$GPGGA,161238.000,4026.7496,N,07520.5899,W,2,9,0.90,155.2,M,-33.9,M,0000,0000*64
$GPRMC,161238.000,A,4026.7496,N,07520.5899,W,0.00,96.86,100612,,,D*42
$GPGGA,161239.000,4026.7496,N,07520.Æbb"©4C
$PMTK001,314,3*36
$PMTK001,220,3*30
$PMTK001,185,3*3C
$GPGGA,161238.000,4026.7496,N,07520.5899,W,2,9,0.90,155.2,M,-33.9,M,0000,0000*64
$GPRMC,161238.000,A,4026.7496,N,07520.5899,W,0.00,96.86,100612,,,D*42
$GPGGA,161239.000,4026.7496,N,07520.Æbb"©4C
$PMTK001,314,3*36
$PMTK001,220,3*30
$PMTK001,185,3*3C
$GPGGA,161238.000,4026.7496,N,07520.5899,W,2,9,0.90,155.2,M,-33.9,M,0000,0000*64
$GPRMC,161238.000,A,4026.7496,N,07520.5899,W,0.00,96.86,100612,,,D*42
$GPGGA,161239.000,4026.7496,N,07520.Æbb"©4C
$PMTK001,314,3*36
$PMTK001,220,3*30
$PMTK001,185,3*3C
$GPGGA,161238.000,4026.7496,N,07520.5899,W,2,9,0.90,155.2,M,-33.9,M,0000,0000*64
$GPRMC,161238.000,A,4026.7496,N,07520.5899,W,0.00,96.86,100612,,,D*42
$GPGGA,161239.000,4026.7496,N,07520.Æbb"©4C
$PMTK001,314,3*36
$PMTK001,220,3*30
$PMTK001,185,3*3C
$GPGGA,161238.000,4026.7496,N,07520.5899,W,2,9,0.90,155.2,M,-33.9,M,0000,0000*64
$GPRMC,161238.000,A,4026.7496,N,07520.5899,W,0.00,96.86,100612,,,D*42
$GPGGA,161239.000,4026.7496,N,07520.Æbb"©4C
$PMTK001,314,3*36
$PMTK001,220,3*30
$PMTK001,185,3*3C
$GPGGA,161238.000,4026.7496,N,07520.5899,W,2,9,0.90,155.2,M,-33.9,M,0000,0000*64
$GPRMC,161238.000,A,4026.7496,N,07520.5899,W,0.00,96.86,100612,,,D*42
$GPGGA,161239.000,4026.7496,N,07520.Æbb"©4C
$PMTK001,314,3*36
$PMTK001,220,3*30
$PMTK001,185,3*3C
$GPGGA,161238.000,4026.7496,N,07520.5899,W,2,9,0.90,155.2,M,-33.9,M,0000,0000*64
$GPRMC,161238.000,A,4026.7496,N,07520.5899,W,0.00,96.86,100612,,,D*42
$GPGGA,161239.000,4026.7496,N,07520.Æbb"©4C
$PMTK001,314,3*36
$PMTK001,220,3*30
$PMTK001,185,3*3C
$GPGGA,161238.000,4026.7496,N,07520.5899,W,2,9,0.90,155.2,M,-33.9,M,0000,0000*64
$GPRMC,161238.000,A,4026.7496,N,07520.5899,W,0.00,96.86,100612,,,D*42
$GPGGA,161239.000,4026.7496,N,07520.Æbb"©4C
$PMTK001,314,3*36
$PMTK001,220,3*30
$PMTK001,185,3*3C
$GPGGA,161238.000,4026.7496,N,07520.5899,W,2,9,0.90,155.2,M,-33.9,M,0000,0000*64
$GPRMC,161238.000,A,4026.7496,N,07520.5899,W,0.00,96.86,100612,,,D*42
$GPGGA,161239.000,4026.7496,N,07520.Æbb"©4C
$PMTK001,314,3*36
$PMTK001,220,3*30
$PMTK001,185,3*3C
$GPGGA,161238.000,4026.7496,N,07520.5899,W,2,9,0.90,155.2,M,-33.9,M,0000,0000*64
$GPRMC,161238.000,A,4026.7496,N,07520.5899,W,0.00,96.86,100612,,,D*42
$GPGGA,161239.000,4026.7496,N,07520.Æbb"©4C
$PMTK001,314,3*36
$PMTK001,220,3*30
$PMTK001,185,3*3C
$GPGGA,161238.000,4026.7496,N,07520.5899,W,2,9,0.90,155.2,M,-33.9,M,0000,0000*64
$GPRMC,161238.000,A,4026.7496,N,07520.5899,W,0.00,96.86,100612,,,D*42
$GPGGA,161239.000,4026.7496,N,07520.Æbb"©4C
$PMTK001,314,3*36
$PMTK001,220,3*30
$PMTK001,185,3*3C
$GPGGA,161238.000,4026.7496,N,07520.5899,W,2,9,0.90,155.2,M,-33.9,M,0000,0000*64
$GPRMC,161238.000,A,4026.7496,N,07520.5899,W,0.00,96.86,100612,,,D*42
$GPGGA,161239.000,4026.7496,N,07520.Æbb"©4C
$PMTK001,314,3*36
$PMTK001,220,3*30
$PMTK001,185,3*3C
$GPGGA,161238.000,4026.7496,N,07520.5899,W,2,9,0.90,155.2,M,-33.9,M,0000,0000*64
$GPRMC,161238.000,A,4026.7496,N,07520.5899,W,0.00,96.86,100612,,,D*42
$GPGGA,161239.000,4026.7496,N,07520.Æbb"©4C
$PMTK001,314,3*36
$PMTK001,220,3*30
$PMTK001,185,3*3C
$GPGGA,161238.000,4026.7496,N,07520.5899,W,2,9,0.90,155.2,M,-33.9,M,0000,0000*64
$GPRMC,161238.000,A,4026.7496,N,07520.5899,W,0.00,96.86,100612,,,D*42
$GPGGA,161239.000,4026.7496,N,07520.Æbb"©4C
$PMTK001,314,3*36
$PMTK001,220,3*30
$PMTK001,185,3*3C
$GPGGA,161238.000,4026.7496,N,07520.5899,W,2,9,0.90,155.2,M,-33.9,M,0000,0000*64
$GPRMC,161238.000,A,4026.7496,N,07520.5899,W,0.00,96.86,100612,,,D*42
$GPGGA,161239.000,4026.7496,N,07520.Æbb"©4C
$PMTK001,314,3*36
$PMTK001,220,3*30
$PMTK001,185,3*3C
$GPGGA,161238.000,4026.7496,N,07520.5899,W,2,9,0.90,155.2,M,-33.9,M,0000,0000*64
$GPRMC,161238.000,A,4026.7496,N,07520.5899,W,0.00,96.86,100612,,,D*42
$GPGGA,161239.000,4026.7496,N,07520.Æbb"©4C
$PMTK001,314,3*36
$PMTK001,220,3*30
$PMTK001,185,3*3C
$GPGGA,161238.000,4026.7496,N,07520.5899,W,2,9,0.90,155.2,M,-33.9,M,0000,0000*64
$GPRMC,161238.000,A,4026.7496,N,07520.5899,W,0.00,96.86,100612,,,D*42
$GPGGA,161239.000,4026.7496,N,07520.Æbb"©4C
$PMTK001,314,3*36
$PMTK001,220,3*30
$PMTK001,185,3*3C
$GPGGA,161238.000,4026.7496,N,07520.5899,W,2,9,0.90,155.2,M,-33.9,M,0000,0000*64
$GPRMC,161238.000,A,4026.7496,N,07520.5899,W,0.00,96.86,100612,,,D*42
$GPGGA,161239.000,4026.7496,N,07520.Æbb"©4C
$PMTK001,314,3*36
$PMTK001,220,3*30
$PMTK001,185,3*3C
$GPGGA,161238.000,4026.7496,N,07520.5899,W,2,9,0.90,155.2,M,-33.9,M,0000,0000*64
$GPRMC,161238.000,A,4026.7496,N,07520.5899,W,0.00,96.86,100612,,,D*42
$GPGGA,161239.000,4026.7496,N,07520.Æbb"©4C
$PMTK001,314,3*36
$PMTK001,220,3*30
$PMTK001,185,3*3C
$GPGGA,161238.000,4026.7496,N,07520.5899,W,2,9,0.90,155.2,M,-33.9,M,0000,0000*64
$GPRMC,161238.000,A,4026.7496,N,07520.5899,W,0.00,96.86,100612,,,D*42
$GPGGA,161239.000,4026.7496,N,07520.Æbb"©4C
$PMTK001,314,3*36
$PMTK001,220,3*30
$PMTK001,185,3*3C
$GPGGA,161238.000,4026.7496,N,07520.5899,W,2,9,0.90,155.2,M,-33.9,M,0000,0000*64
$GPRMC,161238.000,A,4026.7496,N,07520.5899,W,0.00,96.86,100612,,,D*42
$GPGGA,161239.000,4026.7496,N,07520.Æbb"©4C
$PMTK001,314,3*36
$PMTK001,220,3*30
$PMTK001,185,3*3C
$GPGGA,161238.000,4026.7496,N,07520.5899,W,2,9,0.90,155.2,M,-33.9,M,0000,0000*64
$GPRMC,161238.000,A,4026.7496,N,07520.5899,W,0.00,96.86,100612,,,D*42
$GPGGA,161239.000,4026.7496,N,07520.Æbb"©4C
$PMTK001,314,3*36
$PMTK001,220,3*30
$PMTK001,185,3*3C
$GPGGA,161238.000,4026.7496,N,07520.5899,W,2,9,0.90,155.2,M,-33.9,M,0000,0000*64
$GPRMC,161238.000,A,4026.7496,N,07520.5899,W,0.00,96.86,100612,,,D*42
$GPGGA,161239.000,4026.7496,N,07520.Æbb"©4C
$PMTK001,314,3*36
$PMTK001,220,3*30
$PMTK001,185,3*3C
$GPGGA,161238.000,4026.7496,N,07520.5899,W,2,9,0.90,155.2,M,-33.9,M,0000,0000*64
$GPRMC,161238.000,A,4026.7496,N,07520.5899,W,0.00,96.86,100612,,,D*42
$GPGGA,161239.000,4026.7496,N,07520.Æbb"©4C
$PMTK001,314,3*36
$PMTK001,220,3*30
$PMTK001,185,3*3C
$GPGGA,161238.000,4026.7496,N,07520.5899,W,2,9,0.90,155.2,M,-33.9,M,0000,0000*64
$GPRMC,161238.000,A,4026.7496,N,07520.5899,W,0.00,96.86,100612,,,D*42
$GPGGA,161239.000,4026.7496,N,07520.