³’bbb"©70
$PMTK001,314,3*36
$PMTK001,220,3*30
$PMTK001,185,3*3C
$GPGGA,174437.000,4026.6867,N,07520.6072,W,2,10,0.81,148.9,M,-33.9,M,0000,0000*5B
$GPRMC,174437.000,A,4026.6867,N,07520.6072,W,1.86,241.78,100612,,,D*74
$GPGGA,174438.000,4026.6866,N,07³’bbb"©70
$PMTK001,314,3*36
$PMTK001,220,3*30
$PMTK001,185,3*3C
$GPGGA,174437.000,4026.6867,N,07520.6072,W,2,10,0.81,148.9,M,-33.9,M,0000,0000*5B
$GPRMC,174437.000,A,4026.6867,N,07520.6072,W,1.86,241.78,100612,,,D*74
$GPGGA,174438.000,4026.6866,N,07³’bbb"©70
$PMTK001,314,3*36
$PMTK001,220,3*30
$PMTK001,185,3*3C
$GPGGA,174437.000,4026.6867,N,07520.6072,W,2,10,0.81,148.9,M,-33.9,M,0000,0000*5B
$GPRMC,174437.000,A,4026.6867,N,07520.6072,W,1.86,241.78,100612,,,D*74
$GPGGA,174438.000,4026.6866,N,07³’bbb"©70
$PMTK001,314,3*36
$PMTK001,220,3*30
$PMTK001,185,3*3C
$GPGGA,174437.000,4026.6867,N,07520.6072,W,2,10,0.81,148.9,M,-33.9,M,0000,0000*5B
$GPRMC,174437.000,A,4026.6867,N,07520.6072,W,1.86,241.78,100612,,,D*74
$GPGGA,174438.000,4026.6866,N,07³’bbb"©70
$PMTK001,314,3*36
$PMTK001,220,3*30
$PMTK001,185,3*3C
$GPGGA,174437.000,4026.6867,N,07520.6072,W,2,10,0.81,148.9,M,-33.9,M,0000,0000*5B
$GPRMC,174437.000,A,4026.6867,N,07520.6072,W,1.86,241.78,100612,,,D*74
$GPGGA,174438.000,4026.6866,N,07³’bbb"©70
$PMTK001,314,3*36
$PMTK001,220,3*30
$PMTK001,185,3*3C
$GPGGA,174437.000,4026.6867,N,07520.6072,W,2,10,0.81,148.9,M,-33.9,M,0000,0000*5B
$GPRMC,174437.000,A,4026.6867,N,07520.6072,W,1.86,241.78,100612,,,D*74
$GPGGA,174438.000,4026.6866,N,07³’bbb"©70
$PMTK001,314,3*36
$PMTK001,220,3*30
$PMTK001,185,3*3C
$GPGGA,174437.000,4026.6867,N,07520.6072,W,2,10,0.81,148.9,M,-33.9,M,0000,0000*5B
$GPRMC,174437.000,A,4026.6867,N,07520.6072,W,1.86,241.78,100612,,,D*74
$GPGGA,174438.000,4026.6866,N,07³’bbb"©70
$PMTK001,314,3*36
$PMTK001,220,3*30
$PMTK001,185,3*3C
$GPGGA,174437.000,4026.6867,N,07520.6072,W,2,10,0.81,148.9,M,-33.9,M,0000,0000*5B
$GPRMC,174437.000,A,4026.6867,N,07520.6072,W,1.86,241.78,100612,,,D*74
$GPGGA,174438.000,4026.6866,N,07³’bbb"©70
$PMTK001,314,3*36
$PMTK001,220,3*30
$PMTK001,185,3*3C
$GPGGA,174437.000,4026.6867,N,07520.6072,W,2,10,0.81,148.9,M,-33.9,M,0000,0000*5B
$GPRMC,174437.000,A,4026.6867,N,07520.6072,W,1.86,241.78,100612,,,D*74
$GPGGA,174438.000,4026.6866,N,07³’bbb"©70
$PMTK001,314,3*36
$PMTK001,220,3*30
$PMTK001,185,3*3C
$GPGGA,174437.000,4026.6867,N,07520.6072,W,2,10,0.81,148.9,M,-33.9,M,0000,0000*5B
$GPRMC,174437.000,A,4026.6867,N,07520.6072,W,1.86,241.78,100612,,,D*74
$GPGGA,174438.000,4026.6866,N,07³’bbb"©70
$PMTK001,314,3*36
$PMTK001,220,3*30
$PMTK001,185,3*3C
$GPGGA,174437.000,4026.6867,N,07520.6072,W,2,10,0.81,148.9,M,-33.9,M,0000,0000*5B
$GPRMC,174437.000,A,4026.6867,N,07520.6072,W,1.86,241.78,100612,,,D*74
$GPGGA,174438.000,4026.6866,N,07³’bbb"©70
$PMTK001,314,3*36
$PMTK001,220,3*30
$PMTK001,185,3*3C
$GPGGA,174437.000,4026.6867,N,07520.6072,W,2,10,0.81,148.9,M,-33.9,M,0000,0000*5B
$GPRMC,174437.000,A,4026.6867,N,07520.6072,W,1.86,241.78,100612,,,D*74
$GPGGA,174438.000,4026.6866,N,07³’bbb"©70
$PMTK001,314,3*36
$PMTK001,220,3*30
$PMTK001,185,3*3C
$GPGGA,174437.000,4026.6867,N,07520.6072,W,2,10,0.81,148.9,M,-33.9,M,0000,0000*5B
$GPRMC,174437.000,A,4026.6867,N,07520.6072,W,1.86,241.78,100612,,,D*74
$GPGGA,174438.000,4026.6866,N,07³’bbb"©70
$PMTK001,314,3*36
$PMTK001,220,3*30
$PMTK001,185,3*3C
$GPGGA,174437.000,4026.6867,N,07520.6072,W,2,10,0.81,148.9,M,-33.9,M,0000,0000*5B
$GPRMC,174437.000,A,4026.6867,N,07520.6072,W,1.86,241.78,100612,,,D*74
$GPGGA,174438.000,4026.6866,N,07³’bbb"©70
$PMTK001,314,3*36
$PMTK001,220,3*30
$PMTK001,185,3*3C
$GPGGA,174437.000,4026.6867,N,07520.6072,W,2,10,0.81,148.9,M,-33.9,M,0000,0000*5B
$GPRMC,174437.000,A,4026.6867,N,07520.6072,W,1.86,241.78,100612,,,D*74
$GPGGA,174438.000,4026.6866,N,07³’bbb"©70
$PMTK001,314,3*36
$PMTK001,220,3*30
$PMTK001,185,3*3C
$GPGGA,174437.000,4026.6867,N,07520.6072,W,2,10,0.81,148.9,M,-33.9,M,0000,0000*5B
$GPRMC,174437.000,A,4026.6867,N,07520.6072,W,1.86,241.78,100612,,,D*74
$GPGGA,174438.000,4026.6866,N,07³’bbb"©70
$PMTK001,314,3*36
$PMTK001,220,3*30
$PMTK001,185,3*3C
$GPGGA,174437.000,4026.6867,N,07520.6072,W,2,10,0.81,148.9,M,-33.9,M,0000,0000*5B
$GPRMC,174437.000,A,4026.6867,N,07520.6072,W,1.86,241.78,100612,,,D*74
$GPGGA,174438.000,4026.6866,N,07³’bbb"©70
$PMTK001,314,3*36
$PMTK001,220,3*30
$PMTK001,185,3*3C
$GPGGA,174437.000,4026.6867,N,07520.6072,W,2,10,0.81,148.9,M,-33.9,M,0000,0000*5B
$GPRMC,174437.000,A,4026.6867,N,07520.6072,W,1.86,241.78,100612,,,D*74
$GPGGA,174438.000,4026.6866,N,07³’bbb"©70
$PMTK001,314,3*36
$PMTK001,220,3*30
$PMTK001,185,3*3C
$GPGGA,174437.000,4026.6867,N,07520.6072,W,2,10,0.81,148.9,M,-33.9,M,0000,0000*5B
$GPRMC,174437.000,A,4026.6867,N,07520.6072,W,1.86,241.78,100612,,,D*74
$GPGGA,174438.000,4026.6866,N,07³’bbb"©70
$PMTK001,314,3*36
$PMTK001,220,3*30
$PMTK001,185,3*3C
$GPGGA,174437.000,4026.6867,N,07520.6072,W,2,10,0.81,148.9,M,-33.9,M,0000,0000*5B
$GPRMC,174437.000,A,4026.6867,N,07520.6072,W,1.86,241.78,100612,,,D*74
$GPGGA,174438.000,4026.6866,N,07³’bbb"©70
$PMTK001,314,3*36
$PMTK001,220,3*30
$PMTK001,185,3*3C
$GPGGA,174437.000,4026.6867,N,07520.6072,W,2,10,0.81,148.9,M,-33.9,M,0000,0000*5B
$GPRMC,174437.000,A,4026.6867,N,07520.6072,W,1.86,241.78,100612,,,D*74
$GPGGA,174438.000,4026.6866,N,07³’bbb"©70
$PMTK001,314,3*36
$PMTK001,220,3*30
$PMTK001,185,3*3C
$GPGGA,174437.000,4026.6867,N,07520.6072,W,2,10,0.81,148.9,M,-33.9,M,0000,0000*5B
$GPRMC,174437.000,A,4026.6867,N,07520.6072,W,1.86,241.78,100612,,,D*74
$GPGGA,174438.000,4026.6866,N,07³’bbb"©70
$PMTK001,314,3*36
$PMTK001,220,3*30
$PMTK001,185,3*3C
$GPGGA,174437.000,4026.6867,N,07520.6072,W,2,10,0.81,148.9,M,-33.9,M,0000,0000*5B
$GPRMC,174437.000,A,4026.6867,N,07520.6072,W,1.86,241.78,100612,,,D*74
$GPGGA,174438.000,4026.6866,N,07³’bbb"©70
$PMTK001,314,3*36
$PMTK001,220,3*30
$PMTK001,185,3*3C
$GPGGA,174437.000,4026.6867,N,07520.6072,W,2,10,0.81,148.9,M,-33.9,M,0000,0000*5B
$GPRMC,174437.000,A,4026.6867,N,07520.6072,W,1.86,241.78,100612,,,D*74
$GPGGA,174438.000,4026.6866,N,07³’bbb"©70
$PMTK001,314,3*36
$PMTK001,220,3*30
$PMTK001,185,3*3C
$GPGGA,174437.000,4026.6867,N,07520.6072,W,2,10,0.81,148.9,M,-33.9,M,0000,0000*5B
$GPRMC,174437.000,A,4026.6867,N,07520.6072,W,1.86,241.78,100612,,,D*74
$GPGGA,174438.000,4026.6866,N,07³’bbb"©70
$PMTK001,314,3*36
$PMTK001,220,3*30
$PMTK001,185,3*3C
$GPGGA,174437.000,4026.6867,N,07520.6072,W,2,10,0.81,148.9,M,-33.9,M,0000,0000*5B
$GPRMC,174437.000,A,4026.6867,N,07520.6072,W,1.86,241.78,100612,,,D*74
$GPGGA,174438.000,4026.6866,N,07³’bbb"©70
$PMTK001,314,3*36
$PMTK001,220,3*30
$PMTK001,185,3*3C
$GPGGA,174437.000,4026.6867,N,07520.6072,W,2,10,0.81,148.9,M,-33.9,M,0000,0000*5B
$GPRMC,174437.000,A,4026.6867,N,07520.6072,W,1.86,241.78,100612,,,D*74
$GPGGA,174438.000,4026.6866,N,07³’bbb"©70
$PMTK001,314,3*36
$PMTK001,220,3*30
$PMTK001,185,3*3C
$GPGGA,174437.000,4026.6867,N,07520.6072,W,2,10,0.81,148.9,M,-33.9,M,0000,0000*5B
$GPRMC,174437.000,A,4026.6867,N,07520.6072,W,1.86,241.78,100612,,,D*74
$GPGGA,174438.000,4026.6866,N,07³’bbb"©70
$PMTK001,314,3*36
$PMTK001,220,3*30
$PMTK001,185,3*3C
$GPGGA,174437.000,4026.6867,N,07520.6072,W,2,10,0.81,148.9,M,-33.9,M,0000,0000*5B
$GPRMC,174437.000,A,4026.6867,N,07520.6072,W,1.86,241.78,100612,,,D*74
$GPGGA,174438.000,4026.6866,N,07³’bbb"©70
$PMTK001,314,3*36
$PMTK001,220,3*30
$PMTK001,185,3*3C
$GPGGA,174437.000,4026.6867,N,07520.6072,W,2,10,0.81,148.9,M,-33.9,M,0000,0000*5B
$GPRMC,174437.000,A,4026.6867,N,07520.6072,W,1.86,241.78,100612,,,D*74
$GPGGA,174438.000,4026.6866,N,07³’bbb"©70
$PMTK001,314,3*36
$PMTK001,220,3*30
$PMTK001,185,3*3C
$GPGGA,174437.000,4026.6867,N,07520.6072,W,2,10,0.81,148.9,M,-33.9,M,0000,0000*5B
$GPRMC,174437.000,A,4026.6867,N,07520.6072,W,1.86,241.78,100612,,,D*74
$GPGGA,174438.000,4026.6866,N,07³’bbb"©70
$PMTK001,314,3*36
$PMTK001,220,3*30
$PMTK001,185,3*3C
$GPGGA,174437.000,4026.6867,N,07520.6072,W,2,10,0.81,148.9,M,-33.9,M,0000,0000*5B
$GPRMC,174437.000,A,4026.6867,N,07520.6072,W,1.86,241.78,100612,,,D*74
$GPGGA,174438.000,4026.6866,N,07³’bbb"©70
$PMTK001,314,3*36
$PMTK001,220,3*30
$PMTK001,185,3*3C
$GPGGA,174437.000,4026.6867,N,07520.6072,W,2,10,0.81,148.9,M,-33.9,M,0000,0000*5B
$GPRMC,174437.000,A,4026.6867,N,07520.6072,W,1.86,241.78,100612,,,D*74
$GPGGA,174438.000,4026.6866,N,07³’bbb"©70
$PMTK001,314,3*36
$PMTK001,220,3*30
$PMTK001,185,3*3C
$GPGGA,174437.000,4026.6867,N,07520.6072,W,2,10,0.81,148.9,M,-33.9,M,0000,0000*5B
$GPRMC,174437.000,A,4026.6867,N,07520.6072,W,1.86,241.78,100612,,,D*74
$GPGGA,174438.000,4026.6866,N,07³’bbb"©70
$PMTK001,314,3*36
$PMTK001,220,3*30
$PMTK001,185,3*3C
$GPGGA,174437.000,4026.6867,N,07520.6072,W,2,10,0.81,148.9,M,-33.9,M,0000,0000*5B
$GPRMC,174437.000,A,4026.6867,N,07520.6072,W,1.86,241.78,100612,,,D*74
$GPGGA,174438.000,4026.6866,N,07³’bbb"©70
$PMTK001,314,3*36
$PMTK001,220,3*30
$PMTK001,185,3*3C
$GPGGA,174437.000,4026.6867,N,07520.6072,W,2,10,0.81,148.9,M,-33.9,M,0000,0000*5B
$GPRMC,174437.000,A,4026.6867,N,07520.6072,W,1.86,241.78,100612,,,D*74
$GPGGA,174438.000,4026.6866,N,07³’bbb"©70
$PMTK001,314,3*36
$PMTK001,220,3*30
$PMTK001,185,3*3C
$GPGGA,174437.000,4026.6867,N,07520.6072,W,2,10,0.81,148.9,M,-33.9,M,0000,0000*5B
$GPRMC,174437.000,A,4026.6867,N,07520.6072,W,1.86,241.78,100612,,,D*74
$GPGGA,174438.000,4026.6866,N,07³’bbb"©70
$PMTK001,314,3*36
$PMTK001,220,3*30
$PMTK001,185,3*3C
$GPGGA,174437.000,4026.6867,N,07520.6072,W,2,10,0.81,148.9,M,-33.9,M,0000,0000*5B
$GPRMC,174437.000,A,4026.6867,N,07520.6072,W,1.86,241.78,100612,,,D*74
$GPGGA,174438.000,4026.6866,N,07³’bbb"©70
$PMTK001,314,3*36
$PMTK001,220,3*30
$PMTK001,185,3*3C
$GPGGA,174437.000,4026.6867,N,07520.6072,W,2,10,0.81,148.9,M,-33.9,M,0000,0000*5B
$GPRMC,174437.000,A,4026.6867,N,07520.6072,W,1.86,241.78,100612,,,D*74
$GPGGA,174438.000,4026.6866,N,07³’bbb"©70
$PMTK001,314,3*36
$PMTK001,220,3*30
$PMTK001,185,3*3C
$GPGGA,174437.000,4026.6867,N,07520.6072,W,2,10,0.81,148.9,M,-33.9,M,0000,0000*5B
$GPRMC,174437.000,A,4026.6867,N,07520.6072,W,1.86,241.78,100612,,,D*74
$GPGGA,174438.000,4026.6866,N,07³’bbb"©70
$PMTK001,314,3*36
$PMTK001,220,3*30
$PMTK001,185,3*3C
$GPGGA,174437.000,4026.6867,N,07520.6072,W,2,10,0.81,148.9,M,-33.9,M,0000,0000*5B
$GPRMC,174437.000,A,4026.6867,N,07520.6072,W,1.86,241.78,100612,,,D*74
$GPGGA,174438.000,4026.6866,N,07³’bbb"©70
$PMTK001,314,3*36
$PMTK001,220,3*30
$PMTK001,185,3*3C
$GPGGA,174437.000,4026.6867,N,07520.6072,W,2,10,0.81,148.9,M,-33.9,M,0000,0000*5B
$GPRMC,174437.000,A,4026.6867,N,07520.6072,W,1.86,241.78,100612,,,D*74
$GPGGA,174438.000,4026.6866,N,07³’bbb"©70
$PMTK001,314,3*36
$PMTK001,220,3*30
$PMTK001,185,3*3C
$GPGGA,174437.000,4026.6867,N,07520.6072,W,2,10,0.81,148.9,M,-33.9,M,0000,0000*5B
$GPRMC,174437.000,A,4026.6867,N,07520.6072,W,1.86,241.78,100612,,,D*74
$GPGGA,174438.000,4026.6866,N,07³’bbb"©70
$PMTK001,314,3*36
$PMTK001,220,3*30
$PMTK001,185,3*3C
$GPGGA,174437.000,4026.6867,N,07520.6072,W,2,10,0.81,148.9,M,-33.9,M,0000,0000*5B
$GPRMC,174437.000,A,4026.6867,N,07520.6072,W,1.86,241.78,100612,,,D*74
$GPGGA,174438.000,4026.6866,N,07³’bbb"©70
$PMTK001,314,3*36
$PMTK001,220,3*30
$PMTK001,185,3*3C
$GPGGA,174437.000,4026.6867,N,07520.6072,W,2,10,0.81,148.9,M,-33.9,M,0000,0000*5B
$GPRMC,174437.000,A,4026.6867,N,07520.6072,W,1.86,241.78,100612,,,D*74
$GPGGA,174438.000,4026.6866,N,07³’bbb"©70
$PMTK001,314,3*36
$PMTK001,220,3*30
$PMTK001,185,3*3C
$GPGGA,174437.000,4026.6867,N,07520.6072,W,2,10,0.81,148.9,M,-33.9,M,0000,0000*5B
$GPRMC,174437.000,A,4026.6867,N,07520.6072,W,1.86,241.78,100612,,,D*74
$GPGGA,174438.000,4026.6866,N,07³’bbb"©70
$PMTK001,314,3*36
$PMTK001,220,3*30
$PMTK001,185,3*3C
$GPGGA,174437.000,4026.6867,N,07520.6072,W,2,10,0.81,148.9,M,-33.9,M,0000,0000*5B
$GPRMC,174437.000,A,4026.6867,N,07520.6072,W,1.86,241.78,100612,,,D*74
$GPGGA,174438.000,4026.6866,N,07³’bbb"©70
$PMTK001,314,3*36
$PMTK001,220,3*30
$PMTK001,185,3*3C
$GPGGA,174437.000,4026.6867,N,07520.6072,W,2,10,0.81,148.9,M,-33.9,M,0000,0000*5B
$GPRMC,174437.000,A,4026.6867,N,07520.6072,W,1.86,241.78,100612,,,D*74
$GPGGA,174438.000,4026.6866,N,07³’bbb"©70
$PMTK001,314,3*36
$PMTK001,220,3*30
$PMTK001,185,3*3C
$GPGGA,174437.000,4026.6867,N,07520.6072,W,2,10,0.81,148.9,M,-33.9,M,0000,0000*5B
$GPRMC,174437.000,A,4026.6867,N,07520.6072,W,1.86,241.78,100612,,,D*74
$GPGGA,174438.000,4026.6866,N,07³’bbb"©70
$PMTK001,314,3*36
$PMTK001,220,3*30
$PMTK001,185,3*3C
$GPGGA,174437.000,4026.6867,N,07520.6072,W,2,10,0.81,148.9,M,-33.9,M,0000,0000*5B
$GPRMC,174437.000,A,4026.6867,N,07520.6072,W,1.86,241.78,100612,,,D*74
$GPGGA,174438.000,4026.6866,N,07³’bbb"©70
$PMTK001,314,3*36
$PMTK001,220,3*30
$PMTK001,185,3*3C
$GPGGA,174437.000,4026.6867,N,07520.6072,W,2,10,0.81,148.9,M,-33.9,M,0000,0000*5B
$GPRMC,174437.000,A,4026.6867,N,07520.6072,W,1.86,241.78,100612,,,D*74
$GPGGA,174438.000,4026.6866,N,07³’bbb"©70
$PMTK001,314,3*36
$PMTK001,220,3*30
$PMTK001,185,3*3C
$GPGGA,174437.000,4026.6867,N,07520.6072,W,2,10,0.81,148.9,M,-33.9,M,0000,0000*5B
$GPRMC,174437.000,A,4026.6867,N,07520.6072,W,1.86,241.78,100612,,,D*74
$GPGGA,174438.000,4026.6866,N,07³’bbb"©70
$PMTK001,314,3*36
$PMTK001,220,3*30
$PMTK001,185,3*3C
$GPGGA,174437.000,4026.6867,N,07520.6072,W,2,10,0.81,148.9,M,-33.9,M,0000,0000*5B
$GPRMC,174437.000,A,4026.6867,N,07520.6072,W,1.86,241.78,100612,,,D*74
$GPGGA,174438.000,4026.6866,N,07³’bbb"©70
$PMTK001,314,3*36
$PMTK001,220,3*30
$PMTK001,185,3*3C
$GPGGA,174437.000,4026.6867,N,07520.6072,W,2,10,0.81,148.9,M,-33.9,M,0000,0000*5B
$GPRMC,174437.000,A,4026.6867,N,07520.6072,W,1.86,241.78,100612,,,D*74
$GPGGA,174438.000,4026.6866,N,07³’bbb"©70
$PMTK001,314,3*36
$PMTK001,220,3*30
$PMTK001,185,3*3C
$GPGGA,174437.000,4026.6867,N,07520.6072,W,2,10,0.81,148.9,M,-33.9,M,0000,0000*5B
$GPRMC,174437.000,A,4026.6867,N,07520.6072,W,1.86,241.78,100612,,,D*74
$GPGGA,174438.000,4026.6866,N,07³’bbb"©70
$PMTK001,314,3*36
$PMTK001,220,3*30
$PMTK001,185,3*3C
$GPGGA,174437.000,4026.6867,N,07520.6072,W,2,10,0.81,148.9,M,-33.9,M,0000,0000*5B
$GPRMC,174437.000,A,4026.6867,N,07520.6072,W,1.86,241.78,100612,,,D*74
$GPGGA,174438.000,4026.6866,N,07³’bbb"©70
$PMTK001,314,3*36
$PMTK001,220,3*30
$PMTK001,185,3*3C
$GPGGA,174437.000,4026.6867,N,07520.6072,W,2,10,0.81,148.9,M,-33.9,M,0000,0000*5B
$GPRMC,174437.000,A,4026.6867,N,07520.6072,W,1.86,241.78,100612,,,D*74
$GPGGA,174438.000,4026.6866,N,07³’bbb"©70
$PMTK001,314,3*36
$PMTK001,220,3*30
$PMTK001,185,3*3C
$GPGGA,174437.000,4026.6867,N,07520.6072,W,2,10,0.81,148.9,M,-33.9,M,0000,0000*5B
$GPRMC,174437.000,A,4026.6867,N,07520.6072,W,1.86,241.78,100612,,,D*74
$GPGGA,174438.000,4026.6866,N,07