$GPGGA,185238.000,4007.0109,N,07505.0746,W,2,11,0.85,9329.4,M,-34.0,M,0000,0000*63
$GPRMC,185238.000,A,4007.0109,N,07505.0746,W,26.78,145.65,100612,,,D*49
$PMTK001,314,3*36
$PMTK001,220,3*30
$PMTK001,185,3*3C
$GPGGA,185239.000,4007.0048,N,07505.0688,$GPGGA,185238.000,4007.0109,N,07505.0746,W,2,11,0.85,9329.4,M,-34.0,M,0000,0000*63
$GPRMC,185238.000,A,4007.0109,N,07505.0746,W,26.78,145.65,100612,,,D*49
$PMTK001,314,3*36
$PMTK001,220,3*30
$PMTK001,185,3*3C
$GPGGA,185239.000,4007.0048,N,07505.0688,$GPGGA,185238.000,4007.0109,N,07505.0746,W,2,11,0.85,9329.4,M,-34.0,M,0000,0000*63
$GPRMC,185238.000,A,4007.0109,N,07505.0746,W,26.78,145.65,100612,,,D*49
$PMTK001,314,3*36
$PMTK001,220,3*30
$PMTK001,185,3*3C
$GPGGA,185239.000,4007.0048,N,07505.0688,$GPGGA,185238.000,4007.0109,N,07505.0746,W,2,11,0.85,9329.4,M,-34.0,M,0000,0000*63
$GPRMC,185238.000,A,4007.0109,N,07505.0746,W,26.78,145.65,100612,,,D*49
$PMTK001,314,3*36
$PMTK001,220,3*30
$PMTK001,185,3*3C
$GPGGA,185239.000,4007.0048,N,07505.0688,$GPGGA,185238.000,4007.0109,N,07505.0746,W,2,11,0.85,9329.4,M,-34.0,M,0000,0000*63
$GPRMC,185238.000,A,4007.0109,N,07505.0746,W,26.78,145.65,100612,,,D*49
$PMTK001,314,3*36
$PMTK001,220,3*30
$PMTK001,185,3*3C
$GPGGA,185239.000,4007.0048,N,07505.0688,$GPGGA,185238.000,4007.0109,N,07505.0746,W,2,11,0.85,9329.4,M,-34.0,M,0000,0000*63
$GPRMC,185238.000,A,4007.0109,N,07505.0746,W,26.78,145.65,100612,,,D*49
$PMTK001,314,3*36
$PMTK001,220,3*30
$PMTK001,185,3*3C
$GPGGA,185239.000,4007.0048,N,07505.0688,$GPGGA,185238.000,4007.0109,N,07505.0746,W,2,11,0.85,9329.4,M,-34.0,M,0000,0000*63
$GPRMC,185238.000,A,4007.0109,N,07505.0746,W,26.78,145.65,100612,,,D*49
$PMTK001,314,3*36
$PMTK001,220,3*30
$PMTK001,185,3*3C
$GPGGA,185239.000,4007.0048,N,07505.0688,$GPGGA,185238.000,4007.0109,N,07505.0746,W,2,11,0.85,9329.4,M,-34.0,M,0000,0000*63
$GPRMC,185238.000,A,4007.0109,N,07505.0746,W,26.78,145.65,100612,,,D*49
$PMTK001,314,3*36
$PMTK001,220,3*30
$PMTK001,185,3*3C
$GPGGA,185239.000,4007.0048,N,07505.0688,$GPGGA,185238.000,4007.0109,N,07505.0746,W,2,11,0.85,9329.4,M,-34.0,M,0000,0000*63
$GPRMC,185238.000,A,4007.0109,N,07505.0746,W,26.78,145.65,100612,,,D*49
$PMTK001,314,3*36
$PMTK001,220,3*30
$PMTK001,185,3*3C
$GPGGA,185239.000,4007.0048,N,07505.0688,$GPGGA,185238.000,4007.0109,N,07505.0746,W,2,11,0.85,9329.4,M,-34.0,M,0000,0000*63
$GPRMC,185238.000,A,4007.0109,N,07505.0746,W,26.78,145.65,100612,,,D*49
$PMTK001,314,3*36
$PMTK001,220,3*30
$PMTK001,185,3*3C
$GPGGA,185239.000,4007.0048,N,07505.0688,$GPGGA,185238.000,4007.0109,N,07505.0746,W,2,11,0.85,9329.4,M,-34.0,M,0000,0000*63
$GPRMC,185238.000,A,4007.0109,N,07505.0746,W,26.78,145.65,100612,,,D*49
$PMTK001,314,3*36
$PMTK001,220,3*30
$PMTK001,185,3*3C
$GPGGA,185239.000,4007.0048,N,07505.0688,$GPGGA,185238.000,4007.0109,N,07505.0746,W,2,11,0.85,9329.4,M,-34.0,M,0000,0000*63
$GPRMC,185238.000,A,4007.0109,N,07505.0746,W,26.78,145.65,100612,,,D*49
$PMTK001,314,3*36
$PMTK001,220,3*30
$PMTK001,185,3*3C
$GPGGA,185239.000,4007.0048,N,07505.0688,$GPGGA,185238.000,4007.0109,N,07505.0746,W,2,11,0.85,9329.4,M,-34.0,M,0000,0000*63
$GPRMC,185238.000,A,4007.0109,N,07505.0746,W,26.78,145.65,100612,,,D*49
$PMTK001,314,3*36
$PMTK001,220,3*30
$PMTK001,185,3*3C
$GPGGA,185239.000,4007.0048,N,07505.0688,$GPGGA,185238.000,4007.0109,N,07505.0746,W,2,11,0.85,9329.4,M,-34.0,M,0000,0000*63
$GPRMC,185238.000,A,4007.0109,N,07505.0746,W,26.78,145.65,100612,,,D*49
$PMTK001,314,3*36
$PMTK001,220,3*30
$PMTK001,185,3*3C
$GPGGA,185239.000,4007.0048,N,07505.0688,$GPGGA,185238.000,4007.0109,N,07505.0746,W,2,11,0.85,9329.4,M,-34.0,M,0000,0000*63
$GPRMC,185238.000,A,4007.0109,N,07505.0746,W,26.78,145.65,100612,,,D*49
$PMTK001,314,3*36
$PMTK001,220,3*30
$PMTK001,185,3*3C
$GPGGA,185239.000,4007.0048,N,07505.0688,$GPGGA,185238.000,4007.0109,N,07505.0746,W,2,11,0.85,9329.4,M,-34.0,M,0000,0000*63
$GPRMC,185238.000,A,4007.0109,N,07505.0746,W,26.78,145.65,100612,,,D*49
$PMTK001,314,3*36
$PMTK001,220,3*30
$PMTK001,185,3*3C
$GPGGA,185239.000,4007.0048,N,07505.0688,$GPGGA,185238.000,4007.0109,N,07505.0746,W,2,11,0.85,9329.4,M,-34.0,M,0000,0000*63
$GPRMC,185238.000,A,4007.0109,N,07505.0746,W,26.78,145.65,100612,,,D*49
$PMTK001,314,3*36
$PMTK001,220,3*30
$PMTK001,185,3*3C
$GPGGA,185239.000,4007.0048,N,07505.0688,$GPGGA,185238.000,4007.0109,N,07505.0746,W,2,11,0.85,9329.4,M,-34.0,M,0000,0000*63
$GPRMC,185238.000,A,4007.0109,N,07505.0746,W,26.78,145.65,100612,,,D*49
$PMTK001,314,3*36
$PMTK001,220,3*30
$PMTK001,185,3*3C
$GPGGA,185239.000,4007.0048,N,07505.0688,$GPGGA,185238.000,4007.0109,N,07505.0746,W,2,11,0.85,9329.4,M,-34.0,M,0000,0000*63
$GPRMC,185238.000,A,4007.0109,N,07505.0746,W,26.78,145.65,100612,,,D*49
$PMTK001,314,3*36
$PMTK001,220,3*30
$PMTK001,185,3*3C
$GPGGA,185239.000,4007.0048,N,07505.0688,$GPGGA,185238.000,4007.0109,N,07505.0746,W,2,11,0.85,9329.4,M,-34.0,M,0000,0000*63
$GPRMC,185238.000,A,4007.0109,N,07505.0746,W,26.78,145.65,100612,,,D*49
$PMTK001,314,3*36
$PMTK001,220,3*30
$PMTK001,185,3*3C
$GPGGA,185239.000,4007.0048,N,07505.0688,$GPGGA,185238.000,4007.0109,N,07505.0746,W,2,11,0.85,9329.4,M,-34.0,M,0000,0000*63
$GPRMC,185238.000,A,4007.0109,N,07505.0746,W,26.78,145.65,100612,,,D*49
$PMTK001,314,3*36
$PMTK001,220,3*30
$PMTK001,185,3*3C
$GPGGA,185239.000,4007.0048,N,07505.0688,$GPGGA,185238.000,4007.0109,N,07505.0746,W,2,11,0.85,9329.4,M,-34.0,M,0000,0000*63
$GPRMC,185238.000,A,4007.0109,N,07505.0746,W,26.78,145.65,100612,,,D*49
$PMTK001,314,3*36
$PMTK001,220,3*30
$PMTK001,185,3*3C
$GPGGA,185239.000,4007.0048,N,07505.0688,$GPGGA,185238.000,4007.0109,N,07505.0746,W,2,11,0.85,9329.4,M,-34.0,M,0000,0000*63
$GPRMC,185238.000,A,4007.0109,N,07505.0746,W,26.78,145.65,100612,,,D*49
$PMTK001,314,3*36
$PMTK001,220,3*30
$PMTK001,185,3*3C
$GPGGA,185239.000,4007.0048,N,07505.0688,$GPGGA,185238.000,4007.0109,N,07505.0746,W,2,11,0.85,9329.4,M,-34.0,M,0000,0000*63
$GPRMC,185238.000,A,4007.0109,N,07505.0746,W,26.78,145.65,100612,,,D*49
$PMTK001,314,3*36
$PMTK001,220,3*30
$PMTK001,185,3*3C
$GPGGA,185239.000,4007.0048,N,07505.0688,$GPGGA,185238.000,4007.0109,N,07505.0746,W,2,11,0.85,9329.4,M,-34.0,M,0000,0000*63
$GPRMC,185238.000,A,4007.0109,N,07505.0746,W,26.78,145.65,100612,,,D*49
$PMTK001,314,3*36
$PMTK001,220,3*30
$PMTK001,185,3*3C
$GPGGA,185239.000,4007.0048,N,07505.0688,$GPGGA,185238.000,4007.0109,N,07505.0746,W,2,11,0.85,9329.4,M,-34.0,M,0000,0000*63
$GPRMC,185238.000,A,4007.0109,N,07505.0746,W,26.78,145.65,100612,,,D*49
$PMTK001,314,3*36
$PMTK001,220,3*30
$PMTK001,185,3*3C
$GPGGA,185239.000,4007.0048,N,07505.0688,$GPGGA,185238.000,4007.0109,N,07505.0746,W,2,11,0.85,9329.4,M,-34.0,M,0000,0000*63
$GPRMC,185238.000,A,4007.0109,N,07505.0746,W,26.78,145.65,100612,,,D*49
$PMTK001,314,3*36
$PMTK001,220,3*30
$PMTK001,185,3*3C
$GPGGA,185239.000,4007.0048,N,07505.0688,$GPGGA,185238.000,4007.0109,N,07505.0746,W,2,11,0.85,9329.4,M,-34.0,M,0000,0000*63
$GPRMC,185238.000,A,4007.0109,N,07505.0746,W,26.78,145.65,100612,,,D*49
$PMTK001,314,3*36
$PMTK001,220,3*30
$PMTK001,185,3*3C
$GPGGA,185239.000,4007.0048,N,07505.0688,$GPGGA,185238.000,4007.0109,N,07505.0746,W,2,11,0.85,9329.4,M,-34.0,M,0000,0000*63
$GPRMC,185238.000,A,4007.0109,N,07505.0746,W,26.78,145.65,100612,,,D*49
$PMTK001,314,3*36
$PMTK001,220,3*30
$PMTK001,185,3*3C
$GPGGA,185239.000,4007.0048,N,07505.0688,$GPGGA,185238.000,4007.0109,N,07505.0746,W,2,11,0.85,9329.4,M,-34.0,M,0000,0000*63
$GPRMC,185238.000,A,4007.0109,N,07505.0746,W,26.78,145.65,100612,,,D*49
$PMTK001,314,3*36
$PMTK001,220,3*30
$PMTK001,185,3*3C
$GPGGA,185239.000,4007.0048,N,07505.0688,$GPGGA,185238.000,4007.0109,N,07505.0746,W,2,11,0.85,9329.4,M,-34.0,M,0000,0000*63
$GPRMC,185238.000,A,4007.0109,N,07505.0746,W,26.78,145.65,100612,,,D*49
$PMTK001,314,3*36
$PMTK001,220,3*30
$PMTK001,185,3*3C
$GPGGA,185239.000,4007.0048,N,07505.0688,$GPGGA,185238.000,4007.0109,N,07505.0746,W,2,11,0.85,9329.4,M,-34.0,M,0000,0000*63
$GPRMC,185238.000,A,4007.0109,N,07505.0746,W,26.78,145.65,100612,,,D*49
$PMTK001,314,3*36
$PMTK001,220,3*30
$PMTK001,185,3*3C
$GPGGA,185239.000,4007.0048,N,07505.0688,$GPGGA,185238.000,4007.0109,N,07505.0746,W,2,11,0.85,9329.4,M,-34.0,M,0000,0000*63
$GPRMC,185238.000,A,4007.0109,N,07505.0746,W,26.78,145.65,100612,,,D*49
$PMTK001,314,3*36
$PMTK001,220,3*30
$PMTK001,185,3*3C
$GPGGA,185239.000,4007.0048,N,07505.0688,$GPGGA,185238.000,4007.0109,N,07505.0746,W,2,11,0.85,9329.4,M,-34.0,M,0000,0000*63
$GPRMC,185238.000,A,4007.0109,N,07505.0746,W,26.78,145.65,100612,,,D*49
$PMTK001,314,3*36
$PMTK001,220,3*30
$PMTK001,185,3*3C
$GPGGA,185239.000,4007.0048,N,07505.0688,$GPGGA,185238.000,4007.0109,N,07505.0746,W,2,11,0.85,9329.4,M,-34.0,M,0000,0000*63
$GPRMC,185238.000,A,4007.0109,N,07505.0746,W,26.78,145.65,100612,,,D*49
$PMTK001,314,3*36
$PMTK001,220,3*30
$PMTK001,185,3*3C
$GPGGA,185239.000,4007.0048,N,07505.0688,$GPGGA,185238.000,4007.0109,N,07505.0746,W,2,11,0.85,9329.4,M,-34.0,M,0000,0000*63
$GPRMC,185238.000,A,4007.0109,N,07505.0746,W,26.78,145.65,100612,,,D*49
$PMTK001,314,3*36
$PMTK001,220,3*30
$PMTK001,185,3*3C
$GPGGA,185239.000,4007.0048,N,07505.0688,$GPGGA,185238.000,4007.0109,N,07505.0746,W,2,11,0.85,9329.4,M,-34.0,M,0000,0000*63
$GPRMC,185238.000,A,4007.0109,N,07505.0746,W,26.78,145.65,100612,,,D*49
$PMTK001,314,3*36
$PMTK001,220,3*30
$PMTK001,185,3*3C
$GPGGA,185239.000,4007.0048,N,07505.0688,$GPGGA,185238.000,4007.0109,N,07505.0746,W,2,11,0.85,9329.4,M,-34.0,M,0000,0000*63
$GPRMC,185238.000,A,4007.0109,N,07505.0746,W,26.78,145.65,100612,,,D*49
$PMTK001,314,3*36
$PMTK001,220,3*30
$PMTK001,185,3*3C
$GPGGA,185239.000,4007.0048,N,07505.0688,$GPGGA,185238.000,4007.0109,N,07505.0746,W,2,11,0.85,9329.4,M,-34.0,M,0000,0000*63
$GPRMC,185238.000,A,4007.0109,N,07505.0746,W,26.78,145.65,100612,,,D*49
$PMTK001,314,3*36
$PMTK001,220,3*30
$PMTK001,185,3*3C
$GPGGA,185239.000,4007.0048,N,07505.0688,$GPGGA,185238.000,4007.0109,N,07505.0746,W,2,11,0.85,9329.4,M,-34.0,M,0000,0000*63
$GPRMC,185238.000,A,4007.0109,N,07505.0746,W,26.78,145.65,100612,,,D*49
$PMTK001,314,3*36
$PMTK001,220,3*30
$PMTK001,185,3*3C
$GPGGA,185239.000,4007.0048,N,07505.0688,$GPGGA,185238.000,4007.0109,N,07505.0746,W,2,11,0.85,9329.4,M,-34.0,M,0000,0000*63
$GPRMC,185238.000,A,4007.0109,N,07505.0746,W,26.78,145.65,100612,,,D*49
$PMTK001,314,3*36
$PMTK001,220,3*30
$PMTK001,185,3*3C
$GPGGA,185239.000,4007.0048,N,07505.0688,$GPGGA,185238.000,4007.0109,N,07505.0746,W,2,11,0.85,9329.4,M,-34.0,M,0000,0000*63
$GPRMC,185238.000,A,4007.0109,N,07505.0746,W,26.78,145.65,100612,,,D*49
$PMTK001,314,3*36
$PMTK001,220,3*30
$PMTK001,185,3*3C
$GPGGA,185239.000,4007.0048,N,07505.0688,$GPGGA,185238.000,4007.0109,N,07505.0746,W,2,11,0.85,9329.4,M,-34.0,M,0000,0000*63
$GPRMC,185238.000,A,4007.0109,N,07505.0746,W,26.78,145.65,100612,,,D*49
$PMTK001,314,3*36
$PMTK001,220,3*30
$PMTK001,185,3*3C
$GPGGA,185239.000,4007.0048,N,07505.0688,$GPGGA,185238.000,4007.0109,N,07505.0746,W,2,11,0.85,9329.4,M,-34.0,M,0000,0000*63
$GPRMC,185238.000,A,4007.0109,N,07505.0746,W,26.78,145.65,100612,,,D*49
$PMTK001,314,3*36
$PMTK001,220,3*30
$PMTK001,185,3*3C
$GPGGA,185239.000,4007.0048,N,07505.0688,$GPGGA,185238.000,4007.0109,N,07505.0746,W,2,11,0.85,9329.4,M,-34.0,M,0000,0000*63
$GPRMC,185238.000,A,4007.0109,N,07505.0746,W,26.78,145.65,100612,,,D*49
$PMTK001,314,3*36
$PMTK001,220,3*30
$PMTK001,185,3*3C
$GPGGA,185239.000,4007.0048,N,07505.0688,$GPGGA,185238.000,4007.0109,N,07505.0746,W,2,11,0.85,9329.4,M,-34.0,M,0000,0000*63
$GPRMC,185238.000,A,4007.0109,N,07505.0746,W,26.78,145.65,100612,,,D*49
$PMTK001,314,3*36
$PMTK001,220,3*30
$PMTK001,185,3*3C
$GPGGA,185239.000,4007.0048,N,07505.0688,$GPGGA,185238.000,4007.0109,N,07505.0746,W,2,11,0.85,9329.4,M,-34.0,M,0000,0000*63
$GPRMC,185238.000,A,4007.0109,N,07505.0746,W,26.78,145.65,100612,,,D*49
$PMTK001,314,3*36
$PMTK001,220,3*30
$PMTK001,185,3*3C
$GPGGA,185239.000,4007.0048,N,07505.0688,$GPGGA,185238.000,4007.0109,N,07505.0746,W,2,11,0.85,9329.4,M,-34.0,M,0000,0000*63
$GPRMC,185238.000,A,4007.0109,N,07505.0746,W,26.78,145.65,100612,,,D*49
$PMTK001,314,3*36
$PMTK001,220,3*30
$PMTK001,185,3*3C
$GPGGA,185239.000,4007.0048,N,07505.0688,$GPGGA,185238.000,4007.0109,N,07505.0746,W,2,11,0.85,9329.4,M,-34.0,M,0000,0000*63
$GPRMC,185238.000,A,4007.0109,N,07505.0746,W,26.78,145.65,100612,,,D*49
$PMTK001,314,3*36
$PMTK001,220,3*30
$PMTK001,185,3*3C
$GPGGA,185239.000,4007.0048,N,07505.0688,$GPGGA,185238.000,4007.0109,N,07505.0746,W,2,11,0.85,9329.4,M,-34.0,M,0000,0000*63
$GPRMC,185238.000,A,4007.0109,N,07505.0746,W,26.78,145.65,100612,,,D*49
$PMTK001,314,3*36
$PMTK001,220,3*30
$PMTK001,185,3*3C
$GPGGA,185239.000,4007.0048,N,07505.0688,$GPGGA,185238.000,4007.0109,N,07505.0746,W,2,11,0.85,9329.4,M,-34.0,M,0000,0000*63
$GPRMC,185238.000,A,4007.0109,N,07505.0746,W,26.78,145.65,100612,,,D*49
$PMTK001,314,3*36
$PMTK001,220,3*30
$PMTK001,185,3*3C
$GPGGA,185239.000,4007.0048,N,07505.0688,$GPGGA,185238.000,4007.0109,N,07505.0746,W,2,11,0.85,9329.4,M,-34.0,M,0000,0000*63
$GPRMC,185238.000,A,4007.0109,N,07505.0746,W,26.78,145.65,100612,,,D*49
$PMTK001,314,3*36
$PMTK001,220,3*30
$PMTK001,185,3*3C
$GPGGA,185239.000,4007.0048,N,07505.0688,$GPGGA,185238.000,4007.0109,N,07505.0746,W,2,11,0.85,9329.4,M,-34.0,M,0000,0000*63
$GPRMC,185238.000,A,4007.0109,N,07505.0746,W,26.78,145.65,100612,,,D*49
$PMTK001,314,3*36
$PMTK001,220,3*30
$PMTK001,185,3*3C
$GPGGA,185239.000,4007.0048,N,07505.0688,$GPGGA,185238.000,4007.0109,N,07505.0746,W,2,11,0.85,9329.4,M,-34.0,M,0000,0000*63
$GPRMC,185238.000,A,4007.0109,N,07505.0746,W,26.78,145.65,100612,,,D*49
$PMTK001,314,3*36
$PMTK001,220,3*30
$PMTK001,185,3*3C
$GPGGA,185239.000,4007.0048,N,07505.0688,$GPGGA,185238.000,4007.0109,N,07505.0746,W,2,11,0.85,9329.4,M,-34.0,M,0000,0000*63
$GPRMC,185238.000,A,4007.0109,N,07505.0746,W,26.78,145.65,100612,,,D*49
$PMTK001,314,3*36
$PMTK001,220,3*30
$PMTK001,185,3*3C
$GPGGA,185239.000,4007.0048,N,07505.0688,$GPGGA,185238.000,4007.0109,N,07505.0746,W,2,11,0.85,9329.4,M,-34.0,M,0000,0000*63
$GPRMC,185238.000,A,4007.0109,N,07505.0746,W,26.78,145.65,100612,,,D*49
$PMTK001,314,3*36
$PMTK001,220,3*30
$PMTK001,185,3*3C
$GPGGA,185239.000,4007.0048,N,07505.0688,