$PMTK001,314,3*36
$PMTK001,220,3*30
$PMTK001,185,3*3C
$GPGGA,175238.000,4026.3033,N,07520.3615,W,2,10,0.81,1049.9,M,-33.9,M,0000,0000*6C
$GPRMC,175238.000,A,4026.3033,N,07520.3615,W,6.08,174.71,100612,,,D*7F
$GPGGA,175239.000,4026.3007,N,07520.3622,W$PMTK001,314,3*36
$PMTK001,220,3*30
$PMTK001,185,3*3C
$GPGGA,175238.000,4026.3033,N,07520.3615,W,2,10,0.81,1049.9,M,-33.9,M,0000,0000*6C
$GPRMC,175238.000,A,4026.3033,N,07520.3615,W,6.08,174.71,100612,,,D*7F
$GPGGA,175239.000,4026.3007,N,07520.3622,W$PMTK001,314,3*36
$PMTK001,220,3*30
$PMTK001,185,3*3C
$GPGGA,175238.000,4026.3033,N,07520.3615,W,2,10,0.81,1049.9,M,-33.9,M,0000,0000*6C
$GPRMC,175238.000,A,4026.3033,N,07520.3615,W,6.08,174.71,100612,,,D*7F
$GPGGA,175239.000,4026.3007,N,07520.3622,W$PMTK001,314,3*36
$PMTK001,220,3*30
$PMTK001,185,3*3C
$GPGGA,175238.000,4026.3033,N,07520.3615,W,2,10,0.81,1049.9,M,-33.9,M,0000,0000*6C
$GPRMC,175238.000,A,4026.3033,N,07520.3615,W,6.08,174.71,100612,,,D*7F
$GPGGA,175239.000,4026.3007,N,07520.3622,W$PMTK001,314,3*36
$PMTK001,220,3*30
$PMTK001,185,3*3C
$GPGGA,175238.000,4026.3033,N,07520.3615,W,2,10,0.81,1049.9,M,-33.9,M,0000,0000*6C
$GPRMC,175238.000,A,4026.3033,N,07520.3615,W,6.08,174.71,100612,,,D*7F
$GPGGA,175239.000,4026.3007,N,07520.3622,W$PMTK001,314,3*36
$PMTK001,220,3*30
$PMTK001,185,3*3C
$GPGGA,175238.000,4026.3033,N,07520.3615,W,2,10,0.81,1049.9,M,-33.9,M,0000,0000*6C
$GPRMC,175238.000,A,4026.3033,N,07520.3615,W,6.08,174.71,100612,,,D*7F
$GPGGA,175239.000,4026.3007,N,07520.3622,W$PMTK001,314,3*36
$PMTK001,220,3*30
$PMTK001,185,3*3C
$GPGGA,175238.000,4026.3033,N,07520.3615,W,2,10,0.81,1049.9,M,-33.9,M,0000,0000*6C
$GPRMC,175238.000,A,4026.3033,N,07520.3615,W,6.08,174.71,100612,,,D*7F
$GPGGA,175239.000,4026.3007,N,07520.3622,W$PMTK001,314,3*36
$PMTK001,220,3*30
$PMTK001,185,3*3C
$GPGGA,175238.000,4026.3033,N,07520.3615,W,2,10,0.81,1049.9,M,-33.9,M,0000,0000*6C
$GPRMC,175238.000,A,4026.3033,N,07520.3615,W,6.08,174.71,100612,,,D*7F
$GPGGA,175239.000,4026.3007,N,07520.3622,W$PMTK001,314,3*36
$PMTK001,220,3*30
$PMTK001,185,3*3C
$GPGGA,175238.000,4026.3033,N,07520.3615,W,2,10,0.81,1049.9,M,-33.9,M,0000,0000*6C
$GPRMC,175238.000,A,4026.3033,N,07520.3615,W,6.08,174.71,100612,,,D*7F
$GPGGA,175239.000,4026.3007,N,07520.3622,W$PMTK001,314,3*36
$PMTK001,220,3*30
$PMTK001,185,3*3C
$GPGGA,175238.000,4026.3033,N,07520.3615,W,2,10,0.81,1049.9,M,-33.9,M,0000,0000*6C
$GPRMC,175238.000,A,4026.3033,N,07520.3615,W,6.08,174.71,100612,,,D*7F
$GPGGA,175239.000,4026.3007,N,07520.3622,W$PMTK001,314,3*36
$PMTK001,220,3*30
$PMTK001,185,3*3C
$GPGGA,175238.000,4026.3033,N,07520.3615,W,2,10,0.81,1049.9,M,-33.9,M,0000,0000*6C
$GPRMC,175238.000,A,4026.3033,N,07520.3615,W,6.08,174.71,100612,,,D*7F
$GPGGA,175239.000,4026.3007,N,07520.3622,W$PMTK001,314,3*36
$PMTK001,220,3*30
$PMTK001,185,3*3C
$GPGGA,175238.000,4026.3033,N,07520.3615,W,2,10,0.81,1049.9,M,-33.9,M,0000,0000*6C
$GPRMC,175238.000,A,4026.3033,N,07520.3615,W,6.08,174.71,100612,,,D*7F
$GPGGA,175239.000,4026.3007,N,07520.3622,W$PMTK001,314,3*36
$PMTK001,220,3*30
$PMTK001,185,3*3C
$GPGGA,175238.000,4026.3033,N,07520.3615,W,2,10,0.81,1049.9,M,-33.9,M,0000,0000*6C
$GPRMC,175238.000,A,4026.3033,N,07520.3615,W,6.08,174.71,100612,,,D*7F
$GPGGA,175239.000,4026.3007,N,07520.3622,W$PMTK001,314,3*36
$PMTK001,220,3*30
$PMTK001,185,3*3C
$GPGGA,175238.000,4026.3033,N,07520.3615,W,2,10,0.81,1049.9,M,-33.9,M,0000,0000*6C
$GPRMC,175238.000,A,4026.3033,N,07520.3615,W,6.08,174.71,100612,,,D*7F
$GPGGA,175239.000,4026.3007,N,07520.3622,W$PMTK001,314,3*36
$PMTK001,220,3*30
$PMTK001,185,3*3C
$GPGGA,175238.000,4026.3033,N,07520.3615,W,2,10,0.81,1049.9,M,-33.9,M,0000,0000*6C
$GPRMC,175238.000,A,4026.3033,N,07520.3615,W,6.08,174.71,100612,,,D*7F
$GPGGA,175239.000,4026.3007,N,07520.3622,W$PMTK001,314,3*36
$PMTK001,220,3*30
$PMTK001,185,3*3C
$GPGGA,175238.000,4026.3033,N,07520.3615,W,2,10,0.81,1049.9,M,-33.9,M,0000,0000*6C
$GPRMC,175238.000,A,4026.3033,N,07520.3615,W,6.08,174.71,100612,,,D*7F
$GPGGA,175239.000,4026.3007,N,07520.3622,W$PMTK001,314,3*36
$PMTK001,220,3*30
$PMTK001,185,3*3C
$GPGGA,175238.000,4026.3033,N,07520.3615,W,2,10,0.81,1049.9,M,-33.9,M,0000,0000*6C
$GPRMC,175238.000,A,4026.3033,N,07520.3615,W,6.08,174.71,100612,,,D*7F
$GPGGA,175239.000,4026.3007,N,07520.3622,W$PMTK001,314,3*36
$PMTK001,220,3*30
$PMTK001,185,3*3C
$GPGGA,175238.000,4026.3033,N,07520.3615,W,2,10,0.81,1049.9,M,-33.9,M,0000,0000*6C
$GPRMC,175238.000,A,4026.3033,N,07520.3615,W,6.08,174.71,100612,,,D*7F
$GPGGA,175239.000,4026.3007,N,07520.3622,W$PMTK001,314,3*36
$PMTK001,220,3*30
$PMTK001,185,3*3C
$GPGGA,175238.000,4026.3033,N,07520.3615,W,2,10,0.81,1049.9,M,-33.9,M,0000,0000*6C
$GPRMC,175238.000,A,4026.3033,N,07520.3615,W,6.08,174.71,100612,,,D*7F
$GPGGA,175239.000,4026.3007,N,07520.3622,W$PMTK001,314,3*36
$PMTK001,220,3*30
$PMTK001,185,3*3C
$GPGGA,175238.000,4026.3033,N,07520.3615,W,2,10,0.81,1049.9,M,-33.9,M,0000,0000*6C
$GPRMC,175238.000,A,4026.3033,N,07520.3615,W,6.08,174.71,100612,,,D*7F
$GPGGA,175239.000,4026.3007,N,07520.3622,W$PMTK001,314,3*36
$PMTK001,220,3*30
$PMTK001,185,3*3C
$GPGGA,175238.000,4026.3033,N,07520.3615,W,2,10,0.81,1049.9,M,-33.9,M,0000,0000*6C
$GPRMC,175238.000,A,4026.3033,N,07520.3615,W,6.08,174.71,100612,,,D*7F
$GPGGA,175239.000,4026.3007,N,07520.3622,W$PMTK001,314,3*36
$PMTK001,220,3*30
$PMTK001,185,3*3C
$GPGGA,175238.000,4026.3033,N,07520.3615,W,2,10,0.81,1049.9,M,-33.9,M,0000,0000*6C
$GPRMC,175238.000,A,4026.3033,N,07520.3615,W,6.08,174.71,100612,,,D*7F
$GPGGA,175239.000,4026.3007,N,07520.3622,W$PMTK001,314,3*36
$PMTK001,220,3*30
$PMTK001,185,3*3C
$GPGGA,175238.000,4026.3033,N,07520.3615,W,2,10,0.81,1049.9,M,-33.9,M,0000,0000*6C
$GPRMC,175238.000,A,4026.3033,N,07520.3615,W,6.08,174.71,100612,,,D*7F
$GPGGA,175239.000,4026.3007,N,07520.3622,W$PMTK001,314,3*36
$PMTK001,220,3*30
$PMTK001,185,3*3C
$GPGGA,175238.000,4026.3033,N,07520.3615,W,2,10,0.81,1049.9,M,-33.9,M,0000,0000*6C
$GPRMC,175238.000,A,4026.3033,N,07520.3615,W,6.08,174.71,100612,,,D*7F
$GPGGA,175239.000,4026.3007,N,07520.3622,W$PMTK001,314,3*36
$PMTK001,220,3*30
$PMTK001,185,3*3C
$GPGGA,175238.000,4026.3033,N,07520.3615,W,2,10,0.81,1049.9,M,-33.9,M,0000,0000*6C
$GPRMC,175238.000,A,4026.3033,N,07520.3615,W,6.08,174.71,100612,,,D*7F
$GPGGA,175239.000,4026.3007,N,07520.3622,W$PMTK001,314,3*36
$PMTK001,220,3*30
$PMTK001,185,3*3C
$GPGGA,175238.000,4026.3033,N,07520.3615,W,2,10,0.81,1049.9,M,-33.9,M,0000,0000*6C
$GPRMC,175238.000,A,4026.3033,N,07520.3615,W,6.08,174.71,100612,,,D*7F
$GPGGA,175239.000,4026.3007,N,07520.3622,W$PMTK001,314,3*36
$PMTK001,220,3*30
$PMTK001,185,3*3C
$GPGGA,175238.000,4026.3033,N,07520.3615,W,2,10,0.81,1049.9,M,-33.9,M,0000,0000*6C
$GPRMC,175238.000,A,4026.3033,N,07520.3615,W,6.08,174.71,100612,,,D*7F
$GPGGA,175239.000,4026.3007,N,07520.3622,W$PMTK001,314,3*36
$PMTK001,220,3*30
$PMTK001,185,3*3C
$GPGGA,175238.000,4026.3033,N,07520.3615,W,2,10,0.81,1049.9,M,-33.9,M,0000,0000*6C
$GPRMC,175238.000,A,4026.3033,N,07520.3615,W,6.08,174.71,100612,,,D*7F
$GPGGA,175239.000,4026.3007,N,07520.3622,W$PMTK001,314,3*36
$PMTK001,220,3*30
$PMTK001,185,3*3C
$GPGGA,175238.000,4026.3033,N,07520.3615,W,2,10,0.81,1049.9,M,-33.9,M,0000,0000*6C
$GPRMC,175238.000,A,4026.3033,N,07520.3615,W,6.08,174.71,100612,,,D*7F
$GPGGA,175239.000,4026.3007,N,07520.3622,W$PMTK001,314,3*36
$PMTK001,220,3*30
$PMTK001,185,3*3C
$GPGGA,175238.000,4026.3033,N,07520.3615,W,2,10,0.81,1049.9,M,-33.9,M,0000,0000*6C
$GPRMC,175238.000,A,4026.3033,N,07520.3615,W,6.08,174.71,100612,,,D*7F
$GPGGA,175239.000,4026.3007,N,07520.3622,W$PMTK001,314,3*36
$PMTK001,220,3*30
$PMTK001,185,3*3C
$GPGGA,175238.000,4026.3033,N,07520.3615,W,2,10,0.81,1049.9,M,-33.9,M,0000,0000*6C
$GPRMC,175238.000,A,4026.3033,N,07520.3615,W,6.08,174.71,100612,,,D*7F
$GPGGA,175239.000,4026.3007,N,07520.3622,W$PMTK001,314,3*36
$PMTK001,220,3*30
$PMTK001,185,3*3C
$GPGGA,175238.000,4026.3033,N,07520.3615,W,2,10,0.81,1049.9,M,-33.9,M,0000,0000*6C
$GPRMC,175238.000,A,4026.3033,N,07520.3615,W,6.08,174.71,100612,,,D*7F
$GPGGA,175239.000,4026.3007,N,07520.3622,W$PMTK001,314,3*36
$PMTK001,220,3*30
$PMTK001,185,3*3C
$GPGGA,175238.000,4026.3033,N,07520.3615,W,2,10,0.81,1049.9,M,-33.9,M,0000,0000*6C
$GPRMC,175238.000,A,4026.3033,N,07520.3615,W,6.08,174.71,100612,,,D*7F
$GPGGA,175239.000,4026.3007,N,07520.3622,W$PMTK001,314,3*36
$PMTK001,220,3*30
$PMTK001,185,3*3C
$GPGGA,175238.000,4026.3033,N,07520.3615,W,2,10,0.81,1049.9,M,-33.9,M,0000,0000*6C
$GPRMC,175238.000,A,4026.3033,N,07520.3615,W,6.08,174.71,100612,,,D*7F
$GPGGA,175239.000,4026.3007,N,07520.3622,W$PMTK001,314,3*36
$PMTK001,220,3*30
$PMTK001,185,3*3C
$GPGGA,175238.000,4026.3033,N,07520.3615,W,2,10,0.81,1049.9,M,-33.9,M,0000,0000*6C
$GPRMC,175238.000,A,4026.3033,N,07520.3615,W,6.08,174.71,100612,,,D*7F
$GPGGA,175239.000,4026.3007,N,07520.3622,W$PMTK001,314,3*36
$PMTK001,220,3*30
$PMTK001,185,3*3C
$GPGGA,175238.000,4026.3033,N,07520.3615,W,2,10,0.81,1049.9,M,-33.9,M,0000,0000*6C
$GPRMC,175238.000,A,4026.3033,N,07520.3615,W,6.08,174.71,100612,,,D*7F
$GPGGA,175239.000,4026.3007,N,07520.3622,W$PMTK001,314,3*36
$PMTK001,220,3*30
$PMTK001,185,3*3C
$GPGGA,175238.000,4026.3033,N,07520.3615,W,2,10,0.81,1049.9,M,-33.9,M,0000,0000*6C
$GPRMC,175238.000,A,4026.3033,N,07520.3615,W,6.08,174.71,100612,,,D*7F
$GPGGA,175239.000,4026.3007,N,07520.3622,W$PMTK001,314,3*36
$PMTK001,220,3*30
$PMTK001,185,3*3C
$GPGGA,175238.000,4026.3033,N,07520.3615,W,2,10,0.81,1049.9,M,-33.9,M,0000,0000*6C
$GPRMC,175238.000,A,4026.3033,N,07520.3615,W,6.08,174.71,100612,,,D*7F
$GPGGA,175239.000,4026.3007,N,07520.3622,W$PMTK001,314,3*36
$PMTK001,220,3*30
$PMTK001,185,3*3C
$GPGGA,175238.000,4026.3033,N,07520.3615,W,2,10,0.81,1049.9,M,-33.9,M,0000,0000*6C
$GPRMC,175238.000,A,4026.3033,N,07520.3615,W,6.08,174.71,100612,,,D*7F
$GPGGA,175239.000,4026.3007,N,07520.3622,W$PMTK001,314,3*36
$PMTK001,220,3*30
$PMTK001,185,3*3C
$GPGGA,175238.000,4026.3033,N,07520.3615,W,2,10,0.81,1049.9,M,-33.9,M,0000,0000*6C
$GPRMC,175238.000,A,4026.3033,N,07520.3615,W,6.08,174.71,100612,,,D*7F
$GPGGA,175239.000,4026.3007,N,07520.3622,W$PMTK001,314,3*36
$PMTK001,220,3*30
$PMTK001,185,3*3C
$GPGGA,175238.000,4026.3033,N,07520.3615,W,2,10,0.81,1049.9,M,-33.9,M,0000,0000*6C
$GPRMC,175238.000,A,4026.3033,N,07520.3615,W,6.08,174.71,100612,,,D*7F
$GPGGA,175239.000,4026.3007,N,07520.3622,W$PMTK001,314,3*36
$PMTK001,220,3*30
$PMTK001,185,3*3C
$GPGGA,175238.000,4026.3033,N,07520.3615,W,2,10,0.81,1049.9,M,-33.9,M,0000,0000*6C
$GPRMC,175238.000,A,4026.3033,N,07520.3615,W,6.08,174.71,100612,,,D*7F
$GPGGA,175239.000,4026.3007,N,07520.3622,W$PMTK001,314,3*36
$PMTK001,220,3*30
$PMTK001,185,3*3C
$GPGGA,175238.000,4026.3033,N,07520.3615,W,2,10,0.81,1049.9,M,-33.9,M,0000,0000*6C
$GPRMC,175238.000,A,4026.3033,N,07520.3615,W,6.08,174.71,100612,,,D*7F
$GPGGA,175239.000,4026.3007,N,07520.3622,W$PMTK001,314,3*36
$PMTK001,220,3*30
$PMTK001,185,3*3C
$GPGGA,175238.000,4026.3033,N,07520.3615,W,2,10,0.81,1049.9,M,-33.9,M,0000,0000*6C
$GPRMC,175238.000,A,4026.3033,N,07520.3615,W,6.08,174.71,100612,,,D*7F
$GPGGA,175239.000,4026.3007,N,07520.3622,W$PMTK001,314,3*36
$PMTK001,220,3*30
$PMTK001,185,3*3C
$GPGGA,175238.000,4026.3033,N,07520.3615,W,2,10,0.81,1049.9,M,-33.9,M,0000,0000*6C
$GPRMC,175238.000,A,4026.3033,N,07520.3615,W,6.08,174.71,100612,,,D*7F
$GPGGA,175239.000,4026.3007,N,07520.3622,W$PMTK001,314,3*36
$PMTK001,220,3*30
$PMTK001,185,3*3C
$GPGGA,175238.000,4026.3033,N,07520.3615,W,2,10,0.81,1049.9,M,-33.9,M,0000,0000*6C
$GPRMC,175238.000,A,4026.3033,N,07520.3615,W,6.08,174.71,100612,,,D*7F
$GPGGA,175239.000,4026.3007,N,07520.3622,W$PMTK001,314,3*36
$PMTK001,220,3*30
$PMTK001,185,3*3C
$GPGGA,175238.000,4026.3033,N,07520.3615,W,2,10,0.81,1049.9,M,-33.9,M,0000,0000*6C
$GPRMC,175238.000,A,4026.3033,N,07520.3615,W,6.08,174.71,100612,,,D*7F
$GPGGA,175239.000,4026.3007,N,07520.3622,W$PMTK001,314,3*36
$PMTK001,220,3*30
$PMTK001,185,3*3C
$GPGGA,175238.000,4026.3033,N,07520.3615,W,2,10,0.81,1049.9,M,-33.9,M,0000,0000*6C
$GPRMC,175238.000,A,4026.3033,N,07520.3615,W,6.08,174.71,100612,,,D*7F
$GPGGA,175239.000,4026.3007,N,07520.3622,W$PMTK001,314,3*36
$PMTK001,220,3*30
$PMTK001,185,3*3C
$GPGGA,175238.000,4026.3033,N,07520.3615,W,2,10,0.81,1049.9,M,-33.9,M,0000,0000*6C
$GPRMC,175238.000,A,4026.3033,N,07520.3615,W,6.08,174.71,100612,,,D*7F
$GPGGA,175239.000,4026.3007,N,07520.3622,W$PMTK001,314,3*36
$PMTK001,220,3*30
$PMTK001,185,3*3C
$GPGGA,175238.000,4026.3033,N,07520.3615,W,2,10,0.81,1049.9,M,-33.9,M,0000,0000*6C
$GPRMC,175238.000,A,4026.3033,N,07520.3615,W,6.08,174.71,100612,,,D*7F
$GPGGA,175239.000,4026.3007,N,07520.3622,W$PMTK001,314,3*36
$PMTK001,220,3*30
$PMTK001,185,3*3C
$GPGGA,175238.000,4026.3033,N,07520.3615,W,2,10,0.81,1049.9,M,-33.9,M,0000,0000*6C
$GPRMC,175238.000,A,4026.3033,N,07520.3615,W,6.08,174.71,100612,,,D*7F
$GPGGA,175239.000,4026.3007,N,07520.3622,W$PMTK001,314,3*36
$PMTK001,220,3*30
$PMTK001,185,3*3C
$GPGGA,175238.000,4026.3033,N,07520.3615,W,2,10,0.81,1049.9,M,-33.9,M,0000,0000*6C
$GPRMC,175238.000,A,4026.3033,N,07520.3615,W,6.08,174.71,100612,,,D*7F
$GPGGA,175239.000,4026.3007,N,07520.3622,W$PMTK001,314,3*36
$PMTK001,220,3*30
$PMTK001,185,3*3C
$GPGGA,175238.000,4026.3033,N,07520.3615,W,2,10,0.81,1049.9,M,-33.9,M,0000,0000*6C
$GPRMC,175238.000,A,4026.3033,N,07520.3615,W,6.08,174.71,100612,,,D*7F
$GPGGA,175239.000,4026.3007,N,07520.3622,W$PMTK001,314,3*36
$PMTK001,220,3*30
$PMTK001,185,3*3C
$GPGGA,175238.000,4026.3033,N,07520.3615,W,2,10,0.81,1049.9,M,-33.9,M,0000,0000*6C
$GPRMC,175238.000,A,4026.3033,N,07520.3615,W,6.08,174.71,100612,,,D*7F
$GPGGA,175239.000,4026.3007,N,07520.3622,W$PMTK001,314,3*36
$PMTK001,220,3*30
$PMTK001,185,3*3C
$GPGGA,175238.000,4026.3033,N,07520.3615,W,2,10,0.81,1049.9,M,-33.9,M,0000,0000*6C
$GPRMC,175238.000,A,4026.3033,N,07520.3615,W,6.08,174.71,100612,,,D*7F
$GPGGA,175239.000,4026.3007,N,07520.3622,W$PMTK001,314,3*36
$PMTK001,220,3*30
$PMTK001,185,3*3C
$GPGGA,175238.000,4026.3033,N,07520.3615,W,2,10,0.81,1049.9,M,-33.9,M,0000,0000*6C
$GPRMC,175238.000,A,4026.3033,N,07520.3615,W,6.08,174.71,100612,,,D*7F
$GPGGA,175239.000,4026.3007,N,07520.3622,W$PMTK001,314,3*36
$PMTK001,220,3*30
$PMTK001,185,3*3C
$GPGGA,175238.000,4026.3033,N,07520.3615,W,2,10,0.81,1049.9,M,-33.9,M,0000,0000*6C
$GPRMC,175238.000,A,4026.3033,N,07520.3615,W,6.08,174.71,100612,,,D*7F
$GPGGA,175239.000,4026.3007,N,07520.3622,W$PMTK001,314,3*36
$PMTK001,220,3*30
$PMTK001,185,3*3C
$GPGGA,175238.000,4026.3033,N,07520.3615,W,2,10,0.81,1049.9,M,-33.9,M,0000,0000*6C
$GPRMC,175238.000,A,4026.3033,N,07520.3615,W,6.08,174.71,100612,,,D*7F
$GPGGA,175239.000,4026.3007,N,07520.3622,W