$GPGGA,182439.000,4015.9953,N,07513.8829,W,2,12,0.83,5828.0,M,-33.9,M,0000,0000*6E
$GPRMC,182439.000,A,4015.9953,N,07513.8829,W,18.96,150.48,100612,,,D*4B
$PMTK001,314,3*36
$PMTK001,220,3*30
$PMTK001,185,3*3C
$GPGGA,182440.000,4015.9904,N,07513.8802,$GPGGA,182439.000,4015.9953,N,07513.8829,W,2,12,0.83,5828.0,M,-33.9,M,0000,0000*6E
$GPRMC,182439.000,A,4015.9953,N,07513.8829,W,18.96,150.48,100612,,,D*4B
$PMTK001,314,3*36
$PMTK001,220,3*30
$PMTK001,185,3*3C
$GPGGA,182440.000,4015.9904,N,07513.8802,$GPGGA,182439.000,4015.9953,N,07513.8829,W,2,12,0.83,5828.0,M,-33.9,M,0000,0000*6E
$GPRMC,182439.000,A,4015.9953,N,07513.8829,W,18.96,150.48,100612,,,D*4B
$PMTK001,314,3*36
$PMTK001,220,3*30
$PMTK001,185,3*3C
$GPGGA,182440.000,4015.9904,N,07513.8802,$GPGGA,182439.000,4015.9953,N,07513.8829,W,2,12,0.83,5828.0,M,-33.9,M,0000,0000*6E
$GPRMC,182439.000,A,4015.9953,N,07513.8829,W,18.96,150.48,100612,,,D*4B
$PMTK001,314,3*36
$PMTK001,220,3*30
$PMTK001,185,3*3C
$GPGGA,182440.000,4015.9904,N,07513.8802,$GPGGA,182439.000,4015.9953,N,07513.8829,W,2,12,0.83,5828.0,M,-33.9,M,0000,0000*6E
$GPRMC,182439.000,A,4015.9953,N,07513.8829,W,18.96,150.48,100612,,,D*4B
$PMTK001,314,3*36
$PMTK001,220,3*30
$PMTK001,185,3*3C
$GPGGA,182440.000,4015.9904,N,07513.8802,$GPGGA,182439.000,4015.9953,N,07513.8829,W,2,12,0.83,5828.0,M,-33.9,M,0000,0000*6E
$GPRMC,182439.000,A,4015.9953,N,07513.8829,W,18.96,150.48,100612,,,D*4B
$PMTK001,314,3*36
$PMTK001,220,3*30
$PMTK001,185,3*3C
$GPGGA,182440.000,4015.9904,N,07513.8802,$GPGGA,182439.000,4015.9953,N,07513.8829,W,2,12,0.83,5828.0,M,-33.9,M,0000,0000*6E
$GPRMC,182439.000,A,4015.9953,N,07513.8829,W,18.96,150.48,100612,,,D*4B
$PMTK001,314,3*36
$PMTK001,220,3*30
$PMTK001,185,3*3C
$GPGGA,182440.000,4015.9904,N,07513.8802,$GPGGA,182439.000,4015.9953,N,07513.8829,W,2,12,0.83,5828.0,M,-33.9,M,0000,0000*6E
$GPRMC,182439.000,A,4015.9953,N,07513.8829,W,18.96,150.48,100612,,,D*4B
$PMTK001,314,3*36
$PMTK001,220,3*30
$PMTK001,185,3*3C
$GPGGA,182440.000,4015.9904,N,07513.8802,$GPGGA,182439.000,4015.9953,N,07513.8829,W,2,12,0.83,5828.0,M,-33.9,M,0000,0000*6E
$GPRMC,182439.000,A,4015.9953,N,07513.8829,W,18.96,150.48,100612,,,D*4B
$PMTK001,314,3*36
$PMTK001,220,3*30
$PMTK001,185,3*3C
$GPGGA,182440.000,4015.9904,N,07513.8802,$GPGGA,182439.000,4015.9953,N,07513.8829,W,2,12,0.83,5828.0,M,-33.9,M,0000,0000*6E
$GPRMC,182439.000,A,4015.9953,N,07513.8829,W,18.96,150.48,100612,,,D*4B
$PMTK001,314,3*36
$PMTK001,220,3*30
$PMTK001,185,3*3C
$GPGGA,182440.000,4015.9904,N,07513.8802,$GPGGA,182439.000,4015.9953,N,07513.8829,W,2,12,0.83,5828.0,M,-33.9,M,0000,0000*6E
$GPRMC,182439.000,A,4015.9953,N,07513.8829,W,18.96,150.48,100612,,,D*4B
$PMTK001,314,3*36
$PMTK001,220,3*30
$PMTK001,185,3*3C
$GPGGA,182440.000,4015.9904,N,07513.8802,$GPGGA,182439.000,4015.9953,N,07513.8829,W,2,12,0.83,5828.0,M,-33.9,M,0000,0000*6E
$GPRMC,182439.000,A,4015.9953,N,07513.8829,W,18.96,150.48,100612,,,D*4B
$PMTK001,314,3*36
$PMTK001,220,3*30
$PMTK001,185,3*3C
$GPGGA,182440.000,4015.9904,N,07513.8802,$GPGGA,182439.000,4015.9953,N,07513.8829,W,2,12,0.83,5828.0,M,-33.9,M,0000,0000*6E
$GPRMC,182439.000,A,4015.9953,N,07513.8829,W,18.96,150.48,100612,,,D*4B
$PMTK001,314,3*36
$PMTK001,220,3*30
$PMTK001,185,3*3C
$GPGGA,182440.000,4015.9904,N,07513.8802,$GPGGA,182439.000,4015.9953,N,07513.8829,W,2,12,0.83,5828.0,M,-33.9,M,0000,0000*6E
$GPRMC,182439.000,A,4015.9953,N,07513.8829,W,18.96,150.48,100612,,,D*4B
$PMTK001,314,3*36
$PMTK001,220,3*30
$PMTK001,185,3*3C
$GPGGA,182440.000,4015.9904,N,07513.8802,$GPGGA,182439.000,4015.9953,N,07513.8829,W,2,12,0.83,5828.0,M,-33.9,M,0000,0000*6E
$GPRMC,182439.000,A,4015.9953,N,07513.8829,W,18.96,150.48,100612,,,D*4B
$PMTK001,314,3*36
$PMTK001,220,3*30
$PMTK001,185,3*3C
$GPGGA,182440.000,4015.9904,N,07513.8802,$GPGGA,182439.000,4015.9953,N,07513.8829,W,2,12,0.83,5828.0,M,-33.9,M,0000,0000*6E
$GPRMC,182439.000,A,4015.9953,N,07513.8829,W,18.96,150.48,100612,,,D*4B
$PMTK001,314,3*36
$PMTK001,220,3*30
$PMTK001,185,3*3C
$GPGGA,182440.000,4015.9904,N,07513.8802,$GPGGA,182439.000,4015.9953,N,07513.8829,W,2,12,0.83,5828.0,M,-33.9,M,0000,0000*6E
$GPRMC,182439.000,A,4015.9953,N,07513.8829,W,18.96,150.48,100612,,,D*4B
$PMTK001,314,3*36
$PMTK001,220,3*30
$PMTK001,185,3*3C
$GPGGA,182440.000,4015.9904,N,07513.8802,$GPGGA,182439.000,4015.9953,N,07513.8829,W,2,12,0.83,5828.0,M,-33.9,M,0000,0000*6E
$GPRMC,182439.000,A,4015.9953,N,07513.8829,W,18.96,150.48,100612,,,D*4B
$PMTK001,314,3*36
$PMTK001,220,3*30
$PMTK001,185,3*3C
$GPGGA,182440.000,4015.9904,N,07513.8802,$GPGGA,182439.000,4015.9953,N,07513.8829,W,2,12,0.83,5828.0,M,-33.9,M,0000,0000*6E
$GPRMC,182439.000,A,4015.9953,N,07513.8829,W,18.96,150.48,100612,,,D*4B
$PMTK001,314,3*36
$PMTK001,220,3*30
$PMTK001,185,3*3C
$GPGGA,182440.000,4015.9904,N,07513.8802,$GPGGA,182439.000,4015.9953,N,07513.8829,W,2,12,0.83,5828.0,M,-33.9,M,0000,0000*6E
$GPRMC,182439.000,A,4015.9953,N,07513.8829,W,18.96,150.48,100612,,,D*4B
$PMTK001,314,3*36
$PMTK001,220,3*30
$PMTK001,185,3*3C
$GPGGA,182440.000,4015.9904,N,07513.8802,$GPGGA,182439.000,4015.9953,N,07513.8829,W,2,12,0.83,5828.0,M,-33.9,M,0000,0000*6E
$GPRMC,182439.000,A,4015.9953,N,07513.8829,W,18.96,150.48,100612,,,D*4B
$PMTK001,314,3*36
$PMTK001,220,3*30
$PMTK001,185,3*3C
$GPGGA,182440.000,4015.9904,N,07513.8802,$GPGGA,182439.000,4015.9953,N,07513.8829,W,2,12,0.83,5828.0,M,-33.9,M,0000,0000*6E
$GPRMC,182439.000,A,4015.9953,N,07513.8829,W,18.96,150.48,100612,,,D*4B
$PMTK001,314,3*36
$PMTK001,220,3*30
$PMTK001,185,3*3C
$GPGGA,182440.000,4015.9904,N,07513.8802,$GPGGA,182439.000,4015.9953,N,07513.8829,W,2,12,0.83,5828.0,M,-33.9,M,0000,0000*6E
$GPRMC,182439.000,A,4015.9953,N,07513.8829,W,18.96,150.48,100612,,,D*4B
$PMTK001,314,3*36
$PMTK001,220,3*30
$PMTK001,185,3*3C
$GPGGA,182440.000,4015.9904,N,07513.8802,$GPGGA,182439.000,4015.9953,N,07513.8829,W,2,12,0.83,5828.0,M,-33.9,M,0000,0000*6E
$GPRMC,182439.000,A,4015.9953,N,07513.8829,W,18.96,150.48,100612,,,D*4B
$PMTK001,314,3*36
$PMTK001,220,3*30
$PMTK001,185,3*3C
$GPGGA,182440.000,4015.9904,N,07513.8802,$GPGGA,182439.000,4015.9953,N,07513.8829,W,2,12,0.83,5828.0,M,-33.9,M,0000,0000*6E
$GPRMC,182439.000,A,4015.9953,N,07513.8829,W,18.96,150.48,100612,,,D*4B
$PMTK001,314,3*36
$PMTK001,220,3*30
$PMTK001,185,3*3C
$GPGGA,182440.000,4015.9904,N,07513.8802,$GPGGA,182439.000,4015.9953,N,07513.8829,W,2,12,0.83,5828.0,M,-33.9,M,0000,0000*6E
$GPRMC,182439.000,A,4015.9953,N,07513.8829,W,18.96,150.48,100612,,,D*4B
$PMTK001,314,3*36
$PMTK001,220,3*30
$PMTK001,185,3*3C
$GPGGA,182440.000,4015.9904,N,07513.8802,$GPGGA,182439.000,4015.9953,N,07513.8829,W,2,12,0.83,5828.0,M,-33.9,M,0000,0000*6E
$GPRMC,182439.000,A,4015.9953,N,07513.8829,W,18.96,150.48,100612,,,D*4B
$PMTK001,314,3*36
$PMTK001,220,3*30
$PMTK001,185,3*3C
$GPGGA,182440.000,4015.9904,N,07513.8802,$GPGGA,182439.000,4015.9953,N,07513.8829,W,2,12,0.83,5828.0,M,-33.9,M,0000,0000*6E
$GPRMC,182439.000,A,4015.9953,N,07513.8829,W,18.96,150.48,100612,,,D*4B
$PMTK001,314,3*36
$PMTK001,220,3*30
$PMTK001,185,3*3C
$GPGGA,182440.000,4015.9904,N,07513.8802,$GPGGA,182439.000,4015.9953,N,07513.8829,W,2,12,0.83,5828.0,M,-33.9,M,0000,0000*6E
$GPRMC,182439.000,A,4015.9953,N,07513.8829,W,18.96,150.48,100612,,,D*4B
$PMTK001,314,3*36
$PMTK001,220,3*30
$PMTK001,185,3*3C
$GPGGA,182440.000,4015.9904,N,07513.8802,$GPGGA,182439.000,4015.9953,N,07513.8829,W,2,12,0.83,5828.0,M,-33.9,M,0000,0000*6E
$GPRMC,182439.000,A,4015.9953,N,07513.8829,W,18.96,150.48,100612,,,D*4B
$PMTK001,314,3*36
$PMTK001,220,3*30
$PMTK001,185,3*3C
$GPGGA,182440.000,4015.9904,N,07513.8802,$GPGGA,182439.000,4015.9953,N,07513.8829,W,2,12,0.83,5828.0,M,-33.9,M,0000,0000*6E
$GPRMC,182439.000,A,4015.9953,N,07513.8829,W,18.96,150.48,100612,,,D*4B
$PMTK001,314,3*36
$PMTK001,220,3*30
$PMTK001,185,3*3C
$GPGGA,182440.000,4015.9904,N,07513.8802,$GPGGA,182439.000,4015.9953,N,07513.8829,W,2,12,0.83,5828.0,M,-33.9,M,0000,0000*6E
$GPRMC,182439.000,A,4015.9953,N,07513.8829,W,18.96,150.48,100612,,,D*4B
$PMTK001,314,3*36
$PMTK001,220,3*30
$PMTK001,185,3*3C
$GPGGA,182440.000,4015.9904,N,07513.8802,$GPGGA,182439.000,4015.9953,N,07513.8829,W,2,12,0.83,5828.0,M,-33.9,M,0000,0000*6E
$GPRMC,182439.000,A,4015.9953,N,07513.8829,W,18.96,150.48,100612,,,D*4B
$PMTK001,314,3*36
$PMTK001,220,3*30
$PMTK001,185,3*3C
$GPGGA,182440.000,4015.9904,N,07513.8802,$GPGGA,182439.000,4015.9953,N,07513.8829,W,2,12,0.83,5828.0,M,-33.9,M,0000,0000*6E
$GPRMC,182439.000,A,4015.9953,N,07513.8829,W,18.96,150.48,100612,,,D*4B
$PMTK001,314,3*36
$PMTK001,220,3*30
$PMTK001,185,3*3C
$GPGGA,182440.000,4015.9904,N,07513.8802,$GPGGA,182439.000,4015.9953,N,07513.8829,W,2,12,0.83,5828.0,M,-33.9,M,0000,0000*6E
$GPRMC,182439.000,A,4015.9953,N,07513.8829,W,18.96,150.48,100612,,,D*4B
$PMTK001,314,3*36
$PMTK001,220,3*30
$PMTK001,185,3*3C
$GPGGA,182440.000,4015.9904,N,07513.8802,$GPGGA,182439.000,4015.9953,N,07513.8829,W,2,12,0.83,5828.0,M,-33.9,M,0000,0000*6E
$GPRMC,182439.000,A,4015.9953,N,07513.8829,W,18.96,150.48,100612,,,D*4B
$PMTK001,314,3*36
$PMTK001,220,3*30
$PMTK001,185,3*3C
$GPGGA,182440.000,4015.9904,N,07513.8802,$GPGGA,182439.000,4015.9953,N,07513.8829,W,2,12,0.83,5828.0,M,-33.9,M,0000,0000*6E
$GPRMC,182439.000,A,4015.9953,N,07513.8829,W,18.96,150.48,100612,,,D*4B
$PMTK001,314,3*36
$PMTK001,220,3*30
$PMTK001,185,3*3C
$GPGGA,182440.000,4015.9904,N,07513.8802,$GPGGA,182439.000,4015.9953,N,07513.8829,W,2,12,0.83,5828.0,M,-33.9,M,0000,0000*6E
$GPRMC,182439.000,A,4015.9953,N,07513.8829,W,18.96,150.48,100612,,,D*4B
$PMTK001,314,3*36
$PMTK001,220,3*30
$PMTK001,185,3*3C
$GPGGA,182440.000,4015.9904,N,07513.8802,$GPGGA,182439.000,4015.9953,N,07513.8829,W,2,12,0.83,5828.0,M,-33.9,M,0000,0000*6E
$GPRMC,182439.000,A,4015.9953,N,07513.8829,W,18.96,150.48,100612,,,D*4B
$PMTK001,314,3*36
$PMTK001,220,3*30
$PMTK001,185,3*3C
$GPGGA,182440.000,4015.9904,N,07513.8802,$GPGGA,182439.000,4015.9953,N,07513.8829,W,2,12,0.83,5828.0,M,-33.9,M,0000,0000*6E
$GPRMC,182439.000,A,4015.9953,N,07513.8829,W,18.96,150.48,100612,,,D*4B
$PMTK001,314,3*36
$PMTK001,220,3*30
$PMTK001,185,3*3C
$GPGGA,182440.000,4015.9904,N,07513.8802,$GPGGA,182439.000,4015.9953,N,07513.8829,W,2,12,0.83,5828.0,M,-33.9,M,0000,0000*6E
$GPRMC,182439.000,A,4015.9953,N,07513.8829,W,18.96,150.48,100612,,,D*4B
$PMTK001,314,3*36
$PMTK001,220,3*30
$PMTK001,185,3*3C
$GPGGA,182440.000,4015.9904,N,07513.8802,$GPGGA,182439.000,4015.9953,N,07513.8829,W,2,12,0.83,5828.0,M,-33.9,M,0000,0000*6E
$GPRMC,182439.000,A,4015.9953,N,07513.8829,W,18.96,150.48,100612,,,D*4B
$PMTK001,314,3*36
$PMTK001,220,3*30
$PMTK001,185,3*3C
$GPGGA,182440.000,4015.9904,N,07513.8802,$GPGGA,182439.000,4015.9953,N,07513.8829,W,2,12,0.83,5828.0,M,-33.9,M,0000,0000*6E
$GPRMC,182439.000,A,4015.9953,N,07513.8829,W,18.96,150.48,100612,,,D*4B
$PMTK001,314,3*36
$PMTK001,220,3*30
$PMTK001,185,3*3C
$GPGGA,182440.000,4015.9904,N,07513.8802,$GPGGA,182439.000,4015.9953,N,07513.8829,W,2,12,0.83,5828.0,M,-33.9,M,0000,0000*6E
$GPRMC,182439.000,A,4015.9953,N,07513.8829,W,18.96,150.48,100612,,,D*4B
$PMTK001,314,3*36
$PMTK001,220,3*30
$PMTK001,185,3*3C
$GPGGA,182440.000,4015.9904,N,07513.8802,$GPGGA,182439.000,4015.9953,N,07513.8829,W,2,12,0.83,5828.0,M,-33.9,M,0000,0000*6E
$GPRMC,182439.000,A,4015.9953,N,07513.8829,W,18.96,150.48,100612,,,D*4B
$PMTK001,314,3*36
$PMTK001,220,3*30
$PMTK001,185,3*3C
$GPGGA,182440.000,4015.9904,N,07513.8802,$GPGGA,182439.000,4015.9953,N,07513.8829,W,2,12,0.83,5828.0,M,-33.9,M,0000,0000*6E
$GPRMC,182439.000,A,4015.9953,N,07513.8829,W,18.96,150.48,100612,,,D*4B
$PMTK001,314,3*36
$PMTK001,220,3*30
$PMTK001,185,3*3C
$GPGGA,182440.000,4015.9904,N,07513.8802,$GPGGA,182439.000,4015.9953,N,07513.8829,W,2,12,0.83,5828.0,M,-33.9,M,0000,0000*6E
$GPRMC,182439.000,A,4015.9953,N,07513.8829,W,18.96,150.48,100612,,,D*4B
$PMTK001,314,3*36
$PMTK001,220,3*30
$PMTK001,185,3*3C
$GPGGA,182440.000,4015.9904,N,07513.8802,$GPGGA,182439.000,4015.9953,N,07513.8829,W,2,12,0.83,5828.0,M,-33.9,M,0000,0000*6E
$GPRMC,182439.000,A,4015.9953,N,07513.8829,W,18.96,150.48,100612,,,D*4B
$PMTK001,314,3*36
$PMTK001,220,3*30
$PMTK001,185,3*3C
$GPGGA,182440.000,4015.9904,N,07513.8802,$GPGGA,182439.000,4015.9953,N,07513.8829,W,2,12,0.83,5828.0,M,-33.9,M,0000,0000*6E
$GPRMC,182439.000,A,4015.9953,N,07513.8829,W,18.96,150.48,100612,,,D*4B
$PMTK001,314,3*36
$PMTK001,220,3*30
$PMTK001,185,3*3C
$GPGGA,182440.000,4015.9904,N,07513.8802,$GPGGA,182439.000,4015.9953,N,07513.8829,W,2,12,0.83,5828.0,M,-33.9,M,0000,0000*6E
$GPRMC,182439.000,A,4015.9953,N,07513.8829,W,18.96,150.48,100612,,,D*4B
$PMTK001,314,3*36
$PMTK001,220,3*30
$PMTK001,185,3*3C
$GPGGA,182440.000,4015.9904,N,07513.8802,$GPGGA,182439.000,4015.9953,N,07513.8829,W,2,12,0.83,5828.0,M,-33.9,M,0000,0000*6E
$GPRMC,182439.000,A,4015.9953,N,07513.8829,W,18.96,150.48,100612,,,D*4B
$PMTK001,314,3*36
$PMTK001,220,3*30
$PMTK001,185,3*3C
$GPGGA,182440.000,4015.9904,N,07513.8802,$GPGGA,182439.000,4015.9953,N,07513.8829,W,2,12,0.83,5828.0,M,-33.9,M,0000,0000*6E
$GPRMC,182439.000,A,4015.9953,N,07513.8829,W,18.96,150.48,100612,,,D*4B
$PMTK001,314,3*36
$PMTK001,220,3*30
$PMTK001,185,3*3C
$GPGGA,182440.000,4015.9904,N,07513.8802,$GPGGA,182439.000,4015.9953,N,07513.8829,W,2,12,0.83,5828.0,M,-33.9,M,0000,0000*6E
$GPRMC,182439.000,A,4015.9953,N,07513.8829,W,18.96,150.48,100612,,,D*4B
$PMTK001,314,3*36
$PMTK001,220,3*30
$PMTK001,185,3*3C
$GPGGA,182440.000,4015.9904,N,07513.8802,$GPGGA,182439.000,4015.9953,N,07513.8829,W,2,12,0.83,5828.0,M,-33.9,M,0000,0000*6E
$GPRMC,182439.000,A,4015.9953,N,07513.8829,W,18.96,150.48,100612,,,D*4B
$PMTK001,314,3*36
$PMTK001,220,3*30
$PMTK001,185,3*3C
$GPGGA,182440.000,4015.9904,N,07513.8802,$GPGGA,182439.000,4015.9953,N,07513.8829,W,2,12,0.83,5828.0,M,-33.9,M,0000,0000*6E
$GPRMC,182439.000,A,4015.9953,N,07513.8829,W,18.96,150.48,100612,,,D*4B
$PMTK001,314,3*36
$PMTK001,220,3*30
$PMTK001,185,3*3C
$GPGGA,182440.000,4015.9904,N,07513.8802,$GPGGA,182439.000,4015.9953,N,07513.8829,W,2,12,0.83,5828.0,M,-33.9,M,0000,0000*6E
$GPRMC,182439.000,A,4015.9953,N,07513.8829,W,18.96,150.48,100612,,,D*4B
$PMTK001,314,3*36
$PMTK001,220,3*30
$PMTK001,185,3*3C
$GPGGA,182440.000,4015.9904,N,07513.8802,$GPGGA,182439.000,4015.9953,N,07513.8829,W,2,12,0.83,5828.0,M,-33.9,M,0000,0000*6E
$GPRMC,182439.000,A,4015.9953,N,07513.8829,W,18.96,150.48,100612,,,D*4B
$PMTK001,314,3*36
$PMTK001,220,3*30
$PMTK001,185,3*3C
$GPGGA,182440.000,4015.9904,N,07513.8802,