$PMTK001,314,3*36
$PMTK001,220,3*30
$PMTK001,185,3*3C
$GPGGA,173036.000,4026.7002,N,07520.5940,W,2,11,0.75,148.7,M,-33.9,M,0000,0000*5C
$GPRMC,173036.000,A,4026.7002,N,07520.5940,W,0.26,53.95,100612,,,D*4E
$GPGGA,173037.000,4026.7003,N,07520.5941,W,2$PMTK001,314,3*36
$PMTK001,220,3*30
$PMTK001,185,3*3C
$GPGGA,173036.000,4026.7002,N,07520.5940,W,2,11,0.75,148.7,M,-33.9,M,0000,0000*5C
$GPRMC,173036.000,A,4026.7002,N,07520.5940,W,0.26,53.95,100612,,,D*4E
$GPGGA,173037.000,4026.7003,N,07520.5941,W,2$PMTK001,314,3*36
$PMTK001,220,3*30
$PMTK001,185,3*3C
$GPGGA,173036.000,4026.7002,N,07520.5940,W,2,11,0.75,148.7,M,-33.9,M,0000,0000*5C
$GPRMC,173036.000,A,4026.7002,N,07520.5940,W,0.26,53.95,100612,,,D*4E
$GPGGA,173037.000,4026.7003,N,07520.5941,W,2$PMTK001,314,3*36
$PMTK001,220,3*30
$PMTK001,185,3*3C
$GPGGA,173036.000,4026.7002,N,07520.5940,W,2,11,0.75,148.7,M,-33.9,M,0000,0000*5C
$GPRMC,173036.000,A,4026.7002,N,07520.5940,W,0.26,53.95,100612,,,D*4E
$GPGGA,173037.000,4026.7003,N,07520.5941,W,2$PMTK001,314,3*36
$PMTK001,220,3*30
$PMTK001,185,3*3C
$GPGGA,173036.000,4026.7002,N,07520.5940,W,2,11,0.75,148.7,M,-33.9,M,0000,0000*5C
$GPRMC,173036.000,A,4026.7002,N,07520.5940,W,0.26,53.95,100612,,,D*4E
$GPGGA,173037.000,4026.7003,N,07520.5941,W,2$PMTK001,314,3*36
$PMTK001,220,3*30
$PMTK001,185,3*3C
$GPGGA,173036.000,4026.7002,N,07520.5940,W,2,11,0.75,148.7,M,-33.9,M,0000,0000*5C
$GPRMC,173036.000,A,4026.7002,N,07520.5940,W,0.26,53.95,100612,,,D*4E
$GPGGA,173037.000,4026.7003,N,07520.5941,W,2$PMTK001,314,3*36
$PMTK001,220,3*30
$PMTK001,185,3*3C
$GPGGA,173036.000,4026.7002,N,07520.5940,W,2,11,0.75,148.7,M,-33.9,M,0000,0000*5C
$GPRMC,173036.000,A,4026.7002,N,07520.5940,W,0.26,53.95,100612,,,D*4E
$GPGGA,173037.000,4026.7003,N,07520.5941,W,2$PMTK001,314,3*36
$PMTK001,220,3*30
$PMTK001,185,3*3C
$GPGGA,173036.000,4026.7002,N,07520.5940,W,2,11,0.75,148.7,M,-33.9,M,0000,0000*5C
$GPRMC,173036.000,A,4026.7002,N,07520.5940,W,0.26,53.95,100612,,,D*4E
$GPGGA,173037.000,4026.7003,N,07520.5941,W,2$PMTK001,314,3*36
$PMTK001,220,3*30
$PMTK001,185,3*3C
$GPGGA,173036.000,4026.7002,N,07520.5940,W,2,11,0.75,148.7,M,-33.9,M,0000,0000*5C
$GPRMC,173036.000,A,4026.7002,N,07520.5940,W,0.26,53.95,100612,,,D*4E
$GPGGA,173037.000,4026.7003,N,07520.5941,W,2$PMTK001,314,3*36
$PMTK001,220,3*30
$PMTK001,185,3*3C
$GPGGA,173036.000,4026.7002,N,07520.5940,W,2,11,0.75,148.7,M,-33.9,M,0000,0000*5C
$GPRMC,173036.000,A,4026.7002,N,07520.5940,W,0.26,53.95,100612,,,D*4E
$GPGGA,173037.000,4026.7003,N,07520.5941,W,2$PMTK001,314,3*36
$PMTK001,220,3*30
$PMTK001,185,3*3C
$GPGGA,173036.000,4026.7002,N,07520.5940,W,2,11,0.75,148.7,M,-33.9,M,0000,0000*5C
$GPRMC,173036.000,A,4026.7002,N,07520.5940,W,0.26,53.95,100612,,,D*4E
$GPGGA,173037.000,4026.7003,N,07520.5941,W,2$PMTK001,314,3*36
$PMTK001,220,3*30
$PMTK001,185,3*3C
$GPGGA,173036.000,4026.7002,N,07520.5940,W,2,11,0.75,148.7,M,-33.9,M,0000,0000*5C
$GPRMC,173036.000,A,4026.7002,N,07520.5940,W,0.26,53.95,100612,,,D*4E
$GPGGA,173037.000,4026.7003,N,07520.5941,W,2$PMTK001,314,3*36
$PMTK001,220,3*30
$PMTK001,185,3*3C
$GPGGA,173036.000,4026.7002,N,07520.5940,W,2,11,0.75,148.7,M,-33.9,M,0000,0000*5C
$GPRMC,173036.000,A,4026.7002,N,07520.5940,W,0.26,53.95,100612,,,D*4E
$GPGGA,173037.000,4026.7003,N,07520.5941,W,2$PMTK001,314,3*36
$PMTK001,220,3*30
$PMTK001,185,3*3C
$GPGGA,173036.000,4026.7002,N,07520.5940,W,2,11,0.75,148.7,M,-33.9,M,0000,0000*5C
$GPRMC,173036.000,A,4026.7002,N,07520.5940,W,0.26,53.95,100612,,,D*4E
$GPGGA,173037.000,4026.7003,N,07520.5941,W,2$PMTK001,314,3*36
$PMTK001,220,3*30
$PMTK001,185,3*3C
$GPGGA,173036.000,4026.7002,N,07520.5940,W,2,11,0.75,148.7,M,-33.9,M,0000,0000*5C
$GPRMC,173036.000,A,4026.7002,N,07520.5940,W,0.26,53.95,100612,,,D*4E
$GPGGA,173037.000,4026.7003,N,07520.5941,W,2$PMTK001,314,3*36
$PMTK001,220,3*30
$PMTK001,185,3*3C
$GPGGA,173036.000,4026.7002,N,07520.5940,W,2,11,0.75,148.7,M,-33.9,M,0000,0000*5C
$GPRMC,173036.000,A,4026.7002,N,07520.5940,W,0.26,53.95,100612,,,D*4E
$GPGGA,173037.000,4026.7003,N,07520.5941,W,2$PMTK001,314,3*36
$PMTK001,220,3*30
$PMTK001,185,3*3C
$GPGGA,173036.000,4026.7002,N,07520.5940,W,2,11,0.75,148.7,M,-33.9,M,0000,0000*5C
$GPRMC,173036.000,A,4026.7002,N,07520.5940,W,0.26,53.95,100612,,,D*4E
$GPGGA,173037.000,4026.7003,N,07520.5941,W,2$PMTK001,314,3*36
$PMTK001,220,3*30
$PMTK001,185,3*3C
$GPGGA,173036.000,4026.7002,N,07520.5940,W,2,11,0.75,148.7,M,-33.9,M,0000,0000*5C
$GPRMC,173036.000,A,4026.7002,N,07520.5940,W,0.26,53.95,100612,,,D*4E
$GPGGA,173037.000,4026.7003,N,07520.5941,W,2$PMTK001,314,3*36
$PMTK001,220,3*30
$PMTK001,185,3*3C
$GPGGA,173036.000,4026.7002,N,07520.5940,W,2,11,0.75,148.7,M,-33.9,M,0000,0000*5C
$GPRMC,173036.000,A,4026.7002,N,07520.5940,W,0.26,53.95,100612,,,D*4E
$GPGGA,173037.000,4026.7003,N,07520.5941,W,2$PMTK001,314,3*36
$PMTK001,220,3*30
$PMTK001,185,3*3C
$GPGGA,173036.000,4026.7002,N,07520.5940,W,2,11,0.75,148.7,M,-33.9,M,0000,0000*5C
$GPRMC,173036.000,A,4026.7002,N,07520.5940,W,0.26,53.95,100612,,,D*4E
$GPGGA,173037.000,4026.7003,N,07520.5941,W,2$PMTK001,314,3*36
$PMTK001,220,3*30
$PMTK001,185,3*3C
$GPGGA,173036.000,4026.7002,N,07520.5940,W,2,11,0.75,148.7,M,-33.9,M,0000,0000*5C
$GPRMC,173036.000,A,4026.7002,N,07520.5940,W,0.26,53.95,100612,,,D*4E
$GPGGA,173037.000,4026.7003,N,07520.5941,W,2$PMTK001,314,3*36
$PMTK001,220,3*30
$PMTK001,185,3*3C
$GPGGA,173036.000,4026.7002,N,07520.5940,W,2,11,0.75,148.7,M,-33.9,M,0000,0000*5C
$GPRMC,173036.000,A,4026.7002,N,07520.5940,W,0.26,53.95,100612,,,D*4E
$GPGGA,173037.000,4026.7003,N,07520.5941,W,2$PMTK001,314,3*36
$PMTK001,220,3*30
$PMTK001,185,3*3C
$GPGGA,173036.000,4026.7002,N,07520.5940,W,2,11,0.75,148.7,M,-33.9,M,0000,0000*5C
$GPRMC,173036.000,A,4026.7002,N,07520.5940,W,0.26,53.95,100612,,,D*4E
$GPGGA,173037.000,4026.7003,N,07520.5941,W,2$PMTK001,314,3*36
$PMTK001,220,3*30
$PMTK001,185,3*3C
$GPGGA,173036.000,4026.7002,N,07520.5940,W,2,11,0.75,148.7,M,-33.9,M,0000,0000*5C
$GPRMC,173036.000,A,4026.7002,N,07520.5940,W,0.26,53.95,100612,,,D*4E
$GPGGA,173037.000,4026.7003,N,07520.5941,W,2$PMTK001,314,3*36
$PMTK001,220,3*30
$PMTK001,185,3*3C
$GPGGA,173036.000,4026.7002,N,07520.5940,W,2,11,0.75,148.7,M,-33.9,M,0000,0000*5C
$GPRMC,173036.000,A,4026.7002,N,07520.5940,W,0.26,53.95,100612,,,D*4E
$GPGGA,173037.000,4026.7003,N,07520.5941,W,2$PMTK001,314,3*36
$PMTK001,220,3*30
$PMTK001,185,3*3C
$GPGGA,173036.000,4026.7002,N,07520.5940,W,2,11,0.75,148.7,M,-33.9,M,0000,0000*5C
$GPRMC,173036.000,A,4026.7002,N,07520.5940,W,0.26,53.95,100612,,,D*4E
$GPGGA,173037.000,4026.7003,N,07520.5941,W,2$PMTK001,314,3*36
$PMTK001,220,3*30
$PMTK001,185,3*3C
$GPGGA,173036.000,4026.7002,N,07520.5940,W,2,11,0.75,148.7,M,-33.9,M,0000,0000*5C
$GPRMC,173036.000,A,4026.7002,N,07520.5940,W,0.26,53.95,100612,,,D*4E
$GPGGA,173037.000,4026.7003,N,07520.5941,W,2$PMTK001,314,3*36
$PMTK001,220,3*30
$PMTK001,185,3*3C
$GPGGA,173036.000,4026.7002,N,07520.5940,W,2,11,0.75,148.7,M,-33.9,M,0000,0000*5C
$GPRMC,173036.000,A,4026.7002,N,07520.5940,W,0.26,53.95,100612,,,D*4E
$GPGGA,173037.000,4026.7003,N,07520.5941,W,2$PMTK001,314,3*36
$PMTK001,220,3*30
$PMTK001,185,3*3C
$GPGGA,173036.000,4026.7002,N,07520.5940,W,2,11,0.75,148.7,M,-33.9,M,0000,0000*5C
$GPRMC,173036.000,A,4026.7002,N,07520.5940,W,0.26,53.95,100612,,,D*4E
$GPGGA,173037.000,4026.7003,N,07520.5941,W,2$PMTK001,314,3*36
$PMTK001,220,3*30
$PMTK001,185,3*3C
$GPGGA,173036.000,4026.7002,N,07520.5940,W,2,11,0.75,148.7,M,-33.9,M,0000,0000*5C
$GPRMC,173036.000,A,4026.7002,N,07520.5940,W,0.26,53.95,100612,,,D*4E
$GPGGA,173037.000,4026.7003,N,07520.5941,W,2$PMTK001,314,3*36
$PMTK001,220,3*30
$PMTK001,185,3*3C
$GPGGA,173036.000,4026.7002,N,07520.5940,W,2,11,0.75,148.7,M,-33.9,M,0000,0000*5C
$GPRMC,173036.000,A,4026.7002,N,07520.5940,W,0.26,53.95,100612,,,D*4E
$GPGGA,173037.000,4026.7003,N,07520.5941,W,2$PMTK001,314,3*36
$PMTK001,220,3*30
$PMTK001,185,3*3C
$GPGGA,173036.000,4026.7002,N,07520.5940,W,2,11,0.75,148.7,M,-33.9,M,0000,0000*5C
$GPRMC,173036.000,A,4026.7002,N,07520.5940,W,0.26,53.95,100612,,,D*4E
$GPGGA,173037.000,4026.7003,N,07520.5941,W,2$PMTK001,314,3*36
$PMTK001,220,3*30
$PMTK001,185,3*3C
$GPGGA,173036.000,4026.7002,N,07520.5940,W,2,11,0.75,148.7,M,-33.9,M,0000,0000*5C
$GPRMC,173036.000,A,4026.7002,N,07520.5940,W,0.26,53.95,100612,,,D*4E
$GPGGA,173037.000,4026.7003,N,07520.5941,W,2$PMTK001,314,3*36
$PMTK001,220,3*30
$PMTK001,185,3*3C
$GPGGA,173036.000,4026.7002,N,07520.5940,W,2,11,0.75,148.7,M,-33.9,M,0000,0000*5C
$GPRMC,173036.000,A,4026.7002,N,07520.5940,W,0.26,53.95,100612,,,D*4E
$GPGGA,173037.000,4026.7003,N,07520.5941,W,2$PMTK001,314,3*36
$PMTK001,220,3*30
$PMTK001,185,3*3C
$GPGGA,173036.000,4026.7002,N,07520.5940,W,2,11,0.75,148.7,M,-33.9,M,0000,0000*5C
$GPRMC,173036.000,A,4026.7002,N,07520.5940,W,0.26,53.95,100612,,,D*4E
$GPGGA,173037.000,4026.7003,N,07520.5941,W,2$PMTK001,314,3*36
$PMTK001,220,3*30
$PMTK001,185,3*3C
$GPGGA,173036.000,4026.7002,N,07520.5940,W,2,11,0.75,148.7,M,-33.9,M,0000,0000*5C
$GPRMC,173036.000,A,4026.7002,N,07520.5940,W,0.26,53.95,100612,,,D*4E
$GPGGA,173037.000,4026.7003,N,07520.5941,W,2$PMTK001,314,3*36
$PMTK001,220,3*30
$PMTK001,185,3*3C
$GPGGA,173036.000,4026.7002,N,07520.5940,W,2,11,0.75,148.7,M,-33.9,M,0000,0000*5C
$GPRMC,173036.000,A,4026.7002,N,07520.5940,W,0.26,53.95,100612,,,D*4E
$GPGGA,173037.000,4026.7003,N,07520.5941,W,2$PMTK001,314,3*36
$PMTK001,220,3*30
$PMTK001,185,3*3C
$GPGGA,173036.000,4026.7002,N,07520.5940,W,2,11,0.75,148.7,M,-33.9,M,0000,0000*5C
$GPRMC,173036.000,A,4026.7002,N,07520.5940,W,0.26,53.95,100612,,,D*4E
$GPGGA,173037.000,4026.7003,N,07520.5941,W,2$PMTK001,314,3*36
$PMTK001,220,3*30
$PMTK001,185,3*3C
$GPGGA,173036.000,4026.7002,N,07520.5940,W,2,11,0.75,148.7,M,-33.9,M,0000,0000*5C
$GPRMC,173036.000,A,4026.7002,N,07520.5940,W,0.26,53.95,100612,,,D*4E
$GPGGA,173037.000,4026.7003,N,07520.5941,W,2$PMTK001,314,3*36
$PMTK001,220,3*30
$PMTK001,185,3*3C
$GPGGA,173036.000,4026.7002,N,07520.5940,W,2,11,0.75,148.7,M,-33.9,M,0000,0000*5C
$GPRMC,173036.000,A,4026.7002,N,07520.5940,W,0.26,53.95,100612,,,D*4E
$GPGGA,173037.000,4026.7003,N,07520.5941,W,2$PMTK001,314,3*36
$PMTK001,220,3*30
$PMTK001,185,3*3C
$GPGGA,173036.000,4026.7002,N,07520.5940,W,2,11,0.75,148.7,M,-33.9,M,0000,0000*5C
$GPRMC,173036.000,A,4026.7002,N,07520.5940,W,0.26,53.95,100612,,,D*4E
$GPGGA,173037.000,4026.7003,N,07520.5941,W,2$PMTK001,314,3*36
$PMTK001,220,3*30
$PMTK001,185,3*3C
$GPGGA,173036.000,4026.7002,N,07520.5940,W,2,11,0.75,148.7,M,-33.9,M,0000,0000*5C
$GPRMC,173036.000,A,4026.7002,N,07520.5940,W,0.26,53.95,100612,,,D*4E
$GPGGA,173037.000,4026.7003,N,07520.5941,W,2$PMTK001,314,3*36
$PMTK001,220,3*30
$PMTK001,185,3*3C
$GPGGA,173036.000,4026.7002,N,07520.5940,W,2,11,0.75,148.7,M,-33.9,M,0000,0000*5C
$GPRMC,173036.000,A,4026.7002,N,07520.5940,W,0.26,53.95,100612,,,D*4E
$GPGGA,173037.000,4026.7003,N,07520.5941,W,2$PMTK001,314,3*36
$PMTK001,220,3*30
$PMTK001,185,3*3C
$GPGGA,173036.000,4026.7002,N,07520.5940,W,2,11,0.75,148.7,M,-33.9,M,0000,0000*5C
$GPRMC,173036.000,A,4026.7002,N,07520.5940,W,0.26,53.95,100612,,,D*4E
$GPGGA,173037.000,4026.7003,N,07520.5941,W,2$PMTK001,314,3*36
$PMTK001,220,3*30
$PMTK001,185,3*3C
$GPGGA,173036.000,4026.7002,N,07520.5940,W,2,11,0.75,148.7,M,-33.9,M,0000,0000*5C
$GPRMC,173036.000,A,4026.7002,N,07520.5940,W,0.26,53.95,100612,,,D*4E
$GPGGA,173037.000,4026.7003,N,07520.5941,W,2$PMTK001,314,3*36
$PMTK001,220,3*30
$PMTK001,185,3*3C
$GPGGA,173036.000,4026.7002,N,07520.5940,W,2,11,0.75,148.7,M,-33.9,M,0000,0000*5C
$GPRMC,173036.000,A,4026.7002,N,07520.5940,W,0.26,53.95,100612,,,D*4E
$GPGGA,173037.000,4026.7003,N,07520.5941,W,2$PMTK001,314,3*36
$PMTK001,220,3*30
$PMTK001,185,3*3C
$GPGGA,173036.000,4026.7002,N,07520.5940,W,2,11,0.75,148.7,M,-33.9,M,0000,0000*5C
$GPRMC,173036.000,A,4026.7002,N,07520.5940,W,0.26,53.95,100612,,,D*4E
$GPGGA,173037.000,4026.7003,N,07520.5941,W,2$PMTK001,314,3*36
$PMTK001,220,3*30
$PMTK001,185,3*3C
$GPGGA,173036.000,4026.7002,N,07520.5940,W,2,11,0.75,148.7,M,-33.9,M,0000,0000*5C
$GPRMC,173036.000,A,4026.7002,N,07520.5940,W,0.26,53.95,100612,,,D*4E
$GPGGA,173037.000,4026.7003,N,07520.5941,W,2$PMTK001,314,3*36
$PMTK001,220,3*30
$PMTK001,185,3*3C
$GPGGA,173036.000,4026.7002,N,07520.5940,W,2,11,0.75,148.7,M,-33.9,M,0000,0000*5C
$GPRMC,173036.000,A,4026.7002,N,07520.5940,W,0.26,53.95,100612,,,D*4E
$GPGGA,173037.000,4026.7003,N,07520.5941,W,2$PMTK001,314,3*36
$PMTK001,220,3*30
$PMTK001,185,3*3C
$GPGGA,173036.000,4026.7002,N,07520.5940,W,2,11,0.75,148.7,M,-33.9,M,0000,0000*5C
$GPRMC,173036.000,A,4026.7002,N,07520.5940,W,0.26,53.95,100612,,,D*4E
$GPGGA,173037.000,4026.7003,N,07520.5941,W,2$PMTK001,314,3*36
$PMTK001,220,3*30
$PMTK001,185,3*3C
$GPGGA,173036.000,4026.7002,N,07520.5940,W,2,11,0.75,148.7,M,-33.9,M,0000,0000*5C
$GPRMC,173036.000,A,4026.7002,N,07520.5940,W,0.26,53.95,100612,,,D*4E
$GPGGA,173037.000,4026.7003,N,07520.5941,W,2$PMTK001,314,3*36
$PMTK001,220,3*30
$PMTK001,185,3*3C
$GPGGA,173036.000,4026.7002,N,07520.5940,W,2,11,0.75,148.7,M,-33.9,M,0000,0000*5C
$GPRMC,173036.000,A,4026.7002,N,07520.5940,W,0.26,53.95,100612,,,D*4E
$GPGGA,173037.000,4026.7003,N,07520.5941,W,2$PMTK001,314,3*36
$PMTK001,220,3*30
$PMTK001,185,3*3C
$GPGGA,173036.000,4026.7002,N,07520.5940,W,2,11,0.75,148.7,M,-33.9,M,0000,0000*5C
$GPRMC,173036.000,A,4026.7002,N,07520.5940,W,0.26,53.95,100612,,,D*4E
$GPGGA,173037.000,4026.7003,N,07520.5941,W,2$PMTK001,314,3*36
$PMTK001,220,3*30
$PMTK001,185,3*3C
$GPGGA,173036.000,4026.7002,N,07520.5940,W,2,11,0.75,148.7,M,-33.9,M,0000,0000*5C
$GPRMC,173036.000,A,4026.7002,N,07520.5940,W,0.26,53.95,100612,,,D*4E
$GPGGA,173037.000,4026.7003,N,07520.5941,W,2$PMTK001,314,3*36
$PMTK001,220,3*30
$PMTK001,185,3*3C
$GPGGA,173036.000,4026.7002,N,07520.5940,W,2,11,0.75,148.7,M,-33.9,M,0000,0000*5C
$GPRMC,173036.000,A,4026.7002,N,07520.5940,W,0.26,53.95,100612,,,D*4E
$GPGGA,173037.000,4026.7003,N,07520.5941,W,2$PMTK001,314,3*36
$PMTK001,220,3*30
$PMTK001,185,3*3C
$GPGGA,173036.000,4026.7002,N,07520.5940,W,2,11,0.75,148.7,M,-33.9,M,0000,0000*5C
$GPRMC,173036.000,A,4026.7002,N,07520.5940,W,0.26,53.95,100612,,,D*4E
$GPGGA,173037.000,4026.7003,N,07520.5941,W,2$PMTK001,314,3*36
$PMTK001,220,3*30
$PMTK001,185,3*3C
$GPGGA,173036.000,4026.7002,N,07520.5940,W,2,11,0.75,148.7,M,-33.9,M,0000,0000*5C
$GPRMC,173036.000,A,4026.7002,N,07520.5940,W,0.26,53.95,100612,,,D*4E
$GPGGA,173037.000,4026.7003,N,07520.5941,W,2$PMTK001,314,3*36
$PMTK001,220,3*30
$PMTK001,185,3*3C
$GPGGA,173036.000,4026.7002,N,07520.5940,W,2,11,0.75,148.7,M,-33.9,M,0000,0000*5C
$GPRMC,173036.000,A,4026.7002,N,07520.5940,W,0.26,53.95,100612,,,D*4E
$GPGGA,173037.000,4026.7003,N,07520.5941,W,2