$PMTK001,314,3*36
$PMTK001,220,3*30
$PMTK001,185,3*3C
$GPGGA,185039.000,4007.7058,N,07505.7889,W,2,12,0.82,9063.2,M,-34.0,M,0000,0000*66
$GPRMC,185039.000,A,4007.7058,N,07505.7889,W,21.49,136.54,100612,,,D*40
$GPGGA,185040.000,4007.7014,N,07505.7834,$PMTK001,314,3*36
$PMTK001,220,3*30
$PMTK001,185,3*3C
$GPGGA,185039.000,4007.7058,N,07505.7889,W,2,12,0.82,9063.2,M,-34.0,M,0000,0000*66
$GPRMC,185039.000,A,4007.7058,N,07505.7889,W,21.49,136.54,100612,,,D*40
$GPGGA,185040.000,4007.7014,N,07505.7834,$PMTK001,314,3*36
$PMTK001,220,3*30
$PMTK001,185,3*3C
$GPGGA,185039.000,4007.7058,N,07505.7889,W,2,12,0.82,9063.2,M,-34.0,M,0000,0000*66
$GPRMC,185039.000,A,4007.7058,N,07505.7889,W,21.49,136.54,100612,,,D*40
$GPGGA,185040.000,4007.7014,N,07505.7834,$PMTK001,314,3*36
$PMTK001,220,3*30
$PMTK001,185,3*3C
$GPGGA,185039.000,4007.7058,N,07505.7889,W,2,12,0.82,9063.2,M,-34.0,M,0000,0000*66
$GPRMC,185039.000,A,4007.7058,N,07505.7889,W,21.49,136.54,100612,,,D*40
$GPGGA,185040.000,4007.7014,N,07505.7834,$PMTK001,314,3*36
$PMTK001,220,3*30
$PMTK001,185,3*3C
$GPGGA,185039.000,4007.7058,N,07505.7889,W,2,12,0.82,9063.2,M,-34.0,M,0000,0000*66
$GPRMC,185039.000,A,4007.7058,N,07505.7889,W,21.49,136.54,100612,,,D*40
$GPGGA,185040.000,4007.7014,N,07505.7834,$PMTK001,314,3*36
$PMTK001,220,3*30
$PMTK001,185,3*3C
$GPGGA,185039.000,4007.7058,N,07505.7889,W,2,12,0.82,9063.2,M,-34.0,M,0000,0000*66
$GPRMC,185039.000,A,4007.7058,N,07505.7889,W,21.49,136.54,100612,,,D*40
$GPGGA,185040.000,4007.7014,N,07505.7834,$PMTK001,314,3*36
$PMTK001,220,3*30
$PMTK001,185,3*3C
$GPGGA,185039.000,4007.7058,N,07505.7889,W,2,12,0.82,9063.2,M,-34.0,M,0000,0000*66
$GPRMC,185039.000,A,4007.7058,N,07505.7889,W,21.49,136.54,100612,,,D*40
$GPGGA,185040.000,4007.7014,N,07505.7834,$PMTK001,314,3*36
$PMTK001,220,3*30
$PMTK001,185,3*3C
$GPGGA,185039.000,4007.7058,N,07505.7889,W,2,12,0.82,9063.2,M,-34.0,M,0000,0000*66
$GPRMC,185039.000,A,4007.7058,N,07505.7889,W,21.49,136.54,100612,,,D*40
$GPGGA,185040.000,4007.7014,N,07505.7834,$PMTK001,314,3*36
$PMTK001,220,3*30
$PMTK001,185,3*3C
$GPGGA,185039.000,4007.7058,N,07505.7889,W,2,12,0.82,9063.2,M,-34.0,M,0000,0000*66
$GPRMC,185039.000,A,4007.7058,N,07505.7889,W,21.49,136.54,100612,,,D*40
$GPGGA,185040.000,4007.7014,N,07505.7834,$PMTK001,314,3*36
$PMTK001,220,3*30
$PMTK001,185,3*3C
$GPGGA,185039.000,4007.7058,N,07505.7889,W,2,12,0.82,9063.2,M,-34.0,M,0000,0000*66
$GPRMC,185039.000,A,4007.7058,N,07505.7889,W,21.49,136.54,100612,,,D*40
$GPGGA,185040.000,4007.7014,N,07505.7834,$PMTK001,314,3*36
$PMTK001,220,3*30
$PMTK001,185,3*3C
$GPGGA,185039.000,4007.7058,N,07505.7889,W,2,12,0.82,9063.2,M,-34.0,M,0000,0000*66
$GPRMC,185039.000,A,4007.7058,N,07505.7889,W,21.49,136.54,100612,,,D*40
$GPGGA,185040.000,4007.7014,N,07505.7834,$PMTK001,314,3*36
$PMTK001,220,3*30
$PMTK001,185,3*3C
$GPGGA,185039.000,4007.7058,N,07505.7889,W,2,12,0.82,9063.2,M,-34.0,M,0000,0000*66
$GPRMC,185039.000,A,4007.7058,N,07505.7889,W,21.49,136.54,100612,,,D*40
$GPGGA,185040.000,4007.7014,N,07505.7834,$PMTK001,314,3*36
$PMTK001,220,3*30
$PMTK001,185,3*3C
$GPGGA,185039.000,4007.7058,N,07505.7889,W,2,12,0.82,9063.2,M,-34.0,M,0000,0000*66
$GPRMC,185039.000,A,4007.7058,N,07505.7889,W,21.49,136.54,100612,,,D*40
$GPGGA,185040.000,4007.7014,N,07505.7834,$PMTK001,314,3*36
$PMTK001,220,3*30
$PMTK001,185,3*3C
$GPGGA,185039.000,4007.7058,N,07505.7889,W,2,12,0.82,9063.2,M,-34.0,M,0000,0000*66
$GPRMC,185039.000,A,4007.7058,N,07505.7889,W,21.49,136.54,100612,,,D*40
$GPGGA,185040.000,4007.7014,N,07505.7834,$PMTK001,314,3*36
$PMTK001,220,3*30
$PMTK001,185,3*3C
$GPGGA,185039.000,4007.7058,N,07505.7889,W,2,12,0.82,9063.2,M,-34.0,M,0000,0000*66
$GPRMC,185039.000,A,4007.7058,N,07505.7889,W,21.49,136.54,100612,,,D*40
$GPGGA,185040.000,4007.7014,N,07505.7834,$PMTK001,314,3*36
$PMTK001,220,3*30
$PMTK001,185,3*3C
$GPGGA,185039.000,4007.7058,N,07505.7889,W,2,12,0.82,9063.2,M,-34.0,M,0000,0000*66
$GPRMC,185039.000,A,4007.7058,N,07505.7889,W,21.49,136.54,100612,,,D*40
$GPGGA,185040.000,4007.7014,N,07505.7834,$PMTK001,314,3*36
$PMTK001,220,3*30
$PMTK001,185,3*3C
$GPGGA,185039.000,4007.7058,N,07505.7889,W,2,12,0.82,9063.2,M,-34.0,M,0000,0000*66
$GPRMC,185039.000,A,4007.7058,N,07505.7889,W,21.49,136.54,100612,,,D*40
$GPGGA,185040.000,4007.7014,N,07505.7834,$PMTK001,314,3*36
$PMTK001,220,3*30
$PMTK001,185,3*3C
$GPGGA,185039.000,4007.7058,N,07505.7889,W,2,12,0.82,9063.2,M,-34.0,M,0000,0000*66
$GPRMC,185039.000,A,4007.7058,N,07505.7889,W,21.49,136.54,100612,,,D*40
$GPGGA,185040.000,4007.7014,N,07505.7834,$PMTK001,314,3*36
$PMTK001,220,3*30
$PMTK001,185,3*3C
$GPGGA,185039.000,4007.7058,N,07505.7889,W,2,12,0.82,9063.2,M,-34.0,M,0000,0000*66
$GPRMC,185039.000,A,4007.7058,N,07505.7889,W,21.49,136.54,100612,,,D*40
$GPGGA,185040.000,4007.7014,N,07505.7834,$PMTK001,314,3*36
$PMTK001,220,3*30
$PMTK001,185,3*3C
$GPGGA,185039.000,4007.7058,N,07505.7889,W,2,12,0.82,9063.2,M,-34.0,M,0000,0000*66
$GPRMC,185039.000,A,4007.7058,N,07505.7889,W,21.49,136.54,100612,,,D*40
$GPGGA,185040.000,4007.7014,N,07505.7834,$PMTK001,314,3*36
$PMTK001,220,3*30
$PMTK001,185,3*3C
$GPGGA,185039.000,4007.7058,N,07505.7889,W,2,12,0.82,9063.2,M,-34.0,M,0000,0000*66
$GPRMC,185039.000,A,4007.7058,N,07505.7889,W,21.49,136.54,100612,,,D*40
$GPGGA,185040.000,4007.7014,N,07505.7834,$PMTK001,314,3*36
$PMTK001,220,3*30
$PMTK001,185,3*3C
$GPGGA,185039.000,4007.7058,N,07505.7889,W,2,12,0.82,9063.2,M,-34.0,M,0000,0000*66
$GPRMC,185039.000,A,4007.7058,N,07505.7889,W,21.49,136.54,100612,,,D*40
$GPGGA,185040.000,4007.7014,N,07505.7834,$PMTK001,314,3*36
$PMTK001,220,3*30
$PMTK001,185,3*3C
$GPGGA,185039.000,4007.7058,N,07505.7889,W,2,12,0.82,9063.2,M,-34.0,M,0000,0000*66
$GPRMC,185039.000,A,4007.7058,N,07505.7889,W,21.49,136.54,100612,,,D*40
$GPGGA,185040.000,4007.7014,N,07505.7834,$PMTK001,314,3*36
$PMTK001,220,3*30
$PMTK001,185,3*3C
$GPGGA,185039.000,4007.7058,N,07505.7889,W,2,12,0.82,9063.2,M,-34.0,M,0000,0000*66
$GPRMC,185039.000,A,4007.7058,N,07505.7889,W,21.49,136.54,100612,,,D*40
$GPGGA,185040.000,4007.7014,N,07505.7834,$PMTK001,314,3*36
$PMTK001,220,3*30
$PMTK001,185,3*3C
$GPGGA,185039.000,4007.7058,N,07505.7889,W,2,12,0.82,9063.2,M,-34.0,M,0000,0000*66
$GPRMC,185039.000,A,4007.7058,N,07505.7889,W,21.49,136.54,100612,,,D*40
$GPGGA,185040.000,4007.7014,N,07505.7834,$PMTK001,314,3*36
$PMTK001,220,3*30
$PMTK001,185,3*3C
$GPGGA,185039.000,4007.7058,N,07505.7889,W,2,12,0.82,9063.2,M,-34.0,M,0000,0000*66
$GPRMC,185039.000,A,4007.7058,N,07505.7889,W,21.49,136.54,100612,,,D*40
$GPGGA,185040.000,4007.7014,N,07505.7834,$PMTK001,314,3*36
$PMTK001,220,3*30
$PMTK001,185,3*3C
$GPGGA,185039.000,4007.7058,N,07505.7889,W,2,12,0.82,9063.2,M,-34.0,M,0000,0000*66
$GPRMC,185039.000,A,4007.7058,N,07505.7889,W,21.49,136.54,100612,,,D*40
$GPGGA,185040.000,4007.7014,N,07505.7834,$PMTK001,314,3*36
$PMTK001,220,3*30
$PMTK001,185,3*3C
$GPGGA,185039.000,4007.7058,N,07505.7889,W,2,12,0.82,9063.2,M,-34.0,M,0000,0000*66
$GPRMC,185039.000,A,4007.7058,N,07505.7889,W,21.49,136.54,100612,,,D*40
$GPGGA,185040.000,4007.7014,N,07505.7834,$PMTK001,314,3*36
$PMTK001,220,3*30
$PMTK001,185,3*3C
$GPGGA,185039.000,4007.7058,N,07505.7889,W,2,12,0.82,9063.2,M,-34.0,M,0000,0000*66
$GPRMC,185039.000,A,4007.7058,N,07505.7889,W,21.49,136.54,100612,,,D*40
$GPGGA,185040.000,4007.7014,N,07505.7834,$PMTK001,314,3*36
$PMTK001,220,3*30
$PMTK001,185,3*3C
$GPGGA,185039.000,4007.7058,N,07505.7889,W,2,12,0.82,9063.2,M,-34.0,M,0000,0000*66
$GPRMC,185039.000,A,4007.7058,N,07505.7889,W,21.49,136.54,100612,,,D*40
$GPGGA,185040.000,4007.7014,N,07505.7834,$PMTK001,314,3*36
$PMTK001,220,3*30
$PMTK001,185,3*3C
$GPGGA,185039.000,4007.7058,N,07505.7889,W,2,12,0.82,9063.2,M,-34.0,M,0000,0000*66
$GPRMC,185039.000,A,4007.7058,N,07505.7889,W,21.49,136.54,100612,,,D*40
$GPGGA,185040.000,4007.7014,N,07505.7834,$PMTK001,314,3*36
$PMTK001,220,3*30
$PMTK001,185,3*3C
$GPGGA,185039.000,4007.7058,N,07505.7889,W,2,12,0.82,9063.2,M,-34.0,M,0000,0000*66
$GPRMC,185039.000,A,4007.7058,N,07505.7889,W,21.49,136.54,100612,,,D*40
$GPGGA,185040.000,4007.7014,N,07505.7834,$PMTK001,314,3*36
$PMTK001,220,3*30
$PMTK001,185,3*3C
$GPGGA,185039.000,4007.7058,N,07505.7889,W,2,12,0.82,9063.2,M,-34.0,M,0000,0000*66
$GPRMC,185039.000,A,4007.7058,N,07505.7889,W,21.49,136.54,100612,,,D*40
$GPGGA,185040.000,4007.7014,N,07505.7834,$PMTK001,314,3*36
$PMTK001,220,3*30
$PMTK001,185,3*3C
$GPGGA,185039.000,4007.7058,N,07505.7889,W,2,12,0.82,9063.2,M,-34.0,M,0000,0000*66
$GPRMC,185039.000,A,4007.7058,N,07505.7889,W,21.49,136.54,100612,,,D*40
$GPGGA,185040.000,4007.7014,N,07505.7834,$PMTK001,314,3*36
$PMTK001,220,3*30
$PMTK001,185,3*3C
$GPGGA,185039.000,4007.7058,N,07505.7889,W,2,12,0.82,9063.2,M,-34.0,M,0000,0000*66
$GPRMC,185039.000,A,4007.7058,N,07505.7889,W,21.49,136.54,100612,,,D*40
$GPGGA,185040.000,4007.7014,N,07505.7834,$PMTK001,314,3*36
$PMTK001,220,3*30
$PMTK001,185,3*3C
$GPGGA,185039.000,4007.7058,N,07505.7889,W,2,12,0.82,9063.2,M,-34.0,M,0000,0000*66
$GPRMC,185039.000,A,4007.7058,N,07505.7889,W,21.49,136.54,100612,,,D*40
$GPGGA,185040.000,4007.7014,N,07505.7834,$PMTK001,314,3*36
$PMTK001,220,3*30
$PMTK001,185,3*3C
$GPGGA,185039.000,4007.7058,N,07505.7889,W,2,12,0.82,9063.2,M,-34.0,M,0000,0000*66
$GPRMC,185039.000,A,4007.7058,N,07505.7889,W,21.49,136.54,100612,,,D*40
$GPGGA,185040.000,4007.7014,N,07505.7834,$PMTK001,314,3*36
$PMTK001,220,3*30
$PMTK001,185,3*3C
$GPGGA,185039.000,4007.7058,N,07505.7889,W,2,12,0.82,9063.2,M,-34.0,M,0000,0000*66
$GPRMC,185039.000,A,4007.7058,N,07505.7889,W,21.49,136.54,100612,,,D*40
$GPGGA,185040.000,4007.7014,N,07505.7834,$PMTK001,314,3*36
$PMTK001,220,3*30
$PMTK001,185,3*3C
$GPGGA,185039.000,4007.7058,N,07505.7889,W,2,12,0.82,9063.2,M,-34.0,M,0000,0000*66
$GPRMC,185039.000,A,4007.7058,N,07505.7889,W,21.49,136.54,100612,,,D*40
$GPGGA,185040.000,4007.7014,N,07505.7834,$PMTK001,314,3*36
$PMTK001,220,3*30
$PMTK001,185,3*3C
$GPGGA,185039.000,4007.7058,N,07505.7889,W,2,12,0.82,9063.2,M,-34.0,M,0000,0000*66
$GPRMC,185039.000,A,4007.7058,N,07505.7889,W,21.49,136.54,100612,,,D*40
$GPGGA,185040.000,4007.7014,N,07505.7834,$PMTK001,314,3*36
$PMTK001,220,3*30
$PMTK001,185,3*3C
$GPGGA,185039.000,4007.7058,N,07505.7889,W,2,12,0.82,9063.2,M,-34.0,M,0000,0000*66
$GPRMC,185039.000,A,4007.7058,N,07505.7889,W,21.49,136.54,100612,,,D*40
$GPGGA,185040.000,4007.7014,N,07505.7834,$PMTK001,314,3*36
$PMTK001,220,3*30
$PMTK001,185,3*3C
$GPGGA,185039.000,4007.7058,N,07505.7889,W,2,12,0.82,9063.2,M,-34.0,M,0000,0000*66
$GPRMC,185039.000,A,4007.7058,N,07505.7889,W,21.49,136.54,100612,,,D*40
$GPGGA,185040.000,4007.7014,N,07505.7834,$PMTK001,314,3*36
$PMTK001,220,3*30
$PMTK001,185,3*3C
$GPGGA,185039.000,4007.7058,N,07505.7889,W,2,12,0.82,9063.2,M,-34.0,M,0000,0000*66
$GPRMC,185039.000,A,4007.7058,N,07505.7889,W,21.49,136.54,100612,,,D*40
$GPGGA,185040.000,4007.7014,N,07505.7834,$PMTK001,314,3*36
$PMTK001,220,3*30
$PMTK001,185,3*3C
$GPGGA,185039.000,4007.7058,N,07505.7889,W,2,12,0.82,9063.2,M,-34.0,M,0000,0000*66
$GPRMC,185039.000,A,4007.7058,N,07505.7889,W,21.49,136.54,100612,,,D*40
$GPGGA,185040.000,4007.7014,N,07505.7834,$PMTK001,314,3*36
$PMTK001,220,3*30
$PMTK001,185,3*3C
$GPGGA,185039.000,4007.7058,N,07505.7889,W,2,12,0.82,9063.2,M,-34.0,M,0000,0000*66
$GPRMC,185039.000,A,4007.7058,N,07505.7889,W,21.49,136.54,100612,,,D*40
$GPGGA,185040.000,4007.7014,N,07505.7834,$PMTK001,314,3*36
$PMTK001,220,3*30
$PMTK001,185,3*3C
$GPGGA,185039.000,4007.7058,N,07505.7889,W,2,12,0.82,9063.2,M,-34.0,M,0000,0000*66
$GPRMC,185039.000,A,4007.7058,N,07505.7889,W,21.49,136.54,100612,,,D*40
$GPGGA,185040.000,4007.7014,N,07505.7834,$PMTK001,314,3*36
$PMTK001,220,3*30
$PMTK001,185,3*3C
$GPGGA,185039.000,4007.7058,N,07505.7889,W,2,12,0.82,9063.2,M,-34.0,M,0000,0000*66
$GPRMC,185039.000,A,4007.7058,N,07505.7889,W,21.49,136.54,100612,,,D*40
$GPGGA,185040.000,4007.7014,N,07505.7834,$PMTK001,314,3*36
$PMTK001,220,3*30
$PMTK001,185,3*3C
$GPGGA,185039.000,4007.7058,N,07505.7889,W,2,12,0.82,9063.2,M,-34.0,M,0000,0000*66
$GPRMC,185039.000,A,4007.7058,N,07505.7889,W,21.49,136.54,100612,,,D*40
$GPGGA,185040.000,4007.7014,N,07505.7834,$PMTK001,314,3*36
$PMTK001,220,3*30
$PMTK001,185,3*3C
$GPGGA,185039.000,4007.7058,N,07505.7889,W,2,12,0.82,9063.2,M,-34.0,M,0000,0000*66
$GPRMC,185039.000,A,4007.7058,N,07505.7889,W,21.49,136.54,100612,,,D*40
$GPGGA,185040.000,4007.7014,N,07505.7834,$PMTK001,314,3*36
$PMTK001,220,3*30
$PMTK001,185,3*3C
$GPGGA,185039.000,4007.7058,N,07505.7889,W,2,12,0.82,9063.2,M,-34.0,M,0000,0000*66
$GPRMC,185039.000,A,4007.7058,N,07505.7889,W,21.49,136.54,100612,,,D*40
$GPGGA,185040.000,4007.7014,N,07505.7834,$PMTK001,314,3*36
$PMTK001,220,3*30
$PMTK001,185,3*3C
$GPGGA,185039.000,4007.7058,N,07505.7889,W,2,12,0.82,9063.2,M,-34.0,M,0000,0000*66
$GPRMC,185039.000,A,4007.7058,N,07505.7889,W,21.49,136.54,100612,,,D*40
$GPGGA,185040.000,4007.7014,N,07505.7834,$PMTK001,314,3*36
$PMTK001,220,3*30
$PMTK001,185,3*3C
$GPGGA,185039.000,4007.7058,N,07505.7889,W,2,12,0.82,9063.2,M,-34.0,M,0000,0000*66
$GPRMC,185039.000,A,4007.7058,N,07505.7889,W,21.49,136.54,100612,,,D*40
$GPGGA,185040.000,4007.7014,N,07505.7834,$PMTK001,314,3*36
$PMTK001,220,3*30
$PMTK001,185,3*3C
$GPGGA,185039.000,4007.7058,N,07505.7889,W,2,12,0.82,9063.2,M,-34.0,M,0000,0000*66
$GPRMC,185039.000,A,4007.7058,N,07505.7889,W,21.49,136.54,100612,,,D*40
$GPGGA,185040.000,4007.7014,N,07505.7834,$PMTK001,314,3*36
$PMTK001,220,3*30
$PMTK001,185,3*3C
$GPGGA,185039.000,4007.7058,N,07505.7889,W,2,12,0.82,9063.2,M,-34.0,M,0000,0000*66
$GPRMC,185039.000,A,4007.7058,N,07505.7889,W,21.49,136.54,100612,,,D*40
$GPGGA,185040.000,4007.7014,N,07505.7834,$PMTK001,314,3*36
$PMTK001,220,3*30
$PMTK001,185,3*3C
$GPGGA,185039.000,4007.7058,N,07505.7889,W,2,12,0.82,9063.2,M,-34.0,M,0000,0000*66
$GPRMC,185039.000,A,4007.7058,N,07505.7889,W,21.49,136.54,100612,,,D*40
$GPGGA,185040.000,4007.7014,N,07505.7834,$PMTK001,314,3*36
$PMTK001,220,3*30
$PMTK001,185,3*3C
$GPGGA,185039.000,4007.7058,N,07505.7889,W,2,12,0.82,9063.2,M,-34.0,M,0000,0000*66
$GPRMC,185039.000,A,4007.7058,N,07505.7889,W,21.49,136.54,100612,,,D*40
$GPGGA,185040.000,4007.7014,N,07505.7834,