0,4025.2652,N,07519.3766,W,2,10,0.81,2425.7,M,-33.9,M,0000,0000*68
$GPRMC,175839.000,A,4025.2652,N,07519.3766,W,20.80,120.90,100612,,,D*42
$PMTK001,314,3*36
$PMTK001,220,3*30
$PMTK001,185,3*3C
$GPGGA,175840.000,4025.2531,N,07519.3768,W,2,10,0.81,24650,4025.2652,N,07519.3766,W,2,10,0.81,2425.7,M,-33.9,M,0000,0000*68
$GPRMC,175839.000,A,4025.2652,N,07519.3766,W,20.80,120.90,100612,,,D*42
$PMTK001,314,3*36
$PMTK001,220,3*30
$PMTK001,185,3*3C
$GPGGA,175840.000,4025.2531,N,07519.3768,W,2,10,0.81,24650,4025.2652,N,07519.3766,W,2,10,0.81,2425.7,M,-33.9,M,0000,0000*68
$GPRMC,175839.000,A,4025.2652,N,07519.3766,W,20.80,120.90,100612,,,D*42
$PMTK001,314,3*36
$PMTK001,220,3*30
$PMTK001,185,3*3C
$GPGGA,175840.000,4025.2531,N,07519.3768,W,2,10,0.81,24650,4025.2652,N,07519.3766,W,2,10,0.81,2425.7,M,-33.9,M,0000,0000*68
$GPRMC,175839.000,A,4025.2652,N,07519.3766,W,20.80,120.90,100612,,,D*42
$PMTK001,314,3*36
$PMTK001,220,3*30
$PMTK001,185,3*3C
$GPGGA,175840.000,4025.2531,N,07519.3768,W,2,10,0.81,24650,4025.2652,N,07519.3766,W,2,10,0.81,2425.7,M,-33.9,M,0000,0000*68
$GPRMC,175839.000,A,4025.2652,N,07519.3766,W,20.80,120.90,100612,,,D*42
$PMTK001,314,3*36
$PMTK001,220,3*30
$PMTK001,185,3*3C
$GPGGA,175840.000,4025.2531,N,07519.3768,W,2,10,0.81,24650,4025.2652,N,07519.3766,W,2,10,0.81,2425.7,M,-33.9,M,0000,0000*68
$GPRMC,175839.000,A,4025.2652,N,07519.3766,W,20.80,120.90,100612,,,D*42
$PMTK001,314,3*36
$PMTK001,220,3*30
$PMTK001,185,3*3C
$GPGGA,175840.000,4025.2531,N,07519.3768,W,2,10,0.81,24650,4025.2652,N,07519.3766,W,2,10,0.81,2425.7,M,-33.9,M,0000,0000*68
$GPRMC,175839.000,A,4025.2652,N,07519.3766,W,20.80,120.90,100612,,,D*42
$PMTK001,314,3*36
$PMTK001,220,3*30
$PMTK001,185,3*3C
$GPGGA,175840.000,4025.2531,N,07519.3768,W,2,10,0.81,24650,4025.2652,N,07519.3766,W,2,10,0.81,2425.7,M,-33.9,M,0000,0000*68
$GPRMC,175839.000,A,4025.2652,N,07519.3766,W,20.80,120.90,100612,,,D*42
$PMTK001,314,3*36
$PMTK001,220,3*30
$PMTK001,185,3*3C
$GPGGA,175840.000,4025.2531,N,07519.3768,W,2,10,0.81,24650,4025.2652,N,07519.3766,W,2,10,0.81,2425.7,M,-33.9,M,0000,0000*68
$GPRMC,175839.000,A,4025.2652,N,07519.3766,W,20.80,120.90,100612,,,D*42
$PMTK001,314,3*36
$PMTK001,220,3*30
$PMTK001,185,3*3C
$GPGGA,175840.000,4025.2531,N,07519.3768,W,2,10,0.81,24650,4025.2652,N,07519.3766,W,2,10,0.81,2425.7,M,-33.9,M,0000,0000*68
$GPRMC,175839.000,A,4025.2652,N,07519.3766,W,20.80,120.90,100612,,,D*42
$PMTK001,314,3*36
$PMTK001,220,3*30
$PMTK001,185,3*3C
$GPGGA,175840.000,4025.2531,N,07519.3768,W,2,10,0.81,24650,4025.2652,N,07519.3766,W,2,10,0.81,2425.7,M,-33.9,M,0000,0000*68
$GPRMC,175839.000,A,4025.2652,N,07519.3766,W,20.80,120.90,100612,,,D*42
$PMTK001,314,3*36
$PMTK001,220,3*30
$PMTK001,185,3*3C
$GPGGA,175840.000,4025.2531,N,07519.3768,W,2,10,0.81,24650,4025.2652,N,07519.3766,W,2,10,0.81,2425.7,M,-33.9,M,0000,0000*68
$GPRMC,175839.000,A,4025.2652,N,07519.3766,W,20.80,120.90,100612,,,D*42
$PMTK001,314,3*36
$PMTK001,220,3*30
$PMTK001,185,3*3C
$GPGGA,175840.000,4025.2531,N,07519.3768,W,2,10,0.81,24650,4025.2652,N,07519.3766,W,2,10,0.81,2425.7,M,-33.9,M,0000,0000*68
$GPRMC,175839.000,A,4025.2652,N,07519.3766,W,20.80,120.90,100612,,,D*42
$PMTK001,314,3*36
$PMTK001,220,3*30
$PMTK001,185,3*3C
$GPGGA,175840.000,4025.2531,N,07519.3768,W,2,10,0.81,24650,4025.2652,N,07519.3766,W,2,10,0.81,2425.7,M,-33.9,M,0000,0000*68
$GPRMC,175839.000,A,4025.2652,N,07519.3766,W,20.80,120.90,100612,,,D*42
$PMTK001,314,3*36
$PMTK001,220,3*30
$PMTK001,185,3*3C
$GPGGA,175840.000,4025.2531,N,07519.3768,W,2,10,0.81,24650,4025.2652,N,07519.3766,W,2,10,0.81,2425.7,M,-33.9,M,0000,0000*68
$GPRMC,175839.000,A,4025.2652,N,07519.3766,W,20.80,120.90,100612,,,D*42
$PMTK001,314,3*36
$PMTK001,220,3*30
$PMTK001,185,3*3C
$GPGGA,175840.000,4025.2531,N,07519.3768,W,2,10,0.81,24650,4025.2652,N,07519.3766,W,2,10,0.81,2425.7,M,-33.9,M,0000,0000*68
$GPRMC,175839.000,A,4025.2652,N,07519.3766,W,20.80,120.90,100612,,,D*42
$PMTK001,314,3*36
$PMTK001,220,3*30
$PMTK001,185,3*3C
$GPGGA,175840.000,4025.2531,N,07519.3768,W,2,10,0.81,24650,4025.2652,N,07519.3766,W,2,10,0.81,2425.7,M,-33.9,M,0000,0000*68
$GPRMC,175839.000,A,4025.2652,N,07519.3766,W,20.80,120.90,100612,,,D*42
$PMTK001,314,3*36
$PMTK001,220,3*30
$PMTK001,185,3*3C
$GPGGA,175840.000,4025.2531,N,07519.3768,W,2,10,0.81,24650,4025.2652,N,07519.3766,W,2,10,0.81,2425.7,M,-33.9,M,0000,0000*68
$GPRMC,175839.000,A,4025.2652,N,07519.3766,W,20.80,120.90,100612,,,D*42
$PMTK001,314,3*36
$PMTK001,220,3*30
$PMTK001,185,3*3C
$GPGGA,175840.000,4025.2531,N,07519.3768,W,2,10,0.81,24650,4025.2652,N,07519.3766,W,2,10,0.81,2425.7,M,-33.9,M,0000,0000*68
$GPRMC,175839.000,A,4025.2652,N,07519.3766,W,20.80,120.90,100612,,,D*42
$PMTK001,314,3*36
$PMTK001,220,3*30
$PMTK001,185,3*3C
$GPGGA,175840.000,4025.2531,N,07519.3768,W,2,10,0.81,24650,4025.2652,N,07519.3766,W,2,10,0.81,2425.7,M,-33.9,M,0000,0000*68
$GPRMC,175839.000,A,4025.2652,N,07519.3766,W,20.80,120.90,100612,,,D*42
$PMTK001,314,3*36
$PMTK001,220,3*30
$PMTK001,185,3*3C
$GPGGA,175840.000,4025.2531,N,07519.3768,W,2,10,0.81,24650,4025.2652,N,07519.3766,W,2,10,0.81,2425.7,M,-33.9,M,0000,0000*68
$GPRMC,175839.000,A,4025.2652,N,07519.3766,W,20.80,120.90,100612,,,D*42
$PMTK001,314,3*36
$PMTK001,220,3*30
$PMTK001,185,3*3C
$GPGGA,175840.000,4025.2531,N,07519.3768,W,2,10,0.81,24650,4025.2652,N,07519.3766,W,2,10,0.81,2425.7,M,-33.9,M,0000,0000*68
$GPRMC,175839.000,A,4025.2652,N,07519.3766,W,20.80,120.90,100612,,,D*42
$PMTK001,314,3*36
$PMTK001,220,3*30
$PMTK001,185,3*3C
$GPGGA,175840.000,4025.2531,N,07519.3768,W,2,10,0.81,24650,4025.2652,N,07519.3766,W,2,10,0.81,2425.7,M,-33.9,M,0000,0000*68
$GPRMC,175839.000,A,4025.2652,N,07519.3766,W,20.80,120.90,100612,,,D*42
$PMTK001,314,3*36
$PMTK001,220,3*30
$PMTK001,185,3*3C
$GPGGA,175840.000,4025.2531,N,07519.3768,W,2,10,0.81,24650,4025.2652,N,07519.3766,W,2,10,0.81,2425.7,M,-33.9,M,0000,0000*68
$GPRMC,175839.000,A,4025.2652,N,07519.3766,W,20.80,120.90,100612,,,D*42
$PMTK001,314,3*36
$PMTK001,220,3*30
$PMTK001,185,3*3C
$GPGGA,175840.000,4025.2531,N,07519.3768,W,2,10,0.81,24650,4025.2652,N,07519.3766,W,2,10,0.81,2425.7,M,-33.9,M,0000,0000*68
$GPRMC,175839.000,A,4025.2652,N,07519.3766,W,20.80,120.90,100612,,,D*42
$PMTK001,314,3*36
$PMTK001,220,3*30
$PMTK001,185,3*3C
$GPGGA,175840.000,4025.2531,N,07519.3768,W,2,10,0.81,24650,4025.2652,N,07519.3766,W,2,10,0.81,2425.7,M,-33.9,M,0000,0000*68
$GPRMC,175839.000,A,4025.2652,N,07519.3766,W,20.80,120.90,100612,,,D*42
$PMTK001,314,3*36
$PMTK001,220,3*30
$PMTK001,185,3*3C
$GPGGA,175840.000,4025.2531,N,07519.3768,W,2,10,0.81,24650,4025.2652,N,07519.3766,W,2,10,0.81,2425.7,M,-33.9,M,0000,0000*68
$GPRMC,175839.000,A,4025.2652,N,07519.3766,W,20.80,120.90,100612,,,D*42
$PMTK001,314,3*36
$PMTK001,220,3*30
$PMTK001,185,3*3C
$GPGGA,175840.000,4025.2531,N,07519.3768,W,2,10,0.81,24650,4025.2652,N,07519.3766,W,2,10,0.81,2425.7,M,-33.9,M,0000,0000*68
$GPRMC,175839.000,A,4025.2652,N,07519.3766,W,20.80,120.90,100612,,,D*42
$PMTK001,314,3*36
$PMTK001,220,3*30
$PMTK001,185,3*3C
$GPGGA,175840.000,4025.2531,N,07519.3768,W,2,10,0.81,24650,4025.2652,N,07519.3766,W,2,10,0.81,2425.7,M,-33.9,M,0000,0000*68
$GPRMC,175839.000,A,4025.2652,N,07519.3766,W,20.80,120.90,100612,,,D*42
$PMTK001,314,3*36
$PMTK001,220,3*30
$PMTK001,185,3*3C
$GPGGA,175840.000,4025.2531,N,07519.3768,W,2,10,0.81,24650,4025.2652,N,07519.3766,W,2,10,0.81,2425.7,M,-33.9,M,0000,0000*68
$GPRMC,175839.000,A,4025.2652,N,07519.3766,W,20.80,120.90,100612,,,D*42
$PMTK001,314,3*36
$PMTK001,220,3*30
$PMTK001,185,3*3C
$GPGGA,175840.000,4025.2531,N,07519.3768,W,2,10,0.81,24650,4025.2652,N,07519.3766,W,2,10,0.81,2425.7,M,-33.9,M,0000,0000*68
$GPRMC,175839.000,A,4025.2652,N,07519.3766,W,20.80,120.90,100612,,,D*42
$PMTK001,314,3*36
$PMTK001,220,3*30
$PMTK001,185,3*3C
$GPGGA,175840.000,4025.2531,N,07519.3768,W,2,10,0.81,24650,4025.2652,N,07519.3766,W,2,10,0.81,2425.7,M,-33.9,M,0000,0000*68
$GPRMC,175839.000,A,4025.2652,N,07519.3766,W,20.80,120.90,100612,,,D*42
$PMTK001,314,3*36
$PMTK001,220,3*30
$PMTK001,185,3*3C
$GPGGA,175840.000,4025.2531,N,07519.3768,W,2,10,0.81,24650,4025.2652,N,07519.3766,W,2,10,0.81,2425.7,M,-33.9,M,0000,0000*68
$GPRMC,175839.000,A,4025.2652,N,07519.3766,W,20.80,120.90,100612,,,D*42
$PMTK001,314,3*36
$PMTK001,220,3*30
$PMTK001,185,3*3C
$GPGGA,175840.000,4025.2531,N,07519.3768,W,2,10,0.81,24650,4025.2652,N,07519.3766,W,2,10,0.81,2425.7,M,-33.9,M,0000,0000*68
$GPRMC,175839.000,A,4025.2652,N,07519.3766,W,20.80,120.90,100612,,,D*42
$PMTK001,314,3*36
$PMTK001,220,3*30
$PMTK001,185,3*3C
$GPGGA,175840.000,4025.2531,N,07519.3768,W,2,10,0.81,24650,4025.2652,N,07519.3766,W,2,10,0.81,2425.7,M,-33.9,M,0000,0000*68
$GPRMC,175839.000,A,4025.2652,N,07519.3766,W,20.80,120.90,100612,,,D*42
$PMTK001,314,3*36
$PMTK001,220,3*30
$PMTK001,185,3*3C
$GPGGA,175840.000,4025.2531,N,07519.3768,W,2,10,0.81,24650,4025.2652,N,07519.3766,W,2,10,0.81,2425.7,M,-33.9,M,0000,0000*68
$GPRMC,175839.000,A,4025.2652,N,07519.3766,W,20.80,120.90,100612,,,D*42
$PMTK001,314,3*36
$PMTK001,220,3*30
$PMTK001,185,3*3C
$GPGGA,175840.000,4025.2531,N,07519.3768,W,2,10,0.81,24650,4025.2652,N,07519.3766,W,2,10,0.81,2425.7,M,-33.9,M,0000,0000*68
$GPRMC,175839.000,A,4025.2652,N,07519.3766,W,20.80,120.90,100612,,,D*42
$PMTK001,314,3*36
$PMTK001,220,3*30
$PMTK001,185,3*3C
$GPGGA,175840.000,4025.2531,N,07519.3768,W,2,10,0.81,24650,4025.2652,N,07519.3766,W,2,10,0.81,2425.7,M,-33.9,M,0000,0000*68
$GPRMC,175839.000,A,4025.2652,N,07519.3766,W,20.80,120.90,100612,,,D*42
$PMTK001,314,3*36
$PMTK001,220,3*30
$PMTK001,185,3*3C
$GPGGA,175840.000,4025.2531,N,07519.3768,W,2,10,0.81,24650,4025.2652,N,07519.3766,W,2,10,0.81,2425.7,M,-33.9,M,0000,0000*68
$GPRMC,175839.000,A,4025.2652,N,07519.3766,W,20.80,120.90,100612,,,D*42
$PMTK001,314,3*36
$PMTK001,220,3*30
$PMTK001,185,3*3C
$GPGGA,175840.000,4025.2531,N,07519.3768,W,2,10,0.81,24650,4025.2652,N,07519.3766,W,2,10,0.81,2425.7,M,-33.9,M,0000,0000*68
$GPRMC,175839.000,A,4025.2652,N,07519.3766,W,20.80,120.90,100612,,,D*42
$PMTK001,314,3*36
$PMTK001,220,3*30
$PMTK001,185,3*3C
$GPGGA,175840.000,4025.2531,N,07519.3768,W,2,10,0.81,24650,4025.2652,N,07519.3766,W,2,10,0.81,2425.7,M,-33.9,M,0000,0000*68
$GPRMC,175839.000,A,4025.2652,N,07519.3766,W,20.80,120.90,100612,,,D*42
$PMTK001,314,3*36
$PMTK001,220,3*30
$PMTK001,185,3*3C
$GPGGA,175840.000,4025.2531,N,07519.3768,W,2,10,0.81,24650,4025.2652,N,07519.3766,W,2,10,0.81,2425.7,M,-33.9,M,0000,0000*68
$GPRMC,175839.000,A,4025.2652,N,07519.3766,W,20.80,120.90,100612,,,D*42
$PMTK001,314,3*36
$PMTK001,220,3*30
$PMTK001,185,3*3C
$GPGGA,175840.000,4025.2531,N,07519.3768,W,2,10,0.81,24650,4025.2652,N,07519.3766,W,2,10,0.81,2425.7,M,-33.9,M,0000,0000*68
$GPRMC,175839.000,A,4025.2652,N,07519.3766,W,20.80,120.90,100612,,,D*42
$PMTK001,314,3*36
$PMTK001,220,3*30
$PMTK001,185,3*3C
$GPGGA,175840.000,4025.2531,N,07519.3768,W,2,10,0.81,24650,4025.2652,N,07519.3766,W,2,10,0.81,2425.7,M,-33.9,M,0000,0000*68
$GPRMC,175839.000,A,4025.2652,N,07519.3766,W,20.80,120.90,100612,,,D*42
$PMTK001,314,3*36
$PMTK001,220,3*30
$PMTK001,185,3*3C
$GPGGA,175840.000,4025.2531,N,07519.3768,W,2,10,0.81,24650,4025.2652,N,07519.3766,W,2,10,0.81,2425.7,M,-33.9,M,0000,0000*68
$GPRMC,175839.000,A,4025.2652,N,07519.3766,W,20.80,120.90,100612,,,D*42
$PMTK001,314,3*36
$PMTK001,220,3*30
$PMTK001,185,3*3C
$GPGGA,175840.000,4025.2531,N,07519.3768,W,2,10,0.81,24650,4025.2652,N,07519.3766,W,2,10,0.81,2425.7,M,-33.9,M,0000,0000*68
$GPRMC,175839.000,A,4025.2652,N,07519.3766,W,20.80,120.90,100612,,,D*42
$PMTK001,314,3*36
$PMTK001,220,3*30
$PMTK001,185,3*3C
$GPGGA,175840.000,4025.2531,N,07519.3768,W,2,10,0.81,24650,4025.2652,N,07519.3766,W,2,10,0.81,2425.7,M,-33.9,M,0000,0000*68
$GPRMC,175839.000,A,4025.2652,N,07519.3766,W,20.80,120.90,100612,,,D*42
$PMTK001,314,3*36
$PMTK001,220,3*30
$PMTK001,185,3*3C
$GPGGA,175840.000,4025.2531,N,07519.3768,W,2,10,0.81,24650,4025.2652,N,07519.3766,W,2,10,0.81,2425.7,M,-33.9,M,0000,0000*68
$GPRMC,175839.000,A,4025.2652,N,07519.3766,W,20.80,120.90,100612,,,D*42
$PMTK001,314,3*36
$PMTK001,220,3*30
$PMTK001,185,3*3C
$GPGGA,175840.000,4025.2531,N,07519.3768,W,2,10,0.81,24650,4025.2652,N,07519.3766,W,2,10,0.81,2425.7,M,-33.9,M,0000,0000*68
$GPRMC,175839.000,A,4025.2652,N,07519.3766,W,20.80,120.90,100612,,,D*42
$PMTK001,314,3*36
$PMTK001,220,3*30
$PMTK001,185,3*3C
$GPGGA,175840.000,4025.2531,N,07519.3768,W,2,10,0.81,24650,4025.2652,N,07519.3766,W,2,10,0.81,2425.7,M,-33.9,M,0000,0000*68
$GPRMC,175839.000,A,4025.2652,N,07519.3766,W,20.80,120.90,100612,,,D*42
$PMTK001,314,3*36
$PMTK001,220,3*30
$PMTK001,185,3*3C
$GPGGA,175840.000,4025.2531,N,07519.3768,W,2,10,0.81,24650,4025.2652,N,07519.3766,W,2,10,0.81,2425.7,M,-33.9,M,0000,0000*68
$GPRMC,175839.000,A,4025.2652,N,07519.3766,W,20.80,120.90,100612,,,D*42
$PMTK001,314,3*36
$PMTK001,220,3*30
$PMTK001,185,3*3C
$GPGGA,175840.000,4025.2531,N,07519.3768,W,2,10,0.81,24650,4025.2652,N,07519.3766,W,2,10,0.81,2425.7,M,-33.9,M,0000,0000*68
$GPRMC,175839.000,A,4025.2652,N,07519.3766,W,20.80,120.90,100612,,,D*42
$PMTK001,314,3*36
$PMTK001,220,3*30
$PMTK001,185,3*3C
$GPGGA,175840.000,4025.2531,N,07519.3768,W,2,10,0.81,24650,4025.2652,N,07519.3766,W,2,10,0.81,2425.7,M,-33.9,M,0000,0000*68
$GPRMC,175839.000,A,4025.2652,N,07519.3766,W,20.80,120.90,100612,,,D*42
$PMTK001,314,3*36
$PMTK001,220,3*30
$PMTK001,185,3*3C
$GPGGA,175840.000,4025.2531,N,07519.3768,W,2,10,0.81,24650,4025.2652,N,07519.3766,W,2,10,0.81,2425.7,M,-33.9,M,0000,0000*68
$GPRMC,175839.000,A,4025.2652,N,07519.3766,W,20.80,120.90,100612,,,D*42
$PMTK001,314,3*36
$PMTK001,220,3*30
$PMTK001,185,3*3C
$GPGGA,175840.000,4025.2531,N,07519.3768,W,2,10,0.81,24650,4025.2652,N,07519.3766,W,2,10,0.81,2425.7,M,-33.9,M,0000,0000*68
$GPRMC,175839.000,A,4025.2652,N,07519.3766,W,20.80,120.90,100612,,,D*42
$PMTK001,314,3*36
$PMTK001,220,3*30
$PMTK001,185,3*3C
$GPGGA,175840.000,4025.2531,N,07519.3768,W,2,10,0.81,24650,4025.2652,N,07519.3766,W,2,10,0.81,2425.7,M,-33.9,M,0000,0000*68
$GPRMC,175839.000,A,4025.2652,N,07519.3766,W,20.80,120.90,100612,,,D*42
$PMTK001,314,3*36
$PMTK001,220,3*30
$PMTK001,185,3*3C
$GPGGA,175840.000,4025.2531,N,07519.3768,W,2,10,0.81,24650,4025.2652,N,07519.3766,W,2,10,0.81,2425.7,M,-33.9,M,0000,0000*68
$GPRMC,175839.000,A,4025.2652,N,07519.3766,W,20.80,120.90,100612,,,D*42
$PMTK001,314,3*36
$PMTK001,220,3*30
$PMTK001,185,3*3C
$GPGGA,175840.000,4025.2531,N,07519.3768,W,2,10,0.81,24650,4025.2652,N,07519.3766,W,2,10,0.81,2425.7,M,-33.9,M,0000,0000*68
$GPRMC,175839.000,A,4025.2652,N,07519.3766,W,20.80,120.90,100612,,,D*42
$PMTK001,314,3*36
$PMTK001,220,3*30
$PMTK001,185,3*3C
$GPGGA,175840.000,4025.2531,N,07519.3768,W,2,10,0.81,2465