$PMTK001,314,3*36
$PMTK001,220,3*30
$PMTK001,185,3*3C
$GPGGA,175438.000,4026.0117,N,07520.2999,W,2,10,0.81,1435.0,M,-33.9,M,0000,0000*62
$GPRMC,175438.000,A,4026.0117,N,07520.2999,W,12.14,166.04,100612,,,D*4E
$GPGGA,175439.000,4026.0071,N,07520.2995,$PMTK001,314,3*36
$PMTK001,220,3*30
$PMTK001,185,3*3C
$GPGGA,175438.000,4026.0117,N,07520.2999,W,2,10,0.81,1435.0,M,-33.9,M,0000,0000*62
$GPRMC,175438.000,A,4026.0117,N,07520.2999,W,12.14,166.04,100612,,,D*4E
$GPGGA,175439.000,4026.0071,N,07520.2995,$PMTK001,314,3*36
$PMTK001,220,3*30
$PMTK001,185,3*3C
$GPGGA,175438.000,4026.0117,N,07520.2999,W,2,10,0.81,1435.0,M,-33.9,M,0000,0000*62
$GPRMC,175438.000,A,4026.0117,N,07520.2999,W,12.14,166.04,100612,,,D*4E
$GPGGA,175439.000,4026.0071,N,07520.2995,$PMTK001,314,3*36
$PMTK001,220,3*30
$PMTK001,185,3*3C
$GPGGA,175438.000,4026.0117,N,07520.2999,W,2,10,0.81,1435.0,M,-33.9,M,0000,0000*62
$GPRMC,175438.000,A,4026.0117,N,07520.2999,W,12.14,166.04,100612,,,D*4E
$GPGGA,175439.000,4026.0071,N,07520.2995,$PMTK001,314,3*36
$PMTK001,220,3*30
$PMTK001,185,3*3C
$GPGGA,175438.000,4026.0117,N,07520.2999,W,2,10,0.81,1435.0,M,-33.9,M,0000,0000*62
$GPRMC,175438.000,A,4026.0117,N,07520.2999,W,12.14,166.04,100612,,,D*4E
$GPGGA,175439.000,4026.0071,N,07520.2995,$PMTK001,314,3*36
$PMTK001,220,3*30
$PMTK001,185,3*3C
$GPGGA,175438.000,4026.0117,N,07520.2999,W,2,10,0.81,1435.0,M,-33.9,M,0000,0000*62
$GPRMC,175438.000,A,4026.0117,N,07520.2999,W,12.14,166.04,100612,,,D*4E
$GPGGA,175439.000,4026.0071,N,07520.2995,$PMTK001,314,3*36
$PMTK001,220,3*30
$PMTK001,185,3*3C
$GPGGA,175438.000,4026.0117,N,07520.2999,W,2,10,0.81,1435.0,M,-33.9,M,0000,0000*62
$GPRMC,175438.000,A,4026.0117,N,07520.2999,W,12.14,166.04,100612,,,D*4E
$GPGGA,175439.000,4026.0071,N,07520.2995,$PMTK001,314,3*36
$PMTK001,220,3*30
$PMTK001,185,3*3C
$GPGGA,175438.000,4026.0117,N,07520.2999,W,2,10,0.81,1435.0,M,-33.9,M,0000,0000*62
$GPRMC,175438.000,A,4026.0117,N,07520.2999,W,12.14,166.04,100612,,,D*4E
$GPGGA,175439.000,4026.0071,N,07520.2995,$PMTK001,314,3*36
$PMTK001,220,3*30
$PMTK001,185,3*3C
$GPGGA,175438.000,4026.0117,N,07520.2999,W,2,10,0.81,1435.0,M,-33.9,M,0000,0000*62
$GPRMC,175438.000,A,4026.0117,N,07520.2999,W,12.14,166.04,100612,,,D*4E
$GPGGA,175439.000,4026.0071,N,07520.2995,$PMTK001,314,3*36
$PMTK001,220,3*30
$PMTK001,185,3*3C
$GPGGA,175438.000,4026.0117,N,07520.2999,W,2,10,0.81,1435.0,M,-33.9,M,0000,0000*62
$GPRMC,175438.000,A,4026.0117,N,07520.2999,W,12.14,166.04,100612,,,D*4E
$GPGGA,175439.000,4026.0071,N,07520.2995,$PMTK001,314,3*36
$PMTK001,220,3*30
$PMTK001,185,3*3C
$GPGGA,175438.000,4026.0117,N,07520.2999,W,2,10,0.81,1435.0,M,-33.9,M,0000,0000*62
$GPRMC,175438.000,A,4026.0117,N,07520.2999,W,12.14,166.04,100612,,,D*4E
$GPGGA,175439.000,4026.0071,N,07520.2995,$PMTK001,314,3*36
$PMTK001,220,3*30
$PMTK001,185,3*3C
$GPGGA,175438.000,4026.0117,N,07520.2999,W,2,10,0.81,1435.0,M,-33.9,M,0000,0000*62
$GPRMC,175438.000,A,4026.0117,N,07520.2999,W,12.14,166.04,100612,,,D*4E
$GPGGA,175439.000,4026.0071,N,07520.2995,$PMTK001,314,3*36
$PMTK001,220,3*30
$PMTK001,185,3*3C
$GPGGA,175438.000,4026.0117,N,07520.2999,W,2,10,0.81,1435.0,M,-33.9,M,0000,0000*62
$GPRMC,175438.000,A,4026.0117,N,07520.2999,W,12.14,166.04,100612,,,D*4E
$GPGGA,175439.000,4026.0071,N,07520.2995,$PMTK001,314,3*36
$PMTK001,220,3*30
$PMTK001,185,3*3C
$GPGGA,175438.000,4026.0117,N,07520.2999,W,2,10,0.81,1435.0,M,-33.9,M,0000,0000*62
$GPRMC,175438.000,A,4026.0117,N,07520.2999,W,12.14,166.04,100612,,,D*4E
$GPGGA,175439.000,4026.0071,N,07520.2995,$PMTK001,314,3*36
$PMTK001,220,3*30
$PMTK001,185,3*3C
$GPGGA,175438.000,4026.0117,N,07520.2999,W,2,10,0.81,1435.0,M,-33.9,M,0000,0000*62
$GPRMC,175438.000,A,4026.0117,N,07520.2999,W,12.14,166.04,100612,,,D*4E
$GPGGA,175439.000,4026.0071,N,07520.2995,$PMTK001,314,3*36
$PMTK001,220,3*30
$PMTK001,185,3*3C
$GPGGA,175438.000,4026.0117,N,07520.2999,W,2,10,0.81,1435.0,M,-33.9,M,0000,0000*62
$GPRMC,175438.000,A,4026.0117,N,07520.2999,W,12.14,166.04,100612,,,D*4E
$GPGGA,175439.000,4026.0071,N,07520.2995,$PMTK001,314,3*36
$PMTK001,220,3*30
$PMTK001,185,3*3C
$GPGGA,175438.000,4026.0117,N,07520.2999,W,2,10,0.81,1435.0,M,-33.9,M,0000,0000*62
$GPRMC,175438.000,A,4026.0117,N,07520.2999,W,12.14,166.04,100612,,,D*4E
$GPGGA,175439.000,4026.0071,N,07520.2995,$PMTK001,314,3*36
$PMTK001,220,3*30
$PMTK001,185,3*3C
$GPGGA,175438.000,4026.0117,N,07520.2999,W,2,10,0.81,1435.0,M,-33.9,M,0000,0000*62
$GPRMC,175438.000,A,4026.0117,N,07520.2999,W,12.14,166.04,100612,,,D*4E
$GPGGA,175439.000,4026.0071,N,07520.2995,$PMTK001,314,3*36
$PMTK001,220,3*30
$PMTK001,185,3*3C
$GPGGA,175438.000,4026.0117,N,07520.2999,W,2,10,0.81,1435.0,M,-33.9,M,0000,0000*62
$GPRMC,175438.000,A,4026.0117,N,07520.2999,W,12.14,166.04,100612,,,D*4E
$GPGGA,175439.000,4026.0071,N,07520.2995,$PMTK001,314,3*36
$PMTK001,220,3*30
$PMTK001,185,3*3C
$GPGGA,175438.000,4026.0117,N,07520.2999,W,2,10,0.81,1435.0,M,-33.9,M,0000,0000*62
$GPRMC,175438.000,A,4026.0117,N,07520.2999,W,12.14,166.04,100612,,,D*4E
$GPGGA,175439.000,4026.0071,N,07520.2995,$PMTK001,314,3*36
$PMTK001,220,3*30
$PMTK001,185,3*3C
$GPGGA,175438.000,4026.0117,N,07520.2999,W,2,10,0.81,1435.0,M,-33.9,M,0000,0000*62
$GPRMC,175438.000,A,4026.0117,N,07520.2999,W,12.14,166.04,100612,,,D*4E
$GPGGA,175439.000,4026.0071,N,07520.2995,$PMTK001,314,3*36
$PMTK001,220,3*30
$PMTK001,185,3*3C
$GPGGA,175438.000,4026.0117,N,07520.2999,W,2,10,0.81,1435.0,M,-33.9,M,0000,0000*62
$GPRMC,175438.000,A,4026.0117,N,07520.2999,W,12.14,166.04,100612,,,D*4E
$GPGGA,175439.000,4026.0071,N,07520.2995,$PMTK001,314,3*36
$PMTK001,220,3*30
$PMTK001,185,3*3C
$GPGGA,175438.000,4026.0117,N,07520.2999,W,2,10,0.81,1435.0,M,-33.9,M,0000,0000*62
$GPRMC,175438.000,A,4026.0117,N,07520.2999,W,12.14,166.04,100612,,,D*4E
$GPGGA,175439.000,4026.0071,N,07520.2995,$PMTK001,314,3*36
$PMTK001,220,3*30
$PMTK001,185,3*3C
$GPGGA,175438.000,4026.0117,N,07520.2999,W,2,10,0.81,1435.0,M,-33.9,M,0000,0000*62
$GPRMC,175438.000,A,4026.0117,N,07520.2999,W,12.14,166.04,100612,,,D*4E
$GPGGA,175439.000,4026.0071,N,07520.2995,$PMTK001,314,3*36
$PMTK001,220,3*30
$PMTK001,185,3*3C
$GPGGA,175438.000,4026.0117,N,07520.2999,W,2,10,0.81,1435.0,M,-33.9,M,0000,0000*62
$GPRMC,175438.000,A,4026.0117,N,07520.2999,W,12.14,166.04,100612,,,D*4E
$GPGGA,175439.000,4026.0071,N,07520.2995,$PMTK001,314,3*36
$PMTK001,220,3*30
$PMTK001,185,3*3C
$GPGGA,175438.000,4026.0117,N,07520.2999,W,2,10,0.81,1435.0,M,-33.9,M,0000,0000*62
$GPRMC,175438.000,A,4026.0117,N,07520.2999,W,12.14,166.04,100612,,,D*4E
$GPGGA,175439.000,4026.0071,N,07520.2995,$PMTK001,314,3*36
$PMTK001,220,3*30
$PMTK001,185,3*3C
$GPGGA,175438.000,4026.0117,N,07520.2999,W,2,10,0.81,1435.0,M,-33.9,M,0000,0000*62
$GPRMC,175438.000,A,4026.0117,N,07520.2999,W,12.14,166.04,100612,,,D*4E
$GPGGA,175439.000,4026.0071,N,07520.2995,$PMTK001,314,3*36
$PMTK001,220,3*30
$PMTK001,185,3*3C
$GPGGA,175438.000,4026.0117,N,07520.2999,W,2,10,0.81,1435.0,M,-33.9,M,0000,0000*62
$GPRMC,175438.000,A,4026.0117,N,07520.2999,W,12.14,166.04,100612,,,D*4E
$GPGGA,175439.000,4026.0071,N,07520.2995,$PMTK001,314,3*36
$PMTK001,220,3*30
$PMTK001,185,3*3C
$GPGGA,175438.000,4026.0117,N,07520.2999,W,2,10,0.81,1435.0,M,-33.9,M,0000,0000*62
$GPRMC,175438.000,A,4026.0117,N,07520.2999,W,12.14,166.04,100612,,,D*4E
$GPGGA,175439.000,4026.0071,N,07520.2995,$PMTK001,314,3*36
$PMTK001,220,3*30
$PMTK001,185,3*3C
$GPGGA,175438.000,4026.0117,N,07520.2999,W,2,10,0.81,1435.0,M,-33.9,M,0000,0000*62
$GPRMC,175438.000,A,4026.0117,N,07520.2999,W,12.14,166.04,100612,,,D*4E
$GPGGA,175439.000,4026.0071,N,07520.2995,$PMTK001,314,3*36
$PMTK001,220,3*30
$PMTK001,185,3*3C
$GPGGA,175438.000,4026.0117,N,07520.2999,W,2,10,0.81,1435.0,M,-33.9,M,0000,0000*62
$GPRMC,175438.000,A,4026.0117,N,07520.2999,W,12.14,166.04,100612,,,D*4E
$GPGGA,175439.000,4026.0071,N,07520.2995,$PMTK001,314,3*36
$PMTK001,220,3*30
$PMTK001,185,3*3C
$GPGGA,175438.000,4026.0117,N,07520.2999,W,2,10,0.81,1435.0,M,-33.9,M,0000,0000*62
$GPRMC,175438.000,A,4026.0117,N,07520.2999,W,12.14,166.04,100612,,,D*4E
$GPGGA,175439.000,4026.0071,N,07520.2995,$PMTK001,314,3*36
$PMTK001,220,3*30
$PMTK001,185,3*3C
$GPGGA,175438.000,4026.0117,N,07520.2999,W,2,10,0.81,1435.0,M,-33.9,M,0000,0000*62
$GPRMC,175438.000,A,4026.0117,N,07520.2999,W,12.14,166.04,100612,,,D*4E
$GPGGA,175439.000,4026.0071,N,07520.2995,$PMTK001,314,3*36
$PMTK001,220,3*30
$PMTK001,185,3*3C
$GPGGA,175438.000,4026.0117,N,07520.2999,W,2,10,0.81,1435.0,M,-33.9,M,0000,0000*62
$GPRMC,175438.000,A,4026.0117,N,07520.2999,W,12.14,166.04,100612,,,D*4E
$GPGGA,175439.000,4026.0071,N,07520.2995,$PMTK001,314,3*36
$PMTK001,220,3*30
$PMTK001,185,3*3C
$GPGGA,175438.000,4026.0117,N,07520.2999,W,2,10,0.81,1435.0,M,-33.9,M,0000,0000*62
$GPRMC,175438.000,A,4026.0117,N,07520.2999,W,12.14,166.04,100612,,,D*4E
$GPGGA,175439.000,4026.0071,N,07520.2995,$PMTK001,314,3*36
$PMTK001,220,3*30
$PMTK001,185,3*3C
$GPGGA,175438.000,4026.0117,N,07520.2999,W,2,10,0.81,1435.0,M,-33.9,M,0000,0000*62
$GPRMC,175438.000,A,4026.0117,N,07520.2999,W,12.14,166.04,100612,,,D*4E
$GPGGA,175439.000,4026.0071,N,07520.2995,$PMTK001,314,3*36
$PMTK001,220,3*30
$PMTK001,185,3*3C
$GPGGA,175438.000,4026.0117,N,07520.2999,W,2,10,0.81,1435.0,M,-33.9,M,0000,0000*62
$GPRMC,175438.000,A,4026.0117,N,07520.2999,W,12.14,166.04,100612,,,D*4E
$GPGGA,175439.000,4026.0071,N,07520.2995,$PMTK001,314,3*36
$PMTK001,220,3*30
$PMTK001,185,3*3C
$GPGGA,175438.000,4026.0117,N,07520.2999,W,2,10,0.81,1435.0,M,-33.9,M,0000,0000*62
$GPRMC,175438.000,A,4026.0117,N,07520.2999,W,12.14,166.04,100612,,,D*4E
$GPGGA,175439.000,4026.0071,N,07520.2995,$PMTK001,314,3*36
$PMTK001,220,3*30
$PMTK001,185,3*3C
$GPGGA,175438.000,4026.0117,N,07520.2999,W,2,10,0.81,1435.0,M,-33.9,M,0000,0000*62
$GPRMC,175438.000,A,4026.0117,N,07520.2999,W,12.14,166.04,100612,,,D*4E
$GPGGA,175439.000,4026.0071,N,07520.2995,$PMTK001,314,3*36
$PMTK001,220,3*30
$PMTK001,185,3*3C
$GPGGA,175438.000,4026.0117,N,07520.2999,W,2,10,0.81,1435.0,M,-33.9,M,0000,0000*62
$GPRMC,175438.000,A,4026.0117,N,07520.2999,W,12.14,166.04,100612,,,D*4E
$GPGGA,175439.000,4026.0071,N,07520.2995,$PMTK001,314,3*36
$PMTK001,220,3*30
$PMTK001,185,3*3C
$GPGGA,175438.000,4026.0117,N,07520.2999,W,2,10,0.81,1435.0,M,-33.9,M,0000,0000*62
$GPRMC,175438.000,A,4026.0117,N,07520.2999,W,12.14,166.04,100612,,,D*4E
$GPGGA,175439.000,4026.0071,N,07520.2995,$PMTK001,314,3*36
$PMTK001,220,3*30
$PMTK001,185,3*3C
$GPGGA,175438.000,4026.0117,N,07520.2999,W,2,10,0.81,1435.0,M,-33.9,M,0000,0000*62
$GPRMC,175438.000,A,4026.0117,N,07520.2999,W,12.14,166.04,100612,,,D*4E
$GPGGA,175439.000,4026.0071,N,07520.2995,$PMTK001,314,3*36
$PMTK001,220,3*30
$PMTK001,185,3*3C
$GPGGA,175438.000,4026.0117,N,07520.2999,W,2,10,0.81,1435.0,M,-33.9,M,0000,0000*62
$GPRMC,175438.000,A,4026.0117,N,07520.2999,W,12.14,166.04,100612,,,D*4E
$GPGGA,175439.000,4026.0071,N,07520.2995,$PMTK001,314,3*36
$PMTK001,220,3*30
$PMTK001,185,3*3C
$GPGGA,175438.000,4026.0117,N,07520.2999,W,2,10,0.81,1435.0,M,-33.9,M,0000,0000*62
$GPRMC,175438.000,A,4026.0117,N,07520.2999,W,12.14,166.04,100612,,,D*4E
$GPGGA,175439.000,4026.0071,N,07520.2995,$PMTK001,314,3*36
$PMTK001,220,3*30
$PMTK001,185,3*3C
$GPGGA,175438.000,4026.0117,N,07520.2999,W,2,10,0.81,1435.0,M,-33.9,M,0000,0000*62
$GPRMC,175438.000,A,4026.0117,N,07520.2999,W,12.14,166.04,100612,,,D*4E
$GPGGA,175439.000,4026.0071,N,07520.2995,$PMTK001,314,3*36
$PMTK001,220,3*30
$PMTK001,185,3*3C
$GPGGA,175438.000,4026.0117,N,07520.2999,W,2,10,0.81,1435.0,M,-33.9,M,0000,0000*62
$GPRMC,175438.000,A,4026.0117,N,07520.2999,W,12.14,166.04,100612,,,D*4E
$GPGGA,175439.000,4026.0071,N,07520.2995,$PMTK001,314,3*36
$PMTK001,220,3*30
$PMTK001,185,3*3C
$GPGGA,175438.000,4026.0117,N,07520.2999,W,2,10,0.81,1435.0,M,-33.9,M,0000,0000*62
$GPRMC,175438.000,A,4026.0117,N,07520.2999,W,12.14,166.04,100612,,,D*4E
$GPGGA,175439.000,4026.0071,N,07520.2995,$PMTK001,314,3*36
$PMTK001,220,3*30
$PMTK001,185,3*3C
$GPGGA,175438.000,4026.0117,N,07520.2999,W,2,10,0.81,1435.0,M,-33.9,M,0000,0000*62
$GPRMC,175438.000,A,4026.0117,N,07520.2999,W,12.14,166.04,100612,,,D*4E
$GPGGA,175439.000,4026.0071,N,07520.2995,$PMTK001,314,3*36
$PMTK001,220,3*30
$PMTK001,185,3*3C
$GPGGA,175438.000,4026.0117,N,07520.2999,W,2,10,0.81,1435.0,M,-33.9,M,0000,0000*62
$GPRMC,175438.000,A,4026.0117,N,07520.2999,W,12.14,166.04,100612,,,D*4E
$GPGGA,175439.000,4026.0071,N,07520.2995,$PMTK001,314,3*36
$PMTK001,220,3*30
$PMTK001,185,3*3C
$GPGGA,175438.000,4026.0117,N,07520.2999,W,2,10,0.81,1435.0,M,-33.9,M,0000,0000*62
$GPRMC,175438.000,A,4026.0117,N,07520.2999,W,12.14,166.04,100612,,,D*4E
$GPGGA,175439.000,4026.0071,N,07520.2995,$PMTK001,314,3*36
$PMTK001,220,3*30
$PMTK001,185,3*3C
$GPGGA,175438.000,4026.0117,N,07520.2999,W,2,10,0.81,1435.0,M,-33.9,M,0000,0000*62
$GPRMC,175438.000,A,4026.0117,N,07520.2999,W,12.14,166.04,100612,,,D*4E
$GPGGA,175439.000,4026.0071,N,07520.2995,$PMTK001,314,3*36
$PMTK001,220,3*30
$PMTK001,185,3*3C
$GPGGA,175438.000,4026.0117,N,07520.2999,W,2,10,0.81,1435.0,M,-33.9,M,0000,0000*62
$GPRMC,175438.000,A,4026.0117,N,07520.2999,W,12.14,166.04,100612,,,D*4E
$GPGGA,175439.000,4026.0071,N,07520.2995,$PMTK001,314,3*36
$PMTK001,220,3*30
$PMTK001,185,3*3C
$GPGGA,175438.000,4026.0117,N,07520.2999,W,2,10,0.81,1435.0,M,-33.9,M,0000,0000*62
$GPRMC,175438.000,A,4026.0117,N,07520.2999,W,12.14,166.04,100612,,,D*4E
$GPGGA,175439.000,4026.0071,N,07520.2995,$PMTK001,314,3*36
$PMTK001,220,3*30
$PMTK001,185,3*3C
$GPGGA,175438.000,4026.0117,N,07520.2999,W,2,10,0.81,1435.0,M,-33.9,M,0000,0000*62
$GPRMC,175438.000,A,4026.0117,N,07520.2999,W,12.14,166.04,100612,,,D*4E
$GPGGA,175439.000,4026.0071,N,07520.2995,$PMTK001,314,3*36
$PMTK001,220,3*30
$PMTK001,185,3*3C
$GPGGA,175438.000,4026.0117,N,07520.2999,W,2,10,0.81,1435.0,M,-33.9,M,0000,0000*62
$GPRMC,175438.000,A,4026.0117,N,07520.2999,W,12.14,166.04,100612,,,D*4E
$GPGGA,175439.000,4026.0071,N,07520.2995,$PMTK001,314,3*36
$PMTK001,220,3*30
$PMTK001,185,3*3C
$GPGGA,175438.000,4026.0117,N,07520.2999,W,2,10,0.81,1435.0,M,-33.9,M,0000,0000*62
$GPRMC,175438.000,A,4026.0117,N,07520.2999,W,12.14,166.04,100612,,,D*4E
$GPGGA,175439.000,4026.0071,N,07520.2995,$PMTK001,314,3*36
$PMTK001,220,3*30
$PMTK001,185,3*3C
$GPGGA,175438.000,4026.0117,N,07520.2999,W,2,10,0.81,1435.0,M,-33.9,M,0000,0000*62
$GPRMC,175438.000,A,4026.0117,N,07520.2999,W,12.14,166.04,100612,,,D*4E
$GPGGA,175439.000,4026.0071,N,07520.2995,$PMTK001,314,3*36
$PMTK001,220,3*30
$PMTK001,185,3*3C
$GPGGA,175438.000,4026.0117,N,07520.2999,W,2,10,0.81,1435.0,M,-33.9,M,0000,0000*62
$GPRMC,175438.000,A,4026.0117,N,07520.2999,W,12.14,166.04,100612,,,D*4E
$GPGGA,175439.000,4026.0071,N,07520.2995,