$GPGGA,183840.000,4011.6047,N,07508.8896,W,2,12,0.78,7446.1,M,-34.0,M,0000,0000*69
$GPRMC,183840.000,A,4011.6047,N,07508.8896,W,29.60,135.06,100612,,,D*43
$PMTK001,314,3*36
$PMTK001,220,3*30
$PMTK001,185,3*3C
$GPGGA,183841.000,4011.5989,N,07508.8821,$GPGGA,183840.000,4011.6047,N,07508.8896,W,2,12,0.78,7446.1,M,-34.0,M,0000,0000*69
$GPRMC,183840.000,A,4011.6047,N,07508.8896,W,29.60,135.06,100612,,,D*43
$PMTK001,314,3*36
$PMTK001,220,3*30
$PMTK001,185,3*3C
$GPGGA,183841.000,4011.5989,N,07508.8821,$GPGGA,183840.000,4011.6047,N,07508.8896,W,2,12,0.78,7446.1,M,-34.0,M,0000,0000*69
$GPRMC,183840.000,A,4011.6047,N,07508.8896,W,29.60,135.06,100612,,,D*43
$PMTK001,314,3*36
$PMTK001,220,3*30
$PMTK001,185,3*3C
$GPGGA,183841.000,4011.5989,N,07508.8821,$GPGGA,183840.000,4011.6047,N,07508.8896,W,2,12,0.78,7446.1,M,-34.0,M,0000,0000*69
$GPRMC,183840.000,A,4011.6047,N,07508.8896,W,29.60,135.06,100612,,,D*43
$PMTK001,314,3*36
$PMTK001,220,3*30
$PMTK001,185,3*3C
$GPGGA,183841.000,4011.5989,N,07508.8821,$GPGGA,183840.000,4011.6047,N,07508.8896,W,2,12,0.78,7446.1,M,-34.0,M,0000,0000*69
$GPRMC,183840.000,A,4011.6047,N,07508.8896,W,29.60,135.06,100612,,,D*43
$PMTK001,314,3*36
$PMTK001,220,3*30
$PMTK001,185,3*3C
$GPGGA,183841.000,4011.5989,N,07508.8821,$GPGGA,183840.000,4011.6047,N,07508.8896,W,2,12,0.78,7446.1,M,-34.0,M,0000,0000*69
$GPRMC,183840.000,A,4011.6047,N,07508.8896,W,29.60,135.06,100612,,,D*43
$PMTK001,314,3*36
$PMTK001,220,3*30
$PMTK001,185,3*3C
$GPGGA,183841.000,4011.5989,N,07508.8821,$GPGGA,183840.000,4011.6047,N,07508.8896,W,2,12,0.78,7446.1,M,-34.0,M,0000,0000*69
$GPRMC,183840.000,A,4011.6047,N,07508.8896,W,29.60,135.06,100612,,,D*43
$PMTK001,314,3*36
$PMTK001,220,3*30
$PMTK001,185,3*3C
$GPGGA,183841.000,4011.5989,N,07508.8821,$GPGGA,183840.000,4011.6047,N,07508.8896,W,2,12,0.78,7446.1,M,-34.0,M,0000,0000*69
$GPRMC,183840.000,A,4011.6047,N,07508.8896,W,29.60,135.06,100612,,,D*43
$PMTK001,314,3*36
$PMTK001,220,3*30
$PMTK001,185,3*3C
$GPGGA,183841.000,4011.5989,N,07508.8821,$GPGGA,183840.000,4011.6047,N,07508.8896,W,2,12,0.78,7446.1,M,-34.0,M,0000,0000*69
$GPRMC,183840.000,A,4011.6047,N,07508.8896,W,29.60,135.06,100612,,,D*43
$PMTK001,314,3*36
$PMTK001,220,3*30
$PMTK001,185,3*3C
$GPGGA,183841.000,4011.5989,N,07508.8821,$GPGGA,183840.000,4011.6047,N,07508.8896,W,2,12,0.78,7446.1,M,-34.0,M,0000,0000*69
$GPRMC,183840.000,A,4011.6047,N,07508.8896,W,29.60,135.06,100612,,,D*43
$PMTK001,314,3*36
$PMTK001,220,3*30
$PMTK001,185,3*3C
$GPGGA,183841.000,4011.5989,N,07508.8821,$GPGGA,183840.000,4011.6047,N,07508.8896,W,2,12,0.78,7446.1,M,-34.0,M,0000,0000*69
$GPRMC,183840.000,A,4011.6047,N,07508.8896,W,29.60,135.06,100612,,,D*43
$PMTK001,314,3*36
$PMTK001,220,3*30
$PMTK001,185,3*3C
$GPGGA,183841.000,4011.5989,N,07508.8821,$GPGGA,183840.000,4011.6047,N,07508.8896,W,2,12,0.78,7446.1,M,-34.0,M,0000,0000*69
$GPRMC,183840.000,A,4011.6047,N,07508.8896,W,29.60,135.06,100612,,,D*43
$PMTK001,314,3*36
$PMTK001,220,3*30
$PMTK001,185,3*3C
$GPGGA,183841.000,4011.5989,N,07508.8821,$GPGGA,183840.000,4011.6047,N,07508.8896,W,2,12,0.78,7446.1,M,-34.0,M,0000,0000*69
$GPRMC,183840.000,A,4011.6047,N,07508.8896,W,29.60,135.06,100612,,,D*43
$PMTK001,314,3*36
$PMTK001,220,3*30
$PMTK001,185,3*3C
$GPGGA,183841.000,4011.5989,N,07508.8821,$GPGGA,183840.000,4011.6047,N,07508.8896,W,2,12,0.78,7446.1,M,-34.0,M,0000,0000*69
$GPRMC,183840.000,A,4011.6047,N,07508.8896,W,29.60,135.06,100612,,,D*43
$PMTK001,314,3*36
$PMTK001,220,3*30
$PMTK001,185,3*3C
$GPGGA,183841.000,4011.5989,N,07508.8821,$GPGGA,183840.000,4011.6047,N,07508.8896,W,2,12,0.78,7446.1,M,-34.0,M,0000,0000*69
$GPRMC,183840.000,A,4011.6047,N,07508.8896,W,29.60,135.06,100612,,,D*43
$PMTK001,314,3*36
$PMTK001,220,3*30
$PMTK001,185,3*3C
$GPGGA,183841.000,4011.5989,N,07508.8821,$GPGGA,183840.000,4011.6047,N,07508.8896,W,2,12,0.78,7446.1,M,-34.0,M,0000,0000*69
$GPRMC,183840.000,A,4011.6047,N,07508.8896,W,29.60,135.06,100612,,,D*43
$PMTK001,314,3*36
$PMTK001,220,3*30
$PMTK001,185,3*3C
$GPGGA,183841.000,4011.5989,N,07508.8821,$GPGGA,183840.000,4011.6047,N,07508.8896,W,2,12,0.78,7446.1,M,-34.0,M,0000,0000*69
$GPRMC,183840.000,A,4011.6047,N,07508.8896,W,29.60,135.06,100612,,,D*43
$PMTK001,314,3*36
$PMTK001,220,3*30
$PMTK001,185,3*3C
$GPGGA,183841.000,4011.5989,N,07508.8821,$GPGGA,183840.000,4011.6047,N,07508.8896,W,2,12,0.78,7446.1,M,-34.0,M,0000,0000*69
$GPRMC,183840.000,A,4011.6047,N,07508.8896,W,29.60,135.06,100612,,,D*43
$PMTK001,314,3*36
$PMTK001,220,3*30
$PMTK001,185,3*3C
$GPGGA,183841.000,4011.5989,N,07508.8821,$GPGGA,183840.000,4011.6047,N,07508.8896,W,2,12,0.78,7446.1,M,-34.0,M,0000,0000*69
$GPRMC,183840.000,A,4011.6047,N,07508.8896,W,29.60,135.06,100612,,,D*43
$PMTK001,314,3*36
$PMTK001,220,3*30
$PMTK001,185,3*3C
$GPGGA,183841.000,4011.5989,N,07508.8821,$GPGGA,183840.000,4011.6047,N,07508.8896,W,2,12,0.78,7446.1,M,-34.0,M,0000,0000*69
$GPRMC,183840.000,A,4011.6047,N,07508.8896,W,29.60,135.06,100612,,,D*43
$PMTK001,314,3*36
$PMTK001,220,3*30
$PMTK001,185,3*3C
$GPGGA,183841.000,4011.5989,N,07508.8821,$GPGGA,183840.000,4011.6047,N,07508.8896,W,2,12,0.78,7446.1,M,-34.0,M,0000,0000*69
$GPRMC,183840.000,A,4011.6047,N,07508.8896,W,29.60,135.06,100612,,,D*43
$PMTK001,314,3*36
$PMTK001,220,3*30
$PMTK001,185,3*3C
$GPGGA,183841.000,4011.5989,N,07508.8821,$GPGGA,183840.000,4011.6047,N,07508.8896,W,2,12,0.78,7446.1,M,-34.0,M,0000,0000*69
$GPRMC,183840.000,A,4011.6047,N,07508.8896,W,29.60,135.06,100612,,,D*43
$PMTK001,314,3*36
$PMTK001,220,3*30
$PMTK001,185,3*3C
$GPGGA,183841.000,4011.5989,N,07508.8821,$GPGGA,183840.000,4011.6047,N,07508.8896,W,2,12,0.78,7446.1,M,-34.0,M,0000,0000*69
$GPRMC,183840.000,A,4011.6047,N,07508.8896,W,29.60,135.06,100612,,,D*43
$PMTK001,314,3*36
$PMTK001,220,3*30
$PMTK001,185,3*3C
$GPGGA,183841.000,4011.5989,N,07508.8821,$GPGGA,183840.000,4011.6047,N,07508.8896,W,2,12,0.78,7446.1,M,-34.0,M,0000,0000*69
$GPRMC,183840.000,A,4011.6047,N,07508.8896,W,29.60,135.06,100612,,,D*43
$PMTK001,314,3*36
$PMTK001,220,3*30
$PMTK001,185,3*3C
$GPGGA,183841.000,4011.5989,N,07508.8821,$GPGGA,183840.000,4011.6047,N,07508.8896,W,2,12,0.78,7446.1,M,-34.0,M,0000,0000*69
$GPRMC,183840.000,A,4011.6047,N,07508.8896,W,29.60,135.06,100612,,,D*43
$PMTK001,314,3*36
$PMTK001,220,3*30
$PMTK001,185,3*3C
$GPGGA,183841.000,4011.5989,N,07508.8821,$GPGGA,183840.000,4011.6047,N,07508.8896,W,2,12,0.78,7446.1,M,-34.0,M,0000,0000*69
$GPRMC,183840.000,A,4011.6047,N,07508.8896,W,29.60,135.06,100612,,,D*43
$PMTK001,314,3*36
$PMTK001,220,3*30
$PMTK001,185,3*3C
$GPGGA,183841.000,4011.5989,N,07508.8821,$GPGGA,183840.000,4011.6047,N,07508.8896,W,2,12,0.78,7446.1,M,-34.0,M,0000,0000*69
$GPRMC,183840.000,A,4011.6047,N,07508.8896,W,29.60,135.06,100612,,,D*43
$PMTK001,314,3*36
$PMTK001,220,3*30
$PMTK001,185,3*3C
$GPGGA,183841.000,4011.5989,N,07508.8821,$GPGGA,183840.000,4011.6047,N,07508.8896,W,2,12,0.78,7446.1,M,-34.0,M,0000,0000*69
$GPRMC,183840.000,A,4011.6047,N,07508.8896,W,29.60,135.06,100612,,,D*43
$PMTK001,314,3*36
$PMTK001,220,3*30
$PMTK001,185,3*3C
$GPGGA,183841.000,4011.5989,N,07508.8821,$GPGGA,183840.000,4011.6047,N,07508.8896,W,2,12,0.78,7446.1,M,-34.0,M,0000,0000*69
$GPRMC,183840.000,A,4011.6047,N,07508.8896,W,29.60,135.06,100612,,,D*43
$PMTK001,314,3*36
$PMTK001,220,3*30
$PMTK001,185,3*3C
$GPGGA,183841.000,4011.5989,N,07508.8821,$GPGGA,183840.000,4011.6047,N,07508.8896,W,2,12,0.78,7446.1,M,-34.0,M,0000,0000*69
$GPRMC,183840.000,A,4011.6047,N,07508.8896,W,29.60,135.06,100612,,,D*43
$PMTK001,314,3*36
$PMTK001,220,3*30
$PMTK001,185,3*3C
$GPGGA,183841.000,4011.5989,N,07508.8821,$GPGGA,183840.000,4011.6047,N,07508.8896,W,2,12,0.78,7446.1,M,-34.0,M,0000,0000*69
$GPRMC,183840.000,A,4011.6047,N,07508.8896,W,29.60,135.06,100612,,,D*43
$PMTK001,314,3*36
$PMTK001,220,3*30
$PMTK001,185,3*3C
$GPGGA,183841.000,4011.5989,N,07508.8821,$GPGGA,183840.000,4011.6047,N,07508.8896,W,2,12,0.78,7446.1,M,-34.0,M,0000,0000*69
$GPRMC,183840.000,A,4011.6047,N,07508.8896,W,29.60,135.06,100612,,,D*43
$PMTK001,314,3*36
$PMTK001,220,3*30
$PMTK001,185,3*3C
$GPGGA,183841.000,4011.5989,N,07508.8821,$GPGGA,183840.000,4011.6047,N,07508.8896,W,2,12,0.78,7446.1,M,-34.0,M,0000,0000*69
$GPRMC,183840.000,A,4011.6047,N,07508.8896,W,29.60,135.06,100612,,,D*43
$PMTK001,314,3*36
$PMTK001,220,3*30
$PMTK001,185,3*3C
$GPGGA,183841.000,4011.5989,N,07508.8821,$GPGGA,183840.000,4011.6047,N,07508.8896,W,2,12,0.78,7446.1,M,-34.0,M,0000,0000*69
$GPRMC,183840.000,A,4011.6047,N,07508.8896,W,29.60,135.06,100612,,,D*43
$PMTK001,314,3*36
$PMTK001,220,3*30
$PMTK001,185,3*3C
$GPGGA,183841.000,4011.5989,N,07508.8821,$GPGGA,183840.000,4011.6047,N,07508.8896,W,2,12,0.78,7446.1,M,-34.0,M,0000,0000*69
$GPRMC,183840.000,A,4011.6047,N,07508.8896,W,29.60,135.06,100612,,,D*43
$PMTK001,314,3*36
$PMTK001,220,3*30
$PMTK001,185,3*3C
$GPGGA,183841.000,4011.5989,N,07508.8821,$GPGGA,183840.000,4011.6047,N,07508.8896,W,2,12,0.78,7446.1,M,-34.0,M,0000,0000*69
$GPRMC,183840.000,A,4011.6047,N,07508.8896,W,29.60,135.06,100612,,,D*43
$PMTK001,314,3*36
$PMTK001,220,3*30
$PMTK001,185,3*3C
$GPGGA,183841.000,4011.5989,N,07508.8821,$GPGGA,183840.000,4011.6047,N,07508.8896,W,2,12,0.78,7446.1,M,-34.0,M,0000,0000*69
$GPRMC,183840.000,A,4011.6047,N,07508.8896,W,29.60,135.06,100612,,,D*43
$PMTK001,314,3*36
$PMTK001,220,3*30
$PMTK001,185,3*3C
$GPGGA,183841.000,4011.5989,N,07508.8821,$GPGGA,183840.000,4011.6047,N,07508.8896,W,2,12,0.78,7446.1,M,-34.0,M,0000,0000*69
$GPRMC,183840.000,A,4011.6047,N,07508.8896,W,29.60,135.06,100612,,,D*43
$PMTK001,314,3*36
$PMTK001,220,3*30
$PMTK001,185,3*3C
$GPGGA,183841.000,4011.5989,N,07508.8821,$GPGGA,183840.000,4011.6047,N,07508.8896,W,2,12,0.78,7446.1,M,-34.0,M,0000,0000*69
$GPRMC,183840.000,A,4011.6047,N,07508.8896,W,29.60,135.06,100612,,,D*43
$PMTK001,314,3*36
$PMTK001,220,3*30
$PMTK001,185,3*3C
$GPGGA,183841.000,4011.5989,N,07508.8821,$GPGGA,183840.000,4011.6047,N,07508.8896,W,2,12,0.78,7446.1,M,-34.0,M,0000,0000*69
$GPRMC,183840.000,A,4011.6047,N,07508.8896,W,29.60,135.06,100612,,,D*43
$PMTK001,314,3*36
$PMTK001,220,3*30
$PMTK001,185,3*3C
$GPGGA,183841.000,4011.5989,N,07508.8821,$GPGGA,183840.000,4011.6047,N,07508.8896,W,2,12,0.78,7446.1,M,-34.0,M,0000,0000*69
$GPRMC,183840.000,A,4011.6047,N,07508.8896,W,29.60,135.06,100612,,,D*43
$PMTK001,314,3*36
$PMTK001,220,3*30
$PMTK001,185,3*3C
$GPGGA,183841.000,4011.5989,N,07508.8821,$GPGGA,183840.000,4011.6047,N,07508.8896,W,2,12,0.78,7446.1,M,-34.0,M,0000,0000*69
$GPRMC,183840.000,A,4011.6047,N,07508.8896,W,29.60,135.06,100612,,,D*43
$PMTK001,314,3*36
$PMTK001,220,3*30
$PMTK001,185,3*3C
$GPGGA,183841.000,4011.5989,N,07508.8821,$GPGGA,183840.000,4011.6047,N,07508.8896,W,2,12,0.78,7446.1,M,-34.0,M,0000,0000*69
$GPRMC,183840.000,A,4011.6047,N,07508.8896,W,29.60,135.06,100612,,,D*43
$PMTK001,314,3*36
$PMTK001,220,3*30
$PMTK001,185,3*3C
$GPGGA,183841.000,4011.5989,N,07508.8821,$GPGGA,183840.000,4011.6047,N,07508.8896,W,2,12,0.78,7446.1,M,-34.0,M,0000,0000*69
$GPRMC,183840.000,A,4011.6047,N,07508.8896,W,29.60,135.06,100612,,,D*43
$PMTK001,314,3*36
$PMTK001,220,3*30
$PMTK001,185,3*3C
$GPGGA,183841.000,4011.5989,N,07508.8821,$GPGGA,183840.000,4011.6047,N,07508.8896,W,2,12,0.78,7446.1,M,-34.0,M,0000,0000*69
$GPRMC,183840.000,A,4011.6047,N,07508.8896,W,29.60,135.06,100612,,,D*43
$PMTK001,314,3*36
$PMTK001,220,3*30
$PMTK001,185,3*3C
$GPGGA,183841.000,4011.5989,N,07508.8821,$GPGGA,183840.000,4011.6047,N,07508.8896,W,2,12,0.78,7446.1,M,-34.0,M,0000,0000*69
$GPRMC,183840.000,A,4011.6047,N,07508.8896,W,29.60,135.06,100612,,,D*43
$PMTK001,314,3*36
$PMTK001,220,3*30
$PMTK001,185,3*3C
$GPGGA,183841.000,4011.5989,N,07508.8821,$GPGGA,183840.000,4011.6047,N,07508.8896,W,2,12,0.78,7446.1,M,-34.0,M,0000,0000*69
$GPRMC,183840.000,A,4011.6047,N,07508.8896,W,29.60,135.06,100612,,,D*43
$PMTK001,314,3*36
$PMTK001,220,3*30
$PMTK001,185,3*3C
$GPGGA,183841.000,4011.5989,N,07508.8821,$GPGGA,183840.000,4011.6047,N,07508.8896,W,2,12,0.78,7446.1,M,-34.0,M,0000,0000*69
$GPRMC,183840.000,A,4011.6047,N,07508.8896,W,29.60,135.06,100612,,,D*43
$PMTK001,314,3*36
$PMTK001,220,3*30
$PMTK001,185,3*3C
$GPGGA,183841.000,4011.5989,N,07508.8821,$GPGGA,183840.000,4011.6047,N,07508.8896,W,2,12,0.78,7446.1,M,-34.0,M,0000,0000*69
$GPRMC,183840.000,A,4011.6047,N,07508.8896,W,29.60,135.06,100612,,,D*43
$PMTK001,314,3*36
$PMTK001,220,3*30
$PMTK001,185,3*3C
$GPGGA,183841.000,4011.5989,N,07508.8821,$GPGGA,183840.000,4011.6047,N,07508.8896,W,2,12,0.78,7446.1,M,-34.0,M,0000,0000*69
$GPRMC,183840.000,A,4011.6047,N,07508.8896,W,29.60,135.06,100612,,,D*43
$PMTK001,314,3*36
$PMTK001,220,3*30
$PMTK001,185,3*3C
$GPGGA,183841.000,4011.5989,N,07508.8821,$GPGGA,183840.000,4011.6047,N,07508.8896,W,2,12,0.78,7446.1,M,-34.0,M,0000,0000*69
$GPRMC,183840.000,A,4011.6047,N,07508.8896,W,29.60,135.06,100612,,,D*43
$PMTK001,314,3*36
$PMTK001,220,3*30
$PMTK001,185,3*3C
$GPGGA,183841.000,4011.5989,N,07508.8821,$GPGGA,183840.000,4011.6047,N,07508.8896,W,2,12,0.78,7446.1,M,-34.0,M,0000,0000*69
$GPRMC,183840.000,A,4011.6047,N,07508.8896,W,29.60,135.06,100612,,,D*43
$PMTK001,314,3*36
$PMTK001,220,3*30
$PMTK001,185,3*3C
$GPGGA,183841.000,4011.5989,N,07508.8821,$GPGGA,183840.000,4011.6047,N,07508.8896,W,2,12,0.78,7446.1,M,-34.0,M,0000,0000*69
$GPRMC,183840.000,A,4011.6047,N,07508.8896,W,29.60,135.06,100612,,,D*43
$PMTK001,314,3*36
$PMTK001,220,3*30
$PMTK001,185,3*3C
$GPGGA,183841.000,4011.5989,N,07508.8821,$GPGGA,183840.000,4011.6047,N,07508.8896,W,2,12,0.78,7446.1,M,-34.0,M,0000,0000*69
$GPRMC,183840.000,A,4011.6047,N,07508.8896,W,29.60,135.06,100612,,,D*43
$PMTK001,314,3*36
$PMTK001,220,3*30
$PMTK001,185,3*3C
$GPGGA,183841.000,4011.5989,N,07508.8821,$GPGGA,183840.000,4011.6047,N,07508.8896,W,2,12,0.78,7446.1,M,-34.0,M,0000,0000*69
$GPRMC,183840.000,A,4011.6047,N,07508.8896,W,29.60,135.06,100612,,,D*43
$PMTK001,314,3*36
$PMTK001,220,3*30
$PMTK001,185,3*3C
$GPGGA,183841.000,4011.5989,N,07508.8821,$GPGGA,183840.000,4011.6047,N,07508.8896,W,2,12,0.78,7446.1,M,-34.0,M,0000,0000*69
$GPRMC,183840.000,A,4011.6047,N,07508.8896,W,29.60,135.06,100612,,,D*43
$PMTK001,314,3*36
$PMTK001,220,3*30
$PMTK001,185,3*3C
$GPGGA,183841.000,4011.5989,N,07508.8821,$GPGGA,183840.000,4011.6047,N,07508.8896,W,2,12,0.78,7446.1,M,-34.0,M,0000,0000*69
$GPRMC,183840.000,A,4011.6047,N,07508.8896,W,29.60,135.06,100612,,,D*43
$PMTK001,314,3*36
$PMTK001,220,3*30
$PMTK001,185,3*3C
$GPGGA,183841.000,4011.5989,N,07508.8821,