$GPGGA,160155.000,4026.7517,N,07520.5901,W,1,9,0.87,151.4,M,-33.9,M,,*62
$GPRMC,160155.000,A,4026.7517,N,07520.5901,W,0.11,96.86,100612,,,A*46
$PMTK001,314,3*36
$PMTK001,220,3*30
$PMTK001,185,3*3C
$GPGGA,160156.000,4026.7521,N,07520.5902,W,1,9,0.87,1$GPGGA,160155.000,4026.7517,N,07520.5901,W,1,9,0.87,151.4,M,-33.9,M,,*62
$GPRMC,160155.000,A,4026.7517,N,07520.5901,W,0.11,96.86,100612,,,A*46
$PMTK001,314,3*36
$PMTK001,220,3*30
$PMTK001,185,3*3C
$GPGGA,160156.000,4026.7521,N,07520.5902,W,1,9,0.87,1$GPGGA,160155.000,4026.7517,N,07520.5901,W,1,9,0.87,151.4,M,-33.9,M,,*62
$GPRMC,160155.000,A,4026.7517,N,07520.5901,W,0.11,96.86,100612,,,A*46
$PMTK001,314,3*36
$PMTK001,220,3*30
$PMTK001,185,3*3C
$GPGGA,160156.000,4026.7521,N,07520.5902,W,1,9,0.87,1$GPGGA,160155.000,4026.7517,N,07520.5901,W,1,9,0.87,151.4,M,-33.9,M,,*62
$GPRMC,160155.000,A,4026.7517,N,07520.5901,W,0.11,96.86,100612,,,A*46
$PMTK001,314,3*36
$PMTK001,220,3*30
$PMTK001,185,3*3C
$GPGGA,160156.000,4026.7521,N,07520.5902,W,1,9,0.87,1$GPGGA,160155.000,4026.7517,N,07520.5901,W,1,9,0.87,151.4,M,-33.9,M,,*62
$GPRMC,160155.000,A,4026.7517,N,07520.5901,W,0.11,96.86,100612,,,A*46
$PMTK001,314,3*36
$PMTK001,220,3*30
$PMTK001,185,3*3C
$GPGGA,160156.000,4026.7521,N,07520.5902,W,1,9,0.87,1$GPGGA,160155.000,4026.7517,N,07520.5901,W,1,9,0.87,151.4,M,-33.9,M,,*62
$GPRMC,160155.000,A,4026.7517,N,07520.5901,W,0.11,96.86,100612,,,A*46
$PMTK001,314,3*36
$PMTK001,220,3*30
$PMTK001,185,3*3C
$GPGGA,160156.000,4026.7521,N,07520.5902,W,1,9,0.87,1$GPGGA,160155.000,4026.7517,N,07520.5901,W,1,9,0.87,151.4,M,-33.9,M,,*62
$GPRMC,160155.000,A,4026.7517,N,07520.5901,W,0.11,96.86,100612,,,A*46
$PMTK001,314,3*36
$PMTK001,220,3*30
$PMTK001,185,3*3C
$GPGGA,160156.000,4026.7521,N,07520.5902,W,1,9,0.87,1$GPGGA,160155.000,4026.7517,N,07520.5901,W,1,9,0.87,151.4,M,-33.9,M,,*62
$GPRMC,160155.000,A,4026.7517,N,07520.5901,W,0.11,96.86,100612,,,A*46
$PMTK001,314,3*36
$PMTK001,220,3*30
$PMTK001,185,3*3C
$GPGGA,160156.000,4026.7521,N,07520.5902,W,1,9,0.87,1$GPGGA,160155.000,4026.7517,N,07520.5901,W,1,9,0.87,151.4,M,-33.9,M,,*62
$GPRMC,160155.000,A,4026.7517,N,07520.5901,W,0.11,96.86,100612,,,A*46
$PMTK001,314,3*36
$PMTK001,220,3*30
$PMTK001,185,3*3C
$GPGGA,160156.000,4026.7521,N,07520.5902,W,1,9,0.87,1$GPGGA,160155.000,4026.7517,N,07520.5901,W,1,9,0.87,151.4,M,-33.9,M,,*62
$GPRMC,160155.000,A,4026.7517,N,07520.5901,W,0.11,96.86,100612,,,A*46
$PMTK001,314,3*36
$PMTK001,220,3*30
$PMTK001,185,3*3C
$GPGGA,160156.000,4026.7521,N,07520.5902,W,1,9,0.87,1$GPGGA,160155.000,4026.7517,N,07520.5901,W,1,9,0.87,151.4,M,-33.9,M,,*62
$GPRMC,160155.000,A,4026.7517,N,07520.5901,W,0.11,96.86,100612,,,A*46
$PMTK001,314,3*36
$PMTK001,220,3*30
$PMTK001,185,3*3C
$GPGGA,160156.000,4026.7521,N,07520.5902,W,1,9,0.87,1$GPGGA,160155.000,4026.7517,N,07520.5901,W,1,9,0.87,151.4,M,-33.9,M,,*62
$GPRMC,160155.000,A,4026.7517,N,07520.5901,W,0.11,96.86,100612,,,A*46
$PMTK001,314,3*36
$PMTK001,220,3*30
$PMTK001,185,3*3C
$GPGGA,160156.000,4026.7521,N,07520.5902,W,1,9,0.87,1$GPGGA,160155.000,4026.7517,N,07520.5901,W,1,9,0.87,151.4,M,-33.9,M,,*62
$GPRMC,160155.000,A,4026.7517,N,07520.5901,W,0.11,96.86,100612,,,A*46
$PMTK001,314,3*36
$PMTK001,220,3*30
$PMTK001,185,3*3C
$GPGGA,160156.000,4026.7521,N,07520.5902,W,1,9,0.87,1$GPGGA,160155.000,4026.7517,N,07520.5901,W,1,9,0.87,151.4,M,-33.9,M,,*62
$GPRMC,160155.000,A,4026.7517,N,07520.5901,W,0.11,96.86,100612,,,A*46
$PMTK001,314,3*36
$PMTK001,220,3*30
$PMTK001,185,3*3C
$GPGGA,160156.000,4026.7521,N,07520.5902,W,1,9,0.87,1$GPGGA,160155.000,4026.7517,N,07520.5901,W,1,9,0.87,151.4,M,-33.9,M,,*62
$GPRMC,160155.000,A,4026.7517,N,07520.5901,W,0.11,96.86,100612,,,A*46
$PMTK001,314,3*36
$PMTK001,220,3*30
$PMTK001,185,3*3C
$GPGGA,160156.000,4026.7521,N,07520.5902,W,1,9,0.87,1$GPGGA,160155.000,4026.7517,N,07520.5901,W,1,9,0.87,151.4,M,-33.9,M,,*62
$GPRMC,160155.000,A,4026.7517,N,07520.5901,W,0.11,96.86,100612,,,A*46
$PMTK001,314,3*36
$PMTK001,220,3*30
$PMTK001,185,3*3C
$GPGGA,160156.000,4026.7521,N,07520.5902,W,1,9,0.87,1$GPGGA,160155.000,4026.7517,N,07520.5901,W,1,9,0.87,151.4,M,-33.9,M,,*62
$GPRMC,160155.000,A,4026.7517,N,07520.5901,W,0.11,96.86,100612,,,A*46
$PMTK001,314,3*36
$PMTK001,220,3*30
$PMTK001,185,3*3C
$GPGGA,160156.000,4026.7521,N,07520.5902,W,1,9,0.87,1$GPGGA,160155.000,4026.7517,N,07520.5901,W,1,9,0.87,151.4,M,-33.9,M,,*62
$GPRMC,160155.000,A,4026.7517,N,07520.5901,W,0.11,96.86,100612,,,A*46
$PMTK001,314,3*36
$PMTK001,220,3*30
$PMTK001,185,3*3C
$GPGGA,160156.000,4026.7521,N,07520.5902,W,1,9,0.87,1$GPGGA,160155.000,4026.7517,N,07520.5901,W,1,9,0.87,151.4,M,-33.9,M,,*62
$GPRMC,160155.000,A,4026.7517,N,07520.5901,W,0.11,96.86,100612,,,A*46
$PMTK001,314,3*36
$PMTK001,220,3*30
$PMTK001,185,3*3C
$GPGGA,160156.000,4026.7521,N,07520.5902,W,1,9,0.87,1