$PMTK001,314,3*36
$GPGGA,181040.000,4021.2759,N,07517.0790,W,2,10,0.82,4013.1,M,-33.9,M,0000,0000*6D
$GPRMC,181040.000,A,4021.2759,N,07517.0790,W,23.36,176.74,100612,,,D*42
$PMTK001,220,3*30
$PMTK001,185,3*3C
$GPGGA,181041.000,4021.2694,N,07517.0783,$PMTK001,314,3*36
$GPGGA,181040.000,4021.2759,N,07517.0790,W,2,10,0.82,4013.1,M,-33.9,M,0000,0000*6D
$GPRMC,181040.000,A,4021.2759,N,07517.0790,W,23.36,176.74,100612,,,D*42
$PMTK001,220,3*30
$PMTK001,185,3*3C
$GPGGA,181041.000,4021.2694,N,07517.0783,$PMTK001,314,3*36
$GPGGA,181040.000,4021.2759,N,07517.0790,W,2,10,0.82,4013.1,M,-33.9,M,0000,0000*6D
$GPRMC,181040.000,A,4021.2759,N,07517.0790,W,23.36,176.74,100612,,,D*42
$PMTK001,220,3*30
$PMTK001,185,3*3C
$GPGGA,181041.000,4021.2694,N,07517.0783,$PMTK001,314,3*36
$GPGGA,181040.000,4021.2759,N,07517.0790,W,2,10,0.82,4013.1,M,-33.9,M,0000,0000*6D
$GPRMC,181040.000,A,4021.2759,N,07517.0790,W,23.36,176.74,100612,,,D*42
$PMTK001,220,3*30
$PMTK001,185,3*3C
$GPGGA,181041.000,4021.2694,N,07517.0783,$PMTK001,314,3*36
$GPGGA,181040.000,4021.2759,N,07517.0790,W,2,10,0.82,4013.1,M,-33.9,M,0000,0000*6D
$GPRMC,181040.000,A,4021.2759,N,07517.0790,W,23.36,176.74,100612,,,D*42
$PMTK001,220,3*30
$PMTK001,185,3*3C
$GPGGA,181041.000,4021.2694,N,07517.0783,$PMTK001,314,3*36
$GPGGA,181040.000,4021.2759,N,07517.0790,W,2,10,0.82,4013.1,M,-33.9,M,0000,0000*6D
$GPRMC,181040.000,A,4021.2759,N,07517.0790,W,23.36,176.74,100612,,,D*42
$PMTK001,220,3*30
$PMTK001,185,3*3C
$GPGGA,181041.000,4021.2694,N,07517.0783,$PMTK001,314,3*36
$GPGGA,181040.000,4021.2759,N,07517.0790,W,2,10,0.82,4013.1,M,-33.9,M,0000,0000*6D
$GPRMC,181040.000,A,4021.2759,N,07517.0790,W,23.36,176.74,100612,,,D*42
$PMTK001,220,3*30
$PMTK001,185,3*3C
$GPGGA,181041.000,4021.2694,N,07517.0783,$PMTK001,314,3*36
$GPGGA,181040.000,4021.2759,N,07517.0790,W,2,10,0.82,4013.1,M,-33.9,M,0000,0000*6D
$GPRMC,181040.000,A,4021.2759,N,07517.0790,W,23.36,176.74,100612,,,D*42
$PMTK001,220,3*30
$PMTK001,185,3*3C
$GPGGA,181041.000,4021.2694,N,07517.0783,$PMTK001,314,3*36
$GPGGA,181040.000,4021.2759,N,07517.0790,W,2,10,0.82,4013.1,M,-33.9,M,0000,0000*6D
$GPRMC,181040.000,A,4021.2759,N,07517.0790,W,23.36,176.74,100612,,,D*42
$PMTK001,220,3*30
$PMTK001,185,3*3C
$GPGGA,181041.000,4021.2694,N,07517.0783,$PMTK001,314,3*36
$GPGGA,181040.000,4021.2759,N,07517.0790,W,2,10,0.82,4013.1,M,-33.9,M,0000,0000*6D
$GPRMC,181040.000,A,4021.2759,N,07517.0790,W,23.36,176.74,100612,,,D*42
$PMTK001,220,3*30
$PMTK001,185,3*3C
$GPGGA,181041.000,4021.2694,N,07517.0783,$PMTK001,314,3*36
$GPGGA,181040.000,4021.2759,N,07517.0790,W,2,10,0.82,4013.1,M,-33.9,M,0000,0000*6D
$GPRMC,181040.000,A,4021.2759,N,07517.0790,W,23.36,176.74,100612,,,D*42
$PMTK001,220,3*30
$PMTK001,185,3*3C
$GPGGA,181041.000,4021.2694,N,07517.0783,$PMTK001,314,3*36
$GPGGA,181040.000,4021.2759,N,07517.0790,W,2,10,0.82,4013.1,M,-33.9,M,0000,0000*6D
$GPRMC,181040.000,A,4021.2759,N,07517.0790,W,23.36,176.74,100612,,,D*42
$PMTK001,220,3*30
$PMTK001,185,3*3C
$GPGGA,181041.000,4021.2694,N,07517.0783,$PMTK001,314,3*36
$GPGGA,181040.000,4021.2759,N,07517.0790,W,2,10,0.82,4013.1,M,-33.9,M,0000,0000*6D
$GPRMC,181040.000,A,4021.2759,N,07517.0790,W,23.36,176.74,100612,,,D*42
$PMTK001,220,3*30
$PMTK001,185,3*3C
$GPGGA,181041.000,4021.2694,N,07517.0783,$PMTK001,314,3*36
$GPGGA,181040.000,4021.2759,N,07517.0790,W,2,10,0.82,4013.1,M,-33.9,M,0000,0000*6D
$GPRMC,181040.000,A,4021.2759,N,07517.0790,W,23.36,176.74,100612,,,D*42
$PMTK001,220,3*30
$PMTK001,185,3*3C
$GPGGA,181041.000,4021.2694,N,07517.0783,$PMTK001,314,3*36
$GPGGA,181040.000,4021.2759,N,07517.0790,W,2,10,0.82,4013.1,M,-33.9,M,0000,0000*6D
$GPRMC,181040.000,A,4021.2759,N,07517.0790,W,23.36,176.74,100612,,,D*42
$PMTK001,220,3*30
$PMTK001,185,3*3C
$GPGGA,181041.000,4021.2694,N,07517.0783,$PMTK001,314,3*36
$GPGGA,181040.000,4021.2759,N,07517.0790,W,2,10,0.82,4013.1,M,-33.9,M,0000,0000*6D
$GPRMC,181040.000,A,4021.2759,N,07517.0790,W,23.36,176.74,100612,,,D*42
$PMTK001,220,3*30
$PMTK001,185,3*3C
$GPGGA,181041.000,4021.2694,N,07517.0783,$PMTK001,314,3*36
$GPGGA,181040.000,4021.2759,N,07517.0790,W,2,10,0.82,4013.1,M,-33.9,M,0000,0000*6D
$GPRMC,181040.000,A,4021.2759,N,07517.0790,W,23.36,176.74,100612,,,D*42
$PMTK001,220,3*30
$PMTK001,185,3*3C
$GPGGA,181041.000,4021.2694,N,07517.0783,$PMTK001,314,3*36
$GPGGA,181040.000,4021.2759,N,07517.0790,W,2,10,0.82,4013.1,M,-33.9,M,0000,0000*6D
$GPRMC,181040.000,A,4021.2759,N,07517.0790,W,23.36,176.74,100612,,,D*42
$PMTK001,220,3*30
$PMTK001,185,3*3C
$GPGGA,181041.000,4021.2694,N,07517.0783,$PMTK001,314,3*36
$GPGGA,181040.000,4021.2759,N,07517.0790,W,2,10,0.82,4013.1,M,-33.9,M,0000,0000*6D
$GPRMC,181040.000,A,4021.2759,N,07517.0790,W,23.36,176.74,100612,,,D*42
$PMTK001,220,3*30
$PMTK001,185,3*3C
$GPGGA,181041.000,4021.2694,N,07517.0783,$PMTK001,314,3*36
$GPGGA,181040.000,4021.2759,N,07517.0790,W,2,10,0.82,4013.1,M,-33.9,M,0000,0000*6D
$GPRMC,181040.000,A,4021.2759,N,07517.0790,W,23.36,176.74,100612,,,D*42
$PMTK001,220,3*30
$PMTK001,185,3*3C
$GPGGA,181041.000,4021.2694,N,07517.0783,$PMTK001,314,3*36
$GPGGA,181040.000,4021.2759,N,07517.0790,W,2,10,0.82,4013.1,M,-33.9,M,0000,0000*6D
$GPRMC,181040.000,A,4021.2759,N,07517.0790,W,23.36,176.74,100612,,,D*42
$PMTK001,220,3*30
$PMTK001,185,3*3C
$GPGGA,181041.000,4021.2694,N,07517.0783,$PMTK001,314,3*36
$GPGGA,181040.000,4021.2759,N,07517.0790,W,2,10,0.82,4013.1,M,-33.9,M,0000,0000*6D
$GPRMC,181040.000,A,4021.2759,N,07517.0790,W,23.36,176.74,100612,,,D*42
$PMTK001,220,3*30
$PMTK001,185,3*3C
$GPGGA,181041.000,4021.2694,N,07517.0783,$PMTK001,314,3*36
$GPGGA,181040.000,4021.2759,N,07517.0790,W,2,10,0.82,4013.1,M,-33.9,M,0000,0000*6D
$GPRMC,181040.000,A,4021.2759,N,07517.0790,W,23.36,176.74,100612,,,D*42
$PMTK001,220,3*30
$PMTK001,185,3*3C
$GPGGA,181041.000,4021.2694,N,07517.0783,$PMTK001,314,3*36
$GPGGA,181040.000,4021.2759,N,07517.0790,W,2,10,0.82,4013.1,M,-33.9,M,0000,0000*6D
$GPRMC,181040.000,A,4021.2759,N,07517.0790,W,23.36,176.74,100612,,,D*42
$PMTK001,220,3*30
$PMTK001,185,3*3C
$GPGGA,181041.000,4021.2694,N,07517.0783,$PMTK001,314,3*36
$GPGGA,181040.000,4021.2759,N,07517.0790,W,2,10,0.82,4013.1,M,-33.9,M,0000,0000*6D
$GPRMC,181040.000,A,4021.2759,N,07517.0790,W,23.36,176.74,100612,,,D*42
$PMTK001,220,3*30
$PMTK001,185,3*3C
$GPGGA,181041.000,4021.2694,N,07517.0783,$PMTK001,314,3*36
$GPGGA,181040.000,4021.2759,N,07517.0790,W,2,10,0.82,4013.1,M,-33.9,M,0000,0000*6D
$GPRMC,181040.000,A,4021.2759,N,07517.0790,W,23.36,176.74,100612,,,D*42
$PMTK001,220,3*30
$PMTK001,185,3*3C
$GPGGA,181041.000,4021.2694,N,07517.0783,$PMTK001,314,3*36
$GPGGA,181040.000,4021.2759,N,07517.0790,W,2,10,0.82,4013.1,M,-33.9,M,0000,0000*6D
$GPRMC,181040.000,A,4021.2759,N,07517.0790,W,23.36,176.74,100612,,,D*42
$PMTK001,220,3*30
$PMTK001,185,3*3C
$GPGGA,181041.000,4021.2694,N,07517.0783,$PMTK001,314,3*36
$GPGGA,181040.000,4021.2759,N,07517.0790,W,2,10,0.82,4013.1,M,-33.9,M,0000,0000*6D
$GPRMC,181040.000,A,4021.2759,N,07517.0790,W,23.36,176.74,100612,,,D*42
$PMTK001,220,3*30
$PMTK001,185,3*3C
$GPGGA,181041.000,4021.2694,N,07517.0783,$PMTK001,314,3*36
$GPGGA,181040.000,4021.2759,N,07517.0790,W,2,10,0.82,4013.1,M,-33.9,M,0000,0000*6D
$GPRMC,181040.000,A,4021.2759,N,07517.0790,W,23.36,176.74,100612,,,D*42
$PMTK001,220,3*30
$PMTK001,185,3*3C
$GPGGA,181041.000,4021.2694,N,07517.0783,$PMTK001,314,3*36
$GPGGA,181040.000,4021.2759,N,07517.0790,W,2,10,0.82,4013.1,M,-33.9,M,0000,0000*6D
$GPRMC,181040.000,A,4021.2759,N,07517.0790,W,23.36,176.74,100612,,,D*42
$PMTK001,220,3*30
$PMTK001,185,3*3C
$GPGGA,181041.000,4021.2694,N,07517.0783,$PMTK001,314,3*36
$GPGGA,181040.000,4021.2759,N,07517.0790,W,2,10,0.82,4013.1,M,-33.9,M,0000,0000*6D
$GPRMC,181040.000,A,4021.2759,N,07517.0790,W,23.36,176.74,100612,,,D*42
$PMTK001,220,3*30
$PMTK001,185,3*3C
$GPGGA,181041.000,4021.2694,N,07517.0783,$PMTK001,314,3*36
$GPGGA,181040.000,4021.2759,N,07517.0790,W,2,10,0.82,4013.1,M,-33.9,M,0000,0000*6D
$GPRMC,181040.000,A,4021.2759,N,07517.0790,W,23.36,176.74,100612,,,D*42
$PMTK001,220,3*30
$PMTK001,185,3*3C
$GPGGA,181041.000,4021.2694,N,07517.0783,$PMTK001,314,3*36
$GPGGA,181040.000,4021.2759,N,07517.0790,W,2,10,0.82,4013.1,M,-33.9,M,0000,0000*6D
$GPRMC,181040.000,A,4021.2759,N,07517.0790,W,23.36,176.74,100612,,,D*42
$PMTK001,220,3*30
$PMTK001,185,3*3C
$GPGGA,181041.000,4021.2694,N,07517.0783,$PMTK001,314,3*36
$GPGGA,181040.000,4021.2759,N,07517.0790,W,2,10,0.82,4013.1,M,-33.9,M,0000,0000*6D
$GPRMC,181040.000,A,4021.2759,N,07517.0790,W,23.36,176.74,100612,,,D*42
$PMTK001,220,3*30
$PMTK001,185,3*3C
$GPGGA,181041.000,4021.2694,N,07517.0783,$PMTK001,314,3*36
$GPGGA,181040.000,4021.2759,N,07517.0790,W,2,10,0.82,4013.1,M,-33.9,M,0000,0000*6D
$GPRMC,181040.000,A,4021.2759,N,07517.0790,W,23.36,176.74,100612,,,D*42
$PMTK001,220,3*30
$PMTK001,185,3*3C
$GPGGA,181041.000,4021.2694,N,07517.0783,$PMTK001,314,3*36
$GPGGA,181040.000,4021.2759,N,07517.0790,W,2,10,0.82,4013.1,M,-33.9,M,0000,0000*6D
$GPRMC,181040.000,A,4021.2759,N,07517.0790,W,23.36,176.74,100612,,,D*42
$PMTK001,220,3*30
$PMTK001,185,3*3C
$GPGGA,181041.000,4021.2694,N,07517.0783,$PMTK001,314,3*36
$GPGGA,181040.000,4021.2759,N,07517.0790,W,2,10,0.82,4013.1,M,-33.9,M,0000,0000*6D
$GPRMC,181040.000,A,4021.2759,N,07517.0790,W,23.36,176.74,100612,,,D*42
$PMTK001,220,3*30
$PMTK001,185,3*3C
$GPGGA,181041.000,4021.2694,N,07517.0783,$PMTK001,314,3*36
$GPGGA,181040.000,4021.2759,N,07517.0790,W,2,10,0.82,4013.1,M,-33.9,M,0000,0000*6D
$GPRMC,181040.000,A,4021.2759,N,07517.0790,W,23.36,176.74,100612,,,D*42
$PMTK001,220,3*30
$PMTK001,185,3*3C
$GPGGA,181041.000,4021.2694,N,07517.0783,$PMTK001,314,3*36
$GPGGA,181040.000,4021.2759,N,07517.0790,W,2,10,0.82,4013.1,M,-33.9,M,0000,0000*6D
$GPRMC,181040.000,A,4021.2759,N,07517.0790,W,23.36,176.74,100612,,,D*42
$PMTK001,220,3*30
$PMTK001,185,3*3C
$GPGGA,181041.000,4021.2694,N,07517.0783,$PMTK001,314,3*36
$GPGGA,181040.000,4021.2759,N,07517.0790,W,2,10,0.82,4013.1,M,-33.9,M,0000,0000*6D
$GPRMC,181040.000,A,4021.2759,N,07517.0790,W,23.36,176.74,100612,,,D*42
$PMTK001,220,3*30
$PMTK001,185,3*3C
$GPGGA,181041.000,4021.2694,N,07517.0783,$PMTK001,314,3*36
$GPGGA,181040.000,4021.2759,N,07517.0790,W,2,10,0.82,4013.1,M,-33.9,M,0000,0000*6D
$GPRMC,181040.000,A,4021.2759,N,07517.0790,W,23.36,176.74,100612,,,D*42
$PMTK001,220,3*30
$PMTK001,185,3*3C
$GPGGA,181041.000,4021.2694,N,07517.0783,$PMTK001,314,3*36
$GPGGA,181040.000,4021.2759,N,07517.0790,W,2,10,0.82,4013.1,M,-33.9,M,0000,0000*6D
$GPRMC,181040.000,A,4021.2759,N,07517.0790,W,23.36,176.74,100612,,,D*42
$PMTK001,220,3*30
$PMTK001,185,3*3C
$GPGGA,181041.000,4021.2694,N,07517.0783,$PMTK001,314,3*36
$GPGGA,181040.000,4021.2759,N,07517.0790,W,2,10,0.82,4013.1,M,-33.9,M,0000,0000*6D
$GPRMC,181040.000,A,4021.2759,N,07517.0790,W,23.36,176.74,100612,,,D*42
$PMTK001,220,3*30
$PMTK001,185,3*3C
$GPGGA,181041.000,4021.2694,N,07517.0783,$PMTK001,314,3*36
$GPGGA,181040.000,4021.2759,N,07517.0790,W,2,10,0.82,4013.1,M,-33.9,M,0000,0000*6D
$GPRMC,181040.000,A,4021.2759,N,07517.0790,W,23.36,176.74,100612,,,D*42
$PMTK001,220,3*30
$PMTK001,185,3*3C
$GPGGA,181041.000,4021.2694,N,07517.0783,$PMTK001,314,3*36
$GPGGA,181040.000,4021.2759,N,07517.0790,W,2,10,0.82,4013.1,M,-33.9,M,0000,0000*6D
$GPRMC,181040.000,A,4021.2759,N,07517.0790,W,23.36,176.74,100612,,,D*42
$PMTK001,220,3*30
$PMTK001,185,3*3C
$GPGGA,181041.000,4021.2694,N,07517.0783,$PMTK001,314,3*36
$GPGGA,181040.000,4021.2759,N,07517.0790,W,2,10,0.82,4013.1,M,-33.9,M,0000,0000*6D
$GPRMC,181040.000,A,4021.2759,N,07517.0790,W,23.36,176.74,100612,,,D*42
$PMTK001,220,3*30
$PMTK001,185,3*3C
$GPGGA,181041.000,4021.2694,N,07517.0783,$PMTK001,314,3*36
$GPGGA,181040.000,4021.2759,N,07517.0790,W,2,10,0.82,4013.1,M,-33.9,M,0000,0000*6D
$GPRMC,181040.000,A,4021.2759,N,07517.0790,W,23.36,176.74,100612,,,D*42
$PMTK001,220,3*30
$PMTK001,185,3*3C
$GPGGA,181041.000,4021.2694,N,07517.0783,$PMTK001,314,3*36
$GPGGA,181040.000,4021.2759,N,07517.0790,W,2,10,0.82,4013.1,M,-33.9,M,0000,0000*6D
$GPRMC,181040.000,A,4021.2759,N,07517.0790,W,23.36,176.74,100612,,,D*42
$PMTK001,220,3*30
$PMTK001,185,3*3C
$GPGGA,181041.000,4021.2694,N,07517.0783,$PMTK001,314,3*36
$GPGGA,181040.000,4021.2759,N,07517.0790,W,2,10,0.82,4013.1,M,-33.9,M,0000,0000*6D
$GPRMC,181040.000,A,4021.2759,N,07517.0790,W,23.36,176.74,100612,,,D*42
$PMTK001,220,3*30
$PMTK001,185,3*3C
$GPGGA,181041.000,4021.2694,N,07517.0783,$PMTK001,314,3*36
$GPGGA,181040.000,4021.2759,N,07517.0790,W,2,10,0.82,4013.1,M,-33.9,M,0000,0000*6D
$GPRMC,181040.000,A,4021.2759,N,07517.0790,W,23.36,176.74,100612,,,D*42
$PMTK001,220,3*30
$PMTK001,185,3*3C
$GPGGA,181041.000,4021.2694,N,07517.0783,$PMTK001,314,3*36
$GPGGA,181040.000,4021.2759,N,07517.0790,W,2,10,0.82,4013.1,M,-33.9,M,0000,0000*6D
$GPRMC,181040.000,A,4021.2759,N,07517.0790,W,23.36,176.74,100612,,,D*42
$PMTK001,220,3*30
$PMTK001,185,3*3C
$GPGGA,181041.000,4021.2694,N,07517.0783,$PMTK001,314,3*36
$GPGGA,181040.000,4021.2759,N,07517.0790,W,2,10,0.82,4013.1,M,-33.9,M,0000,0000*6D
$GPRMC,181040.000,A,4021.2759,N,07517.0790,W,23.36,176.74,100612,,,D*42
$PMTK001,220,3*30
$PMTK001,185,3*3C
$GPGGA,181041.000,4021.2694,N,07517.0783,$PMTK001,314,3*36
$GPGGA,181040.000,4021.2759,N,07517.0790,W,2,10,0.82,4013.1,M,-33.9,M,0000,0000*6D
$GPRMC,181040.000,A,4021.2759,N,07517.0790,W,23.36,176.74,100612,,,D*42
$PMTK001,220,3*30
$PMTK001,185,3*3C
$GPGGA,181041.000,4021.2694,N,07517.0783,$PMTK001,314,3*36
$GPGGA,181040.000,4021.2759,N,07517.0790,W,2,10,0.82,4013.1,M,-33.9,M,0000,0000*6D
$GPRMC,181040.000,A,4021.2759,N,07517.0790,W,23.36,176.74,100612,,,D*42
$PMTK001,220,3*30
$PMTK001,185,3*3C
$GPGGA,181041.000,4021.2694,N,07517.0783,$PMTK001,314,3*36
$GPGGA,181040.000,4021.2759,N,07517.0790,W,2,10,0.82,4013.1,M,-33.9,M,0000,0000*6D
$GPRMC,181040.000,A,4021.2759,N,07517.0790,W,23.36,176.74,100612,,,D*42
$PMTK001,220,3*30
$PMTK001,185,3*3C
$GPGGA,181041.000,4021.2694,N,07517.0783,$PMTK001,314,3*36
$GPGGA,181040.000,4021.2759,N,07517.0790,W,2,10,0.82,4013.1,M,-33.9,M,0000,0000*6D
$GPRMC,181040.000,A,4021.2759,N,07517.0790,W,23.36,176.74,100612,,,D*42
$PMTK001,220,3*30
$PMTK001,185,3*3C
$GPGGA,181041.000,4021.2694,N,07517.0783,$PMTK001,314,3*36
$GPGGA,181040.000,4021.2759,N,07517.0790,W,2,10,0.82,4013.1,M,-33.9,M,0000,0000*6D
$GPRMC,181040.000,A,4021.2759,N,07517.0790,W,23.36,176.74,100612,,,D*42
$PMTK001,220,3*30
$PMTK001,185,3*3C
$GPGGA,181041.000,4021.2694,N,07517.0783,