$GPGGA,184239.000,4010.2821,N,07507.5160,W,2,12,0.78,7904.5,M,-34.0,M,0000,0000*6A
$GPRMC,184239.000,A,4010.2821,N,07507.5160,W,24.62,141.24,100612,,,D*43
$PMTK001,314,3*36
$PMTK001,220,3*30
$PMTK001,185,3*3C
$GPGGA,184240.000,4010.2768,N,07507.5104,$GPGGA,184239.000,4010.2821,N,07507.5160,W,2,12,0.78,7904.5,M,-34.0,M,0000,0000*6A
$GPRMC,184239.000,A,4010.2821,N,07507.5160,W,24.62,141.24,100612,,,D*43
$PMTK001,314,3*36
$PMTK001,220,3*30
$PMTK001,185,3*3C
$GPGGA,184240.000,4010.2768,N,07507.5104,$GPGGA,184239.000,4010.2821,N,07507.5160,W,2,12,0.78,7904.5,M,-34.0,M,0000,0000*6A
$GPRMC,184239.000,A,4010.2821,N,07507.5160,W,24.62,141.24,100612,,,D*43
$PMTK001,314,3*36
$PMTK001,220,3*30
$PMTK001,185,3*3C
$GPGGA,184240.000,4010.2768,N,07507.5104,$GPGGA,184239.000,4010.2821,N,07507.5160,W,2,12,0.78,7904.5,M,-34.0,M,0000,0000*6A
$GPRMC,184239.000,A,4010.2821,N,07507.5160,W,24.62,141.24,100612,,,D*43
$PMTK001,314,3*36
$PMTK001,220,3*30
$PMTK001,185,3*3C
$GPGGA,184240.000,4010.2768,N,07507.5104,$GPGGA,184239.000,4010.2821,N,07507.5160,W,2,12,0.78,7904.5,M,-34.0,M,0000,0000*6A
$GPRMC,184239.000,A,4010.2821,N,07507.5160,W,24.62,141.24,100612,,,D*43
$PMTK001,314,3*36
$PMTK001,220,3*30
$PMTK001,185,3*3C
$GPGGA,184240.000,4010.2768,N,07507.5104,$GPGGA,184239.000,4010.2821,N,07507.5160,W,2,12,0.78,7904.5,M,-34.0,M,0000,0000*6A
$GPRMC,184239.000,A,4010.2821,N,07507.5160,W,24.62,141.24,100612,,,D*43
$PMTK001,314,3*36
$PMTK001,220,3*30
$PMTK001,185,3*3C
$GPGGA,184240.000,4010.2768,N,07507.5104,$GPGGA,184239.000,4010.2821,N,07507.5160,W,2,12,0.78,7904.5,M,-34.0,M,0000,0000*6A
$GPRMC,184239.000,A,4010.2821,N,07507.5160,W,24.62,141.24,100612,,,D*43
$PMTK001,314,3*36
$PMTK001,220,3*30
$PMTK001,185,3*3C
$GPGGA,184240.000,4010.2768,N,07507.5104,$GPGGA,184239.000,4010.2821,N,07507.5160,W,2,12,0.78,7904.5,M,-34.0,M,0000,0000*6A
$GPRMC,184239.000,A,4010.2821,N,07507.5160,W,24.62,141.24,100612,,,D*43
$PMTK001,314,3*36
$PMTK001,220,3*30
$PMTK001,185,3*3C
$GPGGA,184240.000,4010.2768,N,07507.5104,$GPGGA,184239.000,4010.2821,N,07507.5160,W,2,12,0.78,7904.5,M,-34.0,M,0000,0000*6A
$GPRMC,184239.000,A,4010.2821,N,07507.5160,W,24.62,141.24,100612,,,D*43
$PMTK001,314,3*36
$PMTK001,220,3*30
$PMTK001,185,3*3C
$GPGGA,184240.000,4010.2768,N,07507.5104,$GPGGA,184239.000,4010.2821,N,07507.5160,W,2,12,0.78,7904.5,M,-34.0,M,0000,0000*6A
$GPRMC,184239.000,A,4010.2821,N,07507.5160,W,24.62,141.24,100612,,,D*43
$PMTK001,314,3*36
$PMTK001,220,3*30
$PMTK001,185,3*3C
$GPGGA,184240.000,4010.2768,N,07507.5104,$GPGGA,184239.000,4010.2821,N,07507.5160,W,2,12,0.78,7904.5,M,-34.0,M,0000,0000*6A
$GPRMC,184239.000,A,4010.2821,N,07507.5160,W,24.62,141.24,100612,,,D*43
$PMTK001,314,3*36
$PMTK001,220,3*30
$PMTK001,185,3*3C
$GPGGA,184240.000,4010.2768,N,07507.5104,$GPGGA,184239.000,4010.2821,N,07507.5160,W,2,12,0.78,7904.5,M,-34.0,M,0000,0000*6A
$GPRMC,184239.000,A,4010.2821,N,07507.5160,W,24.62,141.24,100612,,,D*43
$PMTK001,314,3*36
$PMTK001,220,3*30
$PMTK001,185,3*3C
$GPGGA,184240.000,4010.2768,N,07507.5104,$GPGGA,184239.000,4010.2821,N,07507.5160,W,2,12,0.78,7904.5,M,-34.0,M,0000,0000*6A
$GPRMC,184239.000,A,4010.2821,N,07507.5160,W,24.62,141.24,100612,,,D*43
$PMTK001,314,3*36
$PMTK001,220,3*30
$PMTK001,185,3*3C
$GPGGA,184240.000,4010.2768,N,07507.5104,$GPGGA,184239.000,4010.2821,N,07507.5160,W,2,12,0.78,7904.5,M,-34.0,M,0000,0000*6A
$GPRMC,184239.000,A,4010.2821,N,07507.5160,W,24.62,141.24,100612,,,D*43
$PMTK001,314,3*36
$PMTK001,220,3*30
$PMTK001,185,3*3C
$GPGGA,184240.000,4010.2768,N,07507.5104,$GPGGA,184239.000,4010.2821,N,07507.5160,W,2,12,0.78,7904.5,M,-34.0,M,0000,0000*6A
$GPRMC,184239.000,A,4010.2821,N,07507.5160,W,24.62,141.24,100612,,,D*43
$PMTK001,314,3*36
$PMTK001,220,3*30
$PMTK001,185,3*3C
$GPGGA,184240.000,4010.2768,N,07507.5104,$GPGGA,184239.000,4010.2821,N,07507.5160,W,2,12,0.78,7904.5,M,-34.0,M,0000,0000*6A
$GPRMC,184239.000,A,4010.2821,N,07507.5160,W,24.62,141.24,100612,,,D*43
$PMTK001,314,3*36
$PMTK001,220,3*30
$PMTK001,185,3*3C
$GPGGA,184240.000,4010.2768,N,07507.5104,$GPGGA,184239.000,4010.2821,N,07507.5160,W,2,12,0.78,7904.5,M,-34.0,M,0000,0000*6A
$GPRMC,184239.000,A,4010.2821,N,07507.5160,W,24.62,141.24,100612,,,D*43
$PMTK001,314,3*36
$PMTK001,220,3*30
$PMTK001,185,3*3C
$GPGGA,184240.000,4010.2768,N,07507.5104,$GPGGA,184239.000,4010.2821,N,07507.5160,W,2,12,0.78,7904.5,M,-34.0,M,0000,0000*6A
$GPRMC,184239.000,A,4010.2821,N,07507.5160,W,24.62,141.24,100612,,,D*43
$PMTK001,314,3*36
$PMTK001,220,3*30
$PMTK001,185,3*3C
$GPGGA,184240.000,4010.2768,N,07507.5104,$GPGGA,184239.000,4010.2821,N,07507.5160,W,2,12,0.78,7904.5,M,-34.0,M,0000,0000*6A
$GPRMC,184239.000,A,4010.2821,N,07507.5160,W,24.62,141.24,100612,,,D*43
$PMTK001,314,3*36
$PMTK001,220,3*30
$PMTK001,185,3*3C
$GPGGA,184240.000,4010.2768,N,07507.5104,$GPGGA,184239.000,4010.2821,N,07507.5160,W,2,12,0.78,7904.5,M,-34.0,M,0000,0000*6A
$GPRMC,184239.000,A,4010.2821,N,07507.5160,W,24.62,141.24,100612,,,D*43
$PMTK001,314,3*36
$PMTK001,220,3*30
$PMTK001,185,3*3C
$GPGGA,184240.000,4010.2768,N,07507.5104,$GPGGA,184239.000,4010.2821,N,07507.5160,W,2,12,0.78,7904.5,M,-34.0,M,0000,0000*6A
$GPRMC,184239.000,A,4010.2821,N,07507.5160,W,24.62,141.24,100612,,,D*43
$PMTK001,314,3*36
$PMTK001,220,3*30
$PMTK001,185,3*3C
$GPGGA,184240.000,4010.2768,N,07507.5104,$GPGGA,184239.000,4010.2821,N,07507.5160,W,2,12,0.78,7904.5,M,-34.0,M,0000,0000*6A
$GPRMC,184239.000,A,4010.2821,N,07507.5160,W,24.62,141.24,100612,,,D*43
$PMTK001,314,3*36
$PMTK001,220,3*30
$PMTK001,185,3*3C
$GPGGA,184240.000,4010.2768,N,07507.5104,$GPGGA,184239.000,4010.2821,N,07507.5160,W,2,12,0.78,7904.5,M,-34.0,M,0000,0000*6A
$GPRMC,184239.000,A,4010.2821,N,07507.5160,W,24.62,141.24,100612,,,D*43
$PMTK001,314,3*36
$PMTK001,220,3*30
$PMTK001,185,3*3C
$GPGGA,184240.000,4010.2768,N,07507.5104,$GPGGA,184239.000,4010.2821,N,07507.5160,W,2,12,0.78,7904.5,M,-34.0,M,0000,0000*6A
$GPRMC,184239.000,A,4010.2821,N,07507.5160,W,24.62,141.24,100612,,,D*43
$PMTK001,314,3*36
$PMTK001,220,3*30
$PMTK001,185,3*3C
$GPGGA,184240.000,4010.2768,N,07507.5104,$GPGGA,184239.000,4010.2821,N,07507.5160,W,2,12,0.78,7904.5,M,-34.0,M,0000,0000*6A
$GPRMC,184239.000,A,4010.2821,N,07507.5160,W,24.62,141.24,100612,,,D*43
$PMTK001,314,3*36
$PMTK001,220,3*30
$PMTK001,185,3*3C
$GPGGA,184240.000,4010.2768,N,07507.5104,$GPGGA,184239.000,4010.2821,N,07507.5160,W,2,12,0.78,7904.5,M,-34.0,M,0000,0000*6A
$GPRMC,184239.000,A,4010.2821,N,07507.5160,W,24.62,141.24,100612,,,D*43
$PMTK001,314,3*36
$PMTK001,220,3*30
$PMTK001,185,3*3C
$GPGGA,184240.000,4010.2768,N,07507.5104,$GPGGA,184239.000,4010.2821,N,07507.5160,W,2,12,0.78,7904.5,M,-34.0,M,0000,0000*6A
$GPRMC,184239.000,A,4010.2821,N,07507.5160,W,24.62,141.24,100612,,,D*43
$PMTK001,314,3*36
$PMTK001,220,3*30
$PMTK001,185,3*3C
$GPGGA,184240.000,4010.2768,N,07507.5104,$GPGGA,184239.000,4010.2821,N,07507.5160,W,2,12,0.78,7904.5,M,-34.0,M,0000,0000*6A
$GPRMC,184239.000,A,4010.2821,N,07507.5160,W,24.62,141.24,100612,,,D*43
$PMTK001,314,3*36
$PMTK001,220,3*30
$PMTK001,185,3*3C
$GPGGA,184240.000,4010.2768,N,07507.5104,$GPGGA,184239.000,4010.2821,N,07507.5160,W,2,12,0.78,7904.5,M,-34.0,M,0000,0000*6A
$GPRMC,184239.000,A,4010.2821,N,07507.5160,W,24.62,141.24,100612,,,D*43
$PMTK001,314,3*36
$PMTK001,220,3*30
$PMTK001,185,3*3C
$GPGGA,184240.000,4010.2768,N,07507.5104,$GPGGA,184239.000,4010.2821,N,07507.5160,W,2,12,0.78,7904.5,M,-34.0,M,0000,0000*6A
$GPRMC,184239.000,A,4010.2821,N,07507.5160,W,24.62,141.24,100612,,,D*43
$PMTK001,314,3*36
$PMTK001,220,3*30
$PMTK001,185,3*3C
$GPGGA,184240.000,4010.2768,N,07507.5104,$GPGGA,184239.000,4010.2821,N,07507.5160,W,2,12,0.78,7904.5,M,-34.0,M,0000,0000*6A
$GPRMC,184239.000,A,4010.2821,N,07507.5160,W,24.62,141.24,100612,,,D*43
$PMTK001,314,3*36
$PMTK001,220,3*30
$PMTK001,185,3*3C
$GPGGA,184240.000,4010.2768,N,07507.5104,$GPGGA,184239.000,4010.2821,N,07507.5160,W,2,12,0.78,7904.5,M,-34.0,M,0000,0000*6A
$GPRMC,184239.000,A,4010.2821,N,07507.5160,W,24.62,141.24,100612,,,D*43
$PMTK001,314,3*36
$PMTK001,220,3*30
$PMTK001,185,3*3C
$GPGGA,184240.000,4010.2768,N,07507.5104,$GPGGA,184239.000,4010.2821,N,07507.5160,W,2,12,0.78,7904.5,M,-34.0,M,0000,0000*6A
$GPRMC,184239.000,A,4010.2821,N,07507.5160,W,24.62,141.24,100612,,,D*43
$PMTK001,314,3*36
$PMTK001,220,3*30
$PMTK001,185,3*3C
$GPGGA,184240.000,4010.2768,N,07507.5104,$GPGGA,184239.000,4010.2821,N,07507.5160,W,2,12,0.78,7904.5,M,-34.0,M,0000,0000*6A
$GPRMC,184239.000,A,4010.2821,N,07507.5160,W,24.62,141.24,100612,,,D*43
$PMTK001,314,3*36
$PMTK001,220,3*30
$PMTK001,185,3*3C
$GPGGA,184240.000,4010.2768,N,07507.5104,$GPGGA,184239.000,4010.2821,N,07507.5160,W,2,12,0.78,7904.5,M,-34.0,M,0000,0000*6A
$GPRMC,184239.000,A,4010.2821,N,07507.5160,W,24.62,141.24,100612,,,D*43
$PMTK001,314,3*36
$PMTK001,220,3*30
$PMTK001,185,3*3C
$GPGGA,184240.000,4010.2768,N,07507.5104,$GPGGA,184239.000,4010.2821,N,07507.5160,W,2,12,0.78,7904.5,M,-34.0,M,0000,0000*6A
$GPRMC,184239.000,A,4010.2821,N,07507.5160,W,24.62,141.24,100612,,,D*43
$PMTK001,314,3*36
$PMTK001,220,3*30
$PMTK001,185,3*3C
$GPGGA,184240.000,4010.2768,N,07507.5104,$GPGGA,184239.000,4010.2821,N,07507.5160,W,2,12,0.78,7904.5,M,-34.0,M,0000,0000*6A
$GPRMC,184239.000,A,4010.2821,N,07507.5160,W,24.62,141.24,100612,,,D*43
$PMTK001,314,3*36
$PMTK001,220,3*30
$PMTK001,185,3*3C
$GPGGA,184240.000,4010.2768,N,07507.5104,$GPGGA,184239.000,4010.2821,N,07507.5160,W,2,12,0.78,7904.5,M,-34.0,M,0000,0000*6A
$GPRMC,184239.000,A,4010.2821,N,07507.5160,W,24.62,141.24,100612,,,D*43
$PMTK001,314,3*36
$PMTK001,220,3*30
$PMTK001,185,3*3C
$GPGGA,184240.000,4010.2768,N,07507.5104,$GPGGA,184239.000,4010.2821,N,07507.5160,W,2,12,0.78,7904.5,M,-34.0,M,0000,0000*6A
$GPRMC,184239.000,A,4010.2821,N,07507.5160,W,24.62,141.24,100612,,,D*43
$PMTK001,314,3*36
$PMTK001,220,3*30
$PMTK001,185,3*3C
$GPGGA,184240.000,4010.2768,N,07507.5104,$GPGGA,184239.000,4010.2821,N,07507.5160,W,2,12,0.78,7904.5,M,-34.0,M,0000,0000*6A
$GPRMC,184239.000,A,4010.2821,N,07507.5160,W,24.62,141.24,100612,,,D*43
$PMTK001,314,3*36
$PMTK001,220,3*30
$PMTK001,185,3*3C
$GPGGA,184240.000,4010.2768,N,07507.5104,$GPGGA,184239.000,4010.2821,N,07507.5160,W,2,12,0.78,7904.5,M,-34.0,M,0000,0000*6A
$GPRMC,184239.000,A,4010.2821,N,07507.5160,W,24.62,141.24,100612,,,D*43
$PMTK001,314,3*36
$PMTK001,220,3*30
$PMTK001,185,3*3C
$GPGGA,184240.000,4010.2768,N,07507.5104,$GPGGA,184239.000,4010.2821,N,07507.5160,W,2,12,0.78,7904.5,M,-34.0,M,0000,0000*6A
$GPRMC,184239.000,A,4010.2821,N,07507.5160,W,24.62,141.24,100612,,,D*43
$PMTK001,314,3*36
$PMTK001,220,3*30
$PMTK001,185,3*3C
$GPGGA,184240.000,4010.2768,N,07507.5104,$GPGGA,184239.000,4010.2821,N,07507.5160,W,2,12,0.78,7904.5,M,-34.0,M,0000,0000*6A
$GPRMC,184239.000,A,4010.2821,N,07507.5160,W,24.62,141.24,100612,,,D*43
$PMTK001,314,3*36
$PMTK001,220,3*30
$PMTK001,185,3*3C
$GPGGA,184240.000,4010.2768,N,07507.5104,$GPGGA,184239.000,4010.2821,N,07507.5160,W,2,12,0.78,7904.5,M,-34.0,M,0000,0000*6A
$GPRMC,184239.000,A,4010.2821,N,07507.5160,W,24.62,141.24,100612,,,D*43
$PMTK001,314,3*36
$PMTK001,220,3*30
$PMTK001,185,3*3C
$GPGGA,184240.000,4010.2768,N,07507.5104,$GPGGA,184239.000,4010.2821,N,07507.5160,W,2,12,0.78,7904.5,M,-34.0,M,0000,0000*6A
$GPRMC,184239.000,A,4010.2821,N,07507.5160,W,24.62,141.24,100612,,,D*43
$PMTK001,314,3*36
$PMTK001,220,3*30
$PMTK001,185,3*3C
$GPGGA,184240.000,4010.2768,N,07507.5104,$GPGGA,184239.000,4010.2821,N,07507.5160,W,2,12,0.78,7904.5,M,-34.0,M,0000,0000*6A
$GPRMC,184239.000,A,4010.2821,N,07507.5160,W,24.62,141.24,100612,,,D*43
$PMTK001,314,3*36
$PMTK001,220,3*30
$PMTK001,185,3*3C
$GPGGA,184240.000,4010.2768,N,07507.5104,$GPGGA,184239.000,4010.2821,N,07507.5160,W,2,12,0.78,7904.5,M,-34.0,M,0000,0000*6A
$GPRMC,184239.000,A,4010.2821,N,07507.5160,W,24.62,141.24,100612,,,D*43
$PMTK001,314,3*36
$PMTK001,220,3*30
$PMTK001,185,3*3C
$GPGGA,184240.000,4010.2768,N,07507.5104,$GPGGA,184239.000,4010.2821,N,07507.5160,W,2,12,0.78,7904.5,M,-34.0,M,0000,0000*6A
$GPRMC,184239.000,A,4010.2821,N,07507.5160,W,24.62,141.24,100612,,,D*43
$PMTK001,314,3*36
$PMTK001,220,3*30
$PMTK001,185,3*3C
$GPGGA,184240.000,4010.2768,N,07507.5104,$GPGGA,184239.000,4010.2821,N,07507.5160,W,2,12,0.78,7904.5,M,-34.0,M,0000,0000*6A
$GPRMC,184239.000,A,4010.2821,N,07507.5160,W,24.62,141.24,100612,,,D*43
$PMTK001,314,3*36
$PMTK001,220,3*30
$PMTK001,185,3*3C
$GPGGA,184240.000,4010.2768,N,07507.5104,$GPGGA,184239.000,4010.2821,N,07507.5160,W,2,12,0.78,7904.5,M,-34.0,M,0000,0000*6A
$GPRMC,184239.000,A,4010.2821,N,07507.5160,W,24.62,141.24,100612,,,D*43
$PMTK001,314,3*36
$PMTK001,220,3*30
$PMTK001,185,3*3C
$GPGGA,184240.000,4010.2768,N,07507.5104,$GPGGA,184239.000,4010.2821,N,07507.5160,W,2,12,0.78,7904.5,M,-34.0,M,0000,0000*6A
$GPRMC,184239.000,A,4010.2821,N,07507.5160,W,24.62,141.24,100612,,,D*43
$PMTK001,314,3*36
$PMTK001,220,3*30
$PMTK001,185,3*3C
$GPGGA,184240.000,4010.2768,N,07507.5104,$GPGGA,184239.000,4010.2821,N,07507.5160,W,2,12,0.78,7904.5,M,-34.0,M,0000,0000*6A
$GPRMC,184239.000,A,4010.2821,N,07507.5160,W,24.62,141.24,100612,,,D*43
$PMTK001,314,3*36
$PMTK001,220,3*30
$PMTK001,185,3*3C
$GPGGA,184240.000,4010.2768,N,07507.5104,$GPGGA,184239.000,4010.2821,N,07507.5160,W,2,12,0.78,7904.5,M,-34.0,M,0000,0000*6A
$GPRMC,184239.000,A,4010.2821,N,07507.5160,W,24.62,141.24,100612,,,D*43
$PMTK001,314,3*36
$PMTK001,220,3*30
$PMTK001,185,3*3C
$GPGGA,184240.000,4010.2768,N,07507.5104,$GPGGA,184239.000,4010.2821,N,07507.5160,W,2,12,0.78,7904.5,M,-34.0,M,0000,0000*6A
$GPRMC,184239.000,A,4010.2821,N,07507.5160,W,24.62,141.24,100612,,,D*43
$PMTK001,314,3*36
$PMTK001,220,3*30
$PMTK001,185,3*3C
$GPGGA,184240.000,4010.2768,N,07507.5104,$GPGGA,184239.000,4010.2821,N,07507.5160,W,2,12,0.78,7904.5,M,-34.0,M,0000,0000*6A
$GPRMC,184239.000,A,4010.2821,N,07507.5160,W,24.62,141.24,100612,,,D*43
$PMTK001,314,3*36
$PMTK001,220,3*30
$PMTK001,185,3*3C
$GPGGA,184240.000,4010.2768,N,07507.5104,$GPGGA,184239.000,4010.2821,N,07507.5160,W,2,12,0.78,7904.5,M,-34.0,M,0000,0000*6A
$GPRMC,184239.000,A,4010.2821,N,07507.5160,W,24.62,141.24,100612,,,D*43
$PMTK001,314,3*36
$PMTK001,220,3*30
$PMTK001,185,3*3C
$GPGGA,184240.000,4010.2768,N,07507.5104,$GPGGA,184239.000,4010.2821,N,07507.5160,W,2,12,0.78,7904.5,M,-34.0,M,0000,0000*6A
$GPRMC,184239.000,A,4010.2821,N,07507.5160,W,24.62,141.24,100612,,,D*43
$PMTK001,314,3*36
$PMTK001,220,3*30
$PMTK001,185,3*3C
$GPGGA,184240.000,4010.2768,N,07507.5104,