236.4,M,-34.0,M,0000,0000*60
$GPRMC,183640.000,A,4012.2657,N,07509.7935,W,27.52,136.25,100612,,,D*46
$PMTK001,314,3*36
$PMTK001,220,3*30
$PMTK001,185,3*3C
$GPGGA,183641.000,4012.2600,N,07509.7869,W,2,12,0.83,7238.0,M,-34.0,M,0000,0000*60
$GPRMC,1836236.4,M,-34.0,M,0000,0000*60
$GPRMC,183640.000,A,4012.2657,N,07509.7935,W,27.52,136.25,100612,,,D*46
$PMTK001,314,3*36
$PMTK001,220,3*30
$PMTK001,185,3*3C
$GPGGA,183641.000,4012.2600,N,07509.7869,W,2,12,0.83,7238.0,M,-34.0,M,0000,0000*60
$GPRMC,1836236.4,M,-34.0,M,0000,0000*60
$GPRMC,183640.000,A,4012.2657,N,07509.7935,W,27.52,136.25,100612,,,D*46
$PMTK001,314,3*36
$PMTK001,220,3*30
$PMTK001,185,3*3C
$GPGGA,183641.000,4012.2600,N,07509.7869,W,2,12,0.83,7238.0,M,-34.0,M,0000,0000*60
$GPRMC,1836236.4,M,-34.0,M,0000,0000*60
$GPRMC,183640.000,A,4012.2657,N,07509.7935,W,27.52,136.25,100612,,,D*46
$PMTK001,314,3*36
$PMTK001,220,3*30
$PMTK001,185,3*3C
$GPGGA,183641.000,4012.2600,N,07509.7869,W,2,12,0.83,7238.0,M,-34.0,M,0000,0000*60
$GPRMC,1836236.4,M,-34.0,M,0000,0000*60
$GPRMC,183640.000,A,4012.2657,N,07509.7935,W,27.52,136.25,100612,,,D*46
$PMTK001,314,3*36
$PMTK001,220,3*30
$PMTK001,185,3*3C
$GPGGA,183641.000,4012.2600,N,07509.7869,W,2,12,0.83,7238.0,M,-34.0,M,0000,0000*60
$GPRMC,1836236.4,M,-34.0,M,0000,0000*60
$GPRMC,183640.000,A,4012.2657,N,07509.7935,W,27.52,136.25,100612,,,D*46
$PMTK001,314,3*36
$PMTK001,220,3*30
$PMTK001,185,3*3C
$GPGGA,183641.000,4012.2600,N,07509.7869,W,2,12,0.83,7238.0,M,-34.0,M,0000,0000*60
$GPRMC,1836236.4,M,-34.0,M,0000,0000*60
$GPRMC,183640.000,A,4012.2657,N,07509.7935,W,27.52,136.25,100612,,,D*46
$PMTK001,314,3*36
$PMTK001,220,3*30
$PMTK001,185,3*3C
$GPGGA,183641.000,4012.2600,N,07509.7869,W,2,12,0.83,7238.0,M,-34.0,M,0000,0000*60
$GPRMC,1836236.4,M,-34.0,M,0000,0000*60
$GPRMC,183640.000,A,4012.2657,N,07509.7935,W,27.52,136.25,100612,,,D*46
$PMTK001,314,3*36
$PMTK001,220,3*30
$PMTK001,185,3*3C
$GPGGA,183641.000,4012.2600,N,07509.7869,W,2,12,0.83,7238.0,M,-34.0,M,0000,0000*60
$GPRMC,1836236.4,M,-34.0,M,0000,0000*60
$GPRMC,183640.000,A,4012.2657,N,07509.7935,W,27.52,136.25,100612,,,D*46
$PMTK001,314,3*36
$PMTK001,220,3*30
$PMTK001,185,3*3C
$GPGGA,183641.000,4012.2600,N,07509.7869,W,2,12,0.83,7238.0,M,-34.0,M,0000,0000*60
$GPRMC,1836236.4,M,-34.0,M,0000,0000*60
$GPRMC,183640.000,A,4012.2657,N,07509.7935,W,27.52,136.25,100612,,,D*46
$PMTK001,314,3*36
$PMTK001,220,3*30
$PMTK001,185,3*3C
$GPGGA,183641.000,4012.2600,N,07509.7869,W,2,12,0.83,7238.0,M,-34.0,M,0000,0000*60
$GPRMC,1836236.4,M,-34.0,M,0000,0000*60
$GPRMC,183640.000,A,4012.2657,N,07509.7935,W,27.52,136.25,100612,,,D*46
$PMTK001,314,3*36
$PMTK001,220,3*30
$PMTK001,185,3*3C
$GPGGA,183641.000,4012.2600,N,07509.7869,W,2,12,0.83,7238.0,M,-34.0,M,0000,0000*60
$GPRMC,1836236.4,M,-34.0,M,0000,0000*60
$GPRMC,183640.000,A,4012.2657,N,07509.7935,W,27.52,136.25,100612,,,D*46
$PMTK001,314,3*36
$PMTK001,220,3*30
$PMTK001,185,3*3C
$GPGGA,183641.000,4012.2600,N,07509.7869,W,2,12,0.83,7238.0,M,-34.0,M,0000,0000*60
$GPRMC,1836236.4,M,-34.0,M,0000,0000*60
$GPRMC,183640.000,A,4012.2657,N,07509.7935,W,27.52,136.25,100612,,,D*46
$PMTK001,314,3*36
$PMTK001,220,3*30
$PMTK001,185,3*3C
$GPGGA,183641.000,4012.2600,N,07509.7869,W,2,12,0.83,7238.0,M,-34.0,M,0000,0000*60
$GPRMC,1836236.4,M,-34.0,M,0000,0000*60
$GPRMC,183640.000,A,4012.2657,N,07509.7935,W,27.52,136.25,100612,,,D*46
$PMTK001,314,3*36
$PMTK001,220,3*30
$PMTK001,185,3*3C
$GPGGA,183641.000,4012.2600,N,07509.7869,W,2,12,0.83,7238.0,M,-34.0,M,0000,0000*60
$GPRMC,1836236.4,M,-34.0,M,0000,0000*60
$GPRMC,183640.000,A,4012.2657,N,07509.7935,W,27.52,136.25,100612,,,D*46
$PMTK001,314,3*36
$PMTK001,220,3*30
$PMTK001,185,3*3C
$GPGGA,183641.000,4012.2600,N,07509.7869,W,2,12,0.83,7238.0,M,-34.0,M,0000,0000*60
$GPRMC,1836236.4,M,-34.0,M,0000,0000*60
$GPRMC,183640.000,A,4012.2657,N,07509.7935,W,27.52,136.25,100612,,,D*46
$PMTK001,314,3*36
$PMTK001,220,3*30
$PMTK001,185,3*3C
$GPGGA,183641.000,4012.2600,N,07509.7869,W,2,12,0.83,7238.0,M,-34.0,M,0000,0000*60
$GPRMC,1836236.4,M,-34.0,M,0000,0000*60
$GPRMC,183640.000,A,4012.2657,N,07509.7935,W,27.52,136.25,100612,,,D*46
$PMTK001,314,3*36
$PMTK001,220,3*30
$PMTK001,185,3*3C
$GPGGA,183641.000,4012.2600,N,07509.7869,W,2,12,0.83,7238.0,M,-34.0,M,0000,0000*60
$GPRMC,1836236.4,M,-34.0,M,0000,0000*60
$GPRMC,183640.000,A,4012.2657,N,07509.7935,W,27.52,136.25,100612,,,D*46
$PMTK001,314,3*36
$PMTK001,220,3*30
$PMTK001,185,3*3C
$GPGGA,183641.000,4012.2600,N,07509.7869,W,2,12,0.83,7238.0,M,-34.0,M,0000,0000*60
$GPRMC,1836236.4,M,-34.0,M,0000,0000*60
$GPRMC,183640.000,A,4012.2657,N,07509.7935,W,27.52,136.25,100612,,,D*46
$PMTK001,314,3*36
$PMTK001,220,3*30
$PMTK001,185,3*3C
$GPGGA,183641.000,4012.2600,N,07509.7869,W,2,12,0.83,7238.0,M,-34.0,M,0000,0000*60
$GPRMC,1836236.4,M,-34.0,M,0000,0000*60
$GPRMC,183640.000,A,4012.2657,N,07509.7935,W,27.52,136.25,100612,,,D*46
$PMTK001,314,3*36
$PMTK001,220,3*30
$PMTK001,185,3*3C
$GPGGA,183641.000,4012.2600,N,07509.7869,W,2,12,0.83,7238.0,M,-34.0,M,0000,0000*60
$GPRMC,1836236.4,M,-34.0,M,0000,0000*60
$GPRMC,183640.000,A,4012.2657,N,07509.7935,W,27.52,136.25,100612,,,D*46
$PMTK001,314,3*36
$PMTK001,220,3*30
$PMTK001,185,3*3C
$GPGGA,183641.000,4012.2600,N,07509.7869,W,2,12,0.83,7238.0,M,-34.0,M,0000,0000*60
$GPRMC,1836236.4,M,-34.0,M,0000,0000*60
$GPRMC,183640.000,A,4012.2657,N,07509.7935,W,27.52,136.25,100612,,,D*46
$PMTK001,314,3*36
$PMTK001,220,3*30
$PMTK001,185,3*3C
$GPGGA,183641.000,4012.2600,N,07509.7869,W,2,12,0.83,7238.0,M,-34.0,M,0000,0000*60
$GPRMC,1836236.4,M,-34.0,M,0000,0000*60
$GPRMC,183640.000,A,4012.2657,N,07509.7935,W,27.52,136.25,100612,,,D*46
$PMTK001,314,3*36
$PMTK001,220,3*30
$PMTK001,185,3*3C
$GPGGA,183641.000,4012.2600,N,07509.7869,W,2,12,0.83,7238.0,M,-34.0,M,0000,0000*60
$GPRMC,1836236.4,M,-34.0,M,0000,0000*60
$GPRMC,183640.000,A,4012.2657,N,07509.7935,W,27.52,136.25,100612,,,D*46
$PMTK001,314,3*36
$PMTK001,220,3*30
$PMTK001,185,3*3C
$GPGGA,183641.000,4012.2600,N,07509.7869,W,2,12,0.83,7238.0,M,-34.0,M,0000,0000*60
$GPRMC,1836236.4,M,-34.0,M,0000,0000*60
$GPRMC,183640.000,A,4012.2657,N,07509.7935,W,27.52,136.25,100612,,,D*46
$PMTK001,314,3*36
$PMTK001,220,3*30
$PMTK001,185,3*3C
$GPGGA,183641.000,4012.2600,N,07509.7869,W,2,12,0.83,7238.0,M,-34.0,M,0000,0000*60
$GPRMC,1836236.4,M,-34.0,M,0000,0000*60
$GPRMC,183640.000,A,4012.2657,N,07509.7935,W,27.52,136.25,100612,,,D*46
$PMTK001,314,3*36
$PMTK001,220,3*30
$PMTK001,185,3*3C
$GPGGA,183641.000,4012.2600,N,07509.7869,W,2,12,0.83,7238.0,M,-34.0,M,0000,0000*60
$GPRMC,1836236.4,M,-34.0,M,0000,0000*60
$GPRMC,183640.000,A,4012.2657,N,07509.7935,W,27.52,136.25,100612,,,D*46
$PMTK001,314,3*36
$PMTK001,220,3*30
$PMTK001,185,3*3C
$GPGGA,183641.000,4012.2600,N,07509.7869,W,2,12,0.83,7238.0,M,-34.0,M,0000,0000*60
$GPRMC,1836236.4,M,-34.0,M,0000,0000*60
$GPRMC,183640.000,A,4012.2657,N,07509.7935,W,27.52,136.25,100612,,,D*46
$PMTK001,314,3*36
$PMTK001,220,3*30
$PMTK001,185,3*3C
$GPGGA,183641.000,4012.2600,N,07509.7869,W,2,12,0.83,7238.0,M,-34.0,M,0000,0000*60
$GPRMC,1836236.4,M,-34.0,M,0000,0000*60
$GPRMC,183640.000,A,4012.2657,N,07509.7935,W,27.52,136.25,100612,,,D*46
$PMTK001,314,3*36
$PMTK001,220,3*30
$PMTK001,185,3*3C
$GPGGA,183641.000,4012.2600,N,07509.7869,W,2,12,0.83,7238.0,M,-34.0,M,0000,0000*60
$GPRMC,1836236.4,M,-34.0,M,0000,0000*60
$GPRMC,183640.000,A,4012.2657,N,07509.7935,W,27.52,136.25,100612,,,D*46
$PMTK001,314,3*36
$PMTK001,220,3*30
$PMTK001,185,3*3C
$GPGGA,183641.000,4012.2600,N,07509.7869,W,2,12,0.83,7238.0,M,-34.0,M,0000,0000*60
$GPRMC,1836236.4,M,-34.0,M,0000,0000*60
$GPRMC,183640.000,A,4012.2657,N,07509.7935,W,27.52,136.25,100612,,,D*46
$PMTK001,314,3*36
$PMTK001,220,3*30
$PMTK001,185,3*3C
$GPGGA,183641.000,4012.2600,N,07509.7869,W,2,12,0.83,7238.0,M,-34.0,M,0000,0000*60
$GPRMC,1836236.4,M,-34.0,M,0000,0000*60
$GPRMC,183640.000,A,4012.2657,N,07509.7935,W,27.52,136.25,100612,,,D*46
$PMTK001,314,3*36
$PMTK001,220,3*30
$PMTK001,185,3*3C
$GPGGA,183641.000,4012.2600,N,07509.7869,W,2,12,0.83,7238.0,M,-34.0,M,0000,0000*60
$GPRMC,1836236.4,M,-34.0,M,0000,0000*60
$GPRMC,183640.000,A,4012.2657,N,07509.7935,W,27.52,136.25,100612,,,D*46
$PMTK001,314,3*36
$PMTK001,220,3*30
$PMTK001,185,3*3C
$GPGGA,183641.000,4012.2600,N,07509.7869,W,2,12,0.83,7238.0,M,-34.0,M,0000,0000*60
$GPRMC,1836236.4,M,-34.0,M,0000,0000*60
$GPRMC,183640.000,A,4012.2657,N,07509.7935,W,27.52,136.25,100612,,,D*46
$PMTK001,314,3*36
$PMTK001,220,3*30
$PMTK001,185,3*3C
$GPGGA,183641.000,4012.2600,N,07509.7869,W,2,12,0.83,7238.0,M,-34.0,M,0000,0000*60
$GPRMC,1836236.4,M,-34.0,M,0000,0000*60
$GPRMC,183640.000,A,4012.2657,N,07509.7935,W,27.52,136.25,100612,,,D*46
$PMTK001,314,3*36
$PMTK001,220,3*30
$PMTK001,185,3*3C
$GPGGA,183641.000,4012.2600,N,07509.7869,W,2,12,0.83,7238.0,M,-34.0,M,0000,0000*60
$GPRMC,1836236.4,M,-34.0,M,0000,0000*60
$GPRMC,183640.000,A,4012.2657,N,07509.7935,W,27.52,136.25,100612,,,D*46
$PMTK001,314,3*36
$PMTK001,220,3*30
$PMTK001,185,3*3C
$GPGGA,183641.000,4012.2600,N,07509.7869,W,2,12,0.83,7238.0,M,-34.0,M,0000,0000*60
$GPRMC,1836236.4,M,-34.0,M,0000,0000*60
$GPRMC,183640.000,A,4012.2657,N,07509.7935,W,27.52,136.25,100612,,,D*46
$PMTK001,314,3*36
$PMTK001,220,3*30
$PMTK001,185,3*3C
$GPGGA,183641.000,4012.2600,N,07509.7869,W,2,12,0.83,7238.0,M,-34.0,M,0000,0000*60
$GPRMC,1836236.4,M,-34.0,M,0000,0000*60
$GPRMC,183640.000,A,4012.2657,N,07509.7935,W,27.52,136.25,100612,,,D*46
$PMTK001,314,3*36
$PMTK001,220,3*30
$PMTK001,185,3*3C
$GPGGA,183641.000,4012.2600,N,07509.7869,W,2,12,0.83,7238.0,M,-34.0,M,0000,0000*60
$GPRMC,1836236.4,M,-34.0,M,0000,0000*60
$GPRMC,183640.000,A,4012.2657,N,07509.7935,W,27.52,136.25,100612,,,D*46
$PMTK001,314,3*36
$PMTK001,220,3*30
$PMTK001,185,3*3C
$GPGGA,183641.000,4012.2600,N,07509.7869,W,2,12,0.83,7238.0,M,-34.0,M,0000,0000*60
$GPRMC,1836236.4,M,-34.0,M,0000,0000*60
$GPRMC,183640.000,A,4012.2657,N,07509.7935,W,27.52,136.25,100612,,,D*46
$PMTK001,314,3*36
$PMTK001,220,3*30
$PMTK001,185,3*3C
$GPGGA,183641.000,4012.2600,N,07509.7869,W,2,12,0.83,7238.0,M,-34.0,M,0000,0000*60
$GPRMC,1836236.4,M,-34.0,M,0000,0000*60
$GPRMC,183640.000,A,4012.2657,N,07509.7935,W,27.52,136.25,100612,,,D*46
$PMTK001,314,3*36
$PMTK001,220,3*30
$PMTK001,185,3*3C
$GPGGA,183641.000,4012.2600,N,07509.7869,W,2,12,0.83,7238.0,M,-34.0,M,0000,0000*60
$GPRMC,1836236.4,M,-34.0,M,0000,0000*60
$GPRMC,183640.000,A,4012.2657,N,07509.7935,W,27.52,136.25,100612,,,D*46
$PMTK001,314,3*36
$PMTK001,220,3*30
$PMTK001,185,3*3C
$GPGGA,183641.000,4012.2600,N,07509.7869,W,2,12,0.83,7238.0,M,-34.0,M,0000,0000*60
$GPRMC,1836236.4,M,-34.0,M,0000,0000*60
$GPRMC,183640.000,A,4012.2657,N,07509.7935,W,27.52,136.25,100612,,,D*46
$PMTK001,314,3*36
$PMTK001,220,3*30
$PMTK001,185,3*3C
$GPGGA,183641.000,4012.2600,N,07509.7869,W,2,12,0.83,7238.0,M,-34.0,M,0000,0000*60
$GPRMC,1836236.4,M,-34.0,M,0000,0000*60
$GPRMC,183640.000,A,4012.2657,N,07509.7935,W,27.52,136.25,100612,,,D*46
$PMTK001,314,3*36
$PMTK001,220,3*30
$PMTK001,185,3*3C
$GPGGA,183641.000,4012.2600,N,07509.7869,W,2,12,0.83,7238.0,M,-34.0,M,0000,0000*60
$GPRMC,1836236.4,M,-34.0,M,0000,0000*60
$GPRMC,183640.000,A,4012.2657,N,07509.7935,W,27.52,136.25,100612,,,D*46
$PMTK001,314,3*36
$PMTK001,220,3*30
$PMTK001,185,3*3C
$GPGGA,183641.000,4012.2600,N,07509.7869,W,2,12,0.83,7238.0,M,-34.0,M,0000,0000*60
$GPRMC,1836236.4,M,-34.0,M,0000,0000*60
$GPRMC,183640.000,A,4012.2657,N,07509.7935,W,27.52,136.25,100612,,,D*46
$PMTK001,314,3*36
$PMTK001,220,3*30
$PMTK001,185,3*3C
$GPGGA,183641.000,4012.2600,N,07509.7869,W,2,12,0.83,7238.0,M,-34.0,M,0000,0000*60
$GPRMC,1836236.4,M,-34.0,M,0000,0000*60
$GPRMC,183640.000,A,4012.2657,N,07509.7935,W,27.52,136.25,100612,,,D*46
$PMTK001,314,3*36
$PMTK001,220,3*30
$PMTK001,185,3*3C
$GPGGA,183641.000,4012.2600,N,07509.7869,W,2,12,0.83,7238.0,M,-34.0,M,0000,0000*60
$GPRMC,1836236.4,M,-34.0,M,0000,0000*60
$GPRMC,183640.000,A,4012.2657,N,07509.7935,W,27.52,136.25,100612,,,D*46
$PMTK001,314,3*36
$PMTK001,220,3*30
$PMTK001,185,3*3C
$GPGGA,183641.000,4012.2600,N,07509.7869,W,2,12,0.83,7238.0,M,-34.0,M,0000,0000*60
$GPRMC,1836236.4,M,-34.0,M,0000,0000*60
$GPRMC,183640.000,A,4012.2657,N,07509.7935,W,27.52,136.25,100612,,,D*46
$PMTK001,314,3*36
$PMTK001,220,3*30
$PMTK001,185,3*3C
$GPGGA,183641.000,4012.2600,N,07509.7869,W,2,12,0.83,7238.0,M,-34.0,M,0000,0000*60
$GPRMC,1836236.4,M,-34.0,M,0000,0000*60
$GPRMC,183640.000,A,4012.2657,N,07509.7935,W,27.52,136.25,100612,,,D*46
$PMTK001,314,3*36
$PMTK001,220,3*30
$PMTK001,185,3*3C
$GPGGA,183641.000,4012.2600,N,07509.7869,W,2,12,0.83,7238.0,M,-34.0,M,0000,0000*60
$GPRMC,1836236.4,M,-34.0,M,0000,0000*60
$GPRMC,183640.000,A,4012.2657,N,07509.7935,W,27.52,136.25,100612,,,D*46
$PMTK001,314,3*36
$PMTK001,220,3*30
$PMTK001,185,3*3C
$GPGGA,183641.000,4012.2600,N,07509.7869,W,2,12,0.83,7238.0,M,-34.0,M,0000,0000*60
$GPRMC,1836236.4,M,-34.0,M,0000,0000*60
$GPRMC,183640.000,A,4012.2657,N,07509.7935,W,27.52,136.25,100612,,,D*46
$PMTK001,314,3*36
$PMTK001,220,3*30
$PMTK001,185,3*3C
$GPGGA,183641.000,4012.2600,N,07509.7869,W,2,12,0.83,7238.0,M,-34.0,M,0000,0000*60
$GPRMC,1836236.4,M,-34.0,M,0000,0000*60
$GPRMC,183640.000,A,4012.2657,N,07509.7935,W,27.52,136.25,100612,,,D*46
$PMTK001,314,3*36
$PMTK001,220,3*30
$PMTK001,185,3*3C
$GPGGA,183641.000,4012.2600,N,07509.7869,W,2,12,0.83,7238.0,M,-34.0,M,0000,0000*60
$GPRMC,1836236.4,M,-34.0,M,0000,0000*60
$GPRMC,183640.000,A,4012.2657,N,07509.7935,W,27.52,136.25,100612,,,D*46
$PMTK001,314,3*36
$PMTK001,220,3*30
$PMTK001,185,3*3C
$GPGGA,183641.000,4012.2600,N,07509.7869,W,2,12,0.83,7238.0,M,-34.0,M,0000,0000*60
$GPRMC,1836236.4,M,-34.0,M,0000,0000*60
$GPRMC,183640.000,A,4012.2657,N,07509.7935,W,27.52,136.25,100612,,,D*46
$PMTK001,314,3*36
$PMTK001,220,3*30
$PMTK001,185,3*3C
$GPGGA,183641.000,4012.2600,N,07509.7869,W,2,12,0.83,7238.0,M,-34.0,M,0000,0000*60
$GPRMC,1836236.4,M,-34.0,M,0000,0000*60
$GPRMC,183640.000,A,4012.2657,N,07509.7935,W,27.52,136.25,100612,,,D*46
$PMTK001,314,3*36
$PMTK001,220,3*30
$PMTK001,185,3*3C
$GPGGA,183641.000,4012.2600,N,07509.7869,W,2,12,0.83,7238.0,M,-34.0,M,0000,0000*60
$GPRMC,1836236.4,M,-34.0,M,0000,0000*60
$GPRMC,183640.000,A,4012.2657,N,07509.7935,W,27.52,136.25,100612,,,D*46
$PMTK001,314,3*36
$PMTK001,220,3*30
$PMTK001,185,3*3C
$GPGGA,183641.000,4012.2600,N,07509.7869,W,2,12,0.83,7238.0,M,-34.0,M,0000,0000*60
$GPRMC,1836