RÎÂj
$GPRMC,184438.000,A,4009.7210,N,07506.9077,W,23.11,143.44,100612,,,D*4C
$PMTK001,314,3*36
$PMTK001,220,3*30
$PMTK001,185,3*3C
$GPGGA,184439.000,4009.7158,N,07506.9033,W,2,12,0.82,8140.4,M,-34.0,M,0000,0000*6F
$GPRMC,184439.000,A,4009.7158,N,0750RÎÂj
$GPRMC,184438.000,A,4009.7210,N,07506.9077,W,23.11,143.44,100612,,,D*4C
$PMTK001,314,3*36
$PMTK001,220,3*30
$PMTK001,185,3*3C
$GPGGA,184439.000,4009.7158,N,07506.9033,W,2,12,0.82,8140.4,M,-34.0,M,0000,0000*6F
$GPRMC,184439.000,A,4009.7158,N,0750RÎÂj
$GPRMC,184438.000,A,4009.7210,N,07506.9077,W,23.11,143.44,100612,,,D*4C
$PMTK001,314,3*36
$PMTK001,220,3*30
$PMTK001,185,3*3C
$GPGGA,184439.000,4009.7158,N,07506.9033,W,2,12,0.82,8140.4,M,-34.0,M,0000,0000*6F
$GPRMC,184439.000,A,4009.7158,N,0750RÎÂj
$GPRMC,184438.000,A,4009.7210,N,07506.9077,W,23.11,143.44,100612,,,D*4C
$PMTK001,314,3*36
$PMTK001,220,3*30
$PMTK001,185,3*3C
$GPGGA,184439.000,4009.7158,N,07506.9033,W,2,12,0.82,8140.4,M,-34.0,M,0000,0000*6F
$GPRMC,184439.000,A,4009.7158,N,0750RÎÂj
$GPRMC,184438.000,A,4009.7210,N,07506.9077,W,23.11,143.44,100612,,,D*4C
$PMTK001,314,3*36
$PMTK001,220,3*30
$PMTK001,185,3*3C
$GPGGA,184439.000,4009.7158,N,07506.9033,W,2,12,0.82,8140.4,M,-34.0,M,0000,0000*6F
$GPRMC,184439.000,A,4009.7158,N,0750RÎÂj
$GPRMC,184438.000,A,4009.7210,N,07506.9077,W,23.11,143.44,100612,,,D*4C
$PMTK001,314,3*36
$PMTK001,220,3*30
$PMTK001,185,3*3C
$GPGGA,184439.000,4009.7158,N,07506.9033,W,2,12,0.82,8140.4,M,-34.0,M,0000,0000*6F
$GPRMC,184439.000,A,4009.7158,N,0750RÎÂj
$GPRMC,184438.000,A,4009.7210,N,07506.9077,W,23.11,143.44,100612,,,D*4C
$PMTK001,314,3*36
$PMTK001,220,3*30
$PMTK001,185,3*3C
$GPGGA,184439.000,4009.7158,N,07506.9033,W,2,12,0.82,8140.4,M,-34.0,M,0000,0000*6F
$GPRMC,184439.000,A,4009.7158,N,0750RÎÂj
$GPRMC,184438.000,A,4009.7210,N,07506.9077,W,23.11,143.44,100612,,,D*4C
$PMTK001,314,3*36
$PMTK001,220,3*30
$PMTK001,185,3*3C
$GPGGA,184439.000,4009.7158,N,07506.9033,W,2,12,0.82,8140.4,M,-34.0,M,0000,0000*6F
$GPRMC,184439.000,A,4009.7158,N,0750RÎÂj
$GPRMC,184438.000,A,4009.7210,N,07506.9077,W,23.11,143.44,100612,,,D*4C
$PMTK001,314,3*36
$PMTK001,220,3*30
$PMTK001,185,3*3C
$GPGGA,184439.000,4009.7158,N,07506.9033,W,2,12,0.82,8140.4,M,-34.0,M,0000,0000*6F
$GPRMC,184439.000,A,4009.7158,N,0750RÎÂj
$GPRMC,184438.000,A,4009.7210,N,07506.9077,W,23.11,143.44,100612,,,D*4C
$PMTK001,314,3*36
$PMTK001,220,3*30
$PMTK001,185,3*3C
$GPGGA,184439.000,4009.7158,N,07506.9033,W,2,12,0.82,8140.4,M,-34.0,M,0000,0000*6F
$GPRMC,184439.000,A,4009.7158,N,0750RÎÂj
$GPRMC,184438.000,A,4009.7210,N,07506.9077,W,23.11,143.44,100612,,,D*4C
$PMTK001,314,3*36
$PMTK001,220,3*30
$PMTK001,185,3*3C
$GPGGA,184439.000,4009.7158,N,07506.9033,W,2,12,0.82,8140.4,M,-34.0,M,0000,0000*6F
$GPRMC,184439.000,A,4009.7158,N,0750RÎÂj
$GPRMC,184438.000,A,4009.7210,N,07506.9077,W,23.11,143.44,100612,,,D*4C
$PMTK001,314,3*36
$PMTK001,220,3*30
$PMTK001,185,3*3C
$GPGGA,184439.000,4009.7158,N,07506.9033,W,2,12,0.82,8140.4,M,-34.0,M,0000,0000*6F
$GPRMC,184439.000,A,4009.7158,N,0750RÎÂj
$GPRMC,184438.000,A,4009.7210,N,07506.9077,W,23.11,143.44,100612,,,D*4C
$PMTK001,314,3*36
$PMTK001,220,3*30
$PMTK001,185,3*3C
$GPGGA,184439.000,4009.7158,N,07506.9033,W,2,12,0.82,8140.4,M,-34.0,M,0000,0000*6F
$GPRMC,184439.000,A,4009.7158,N,0750RÎÂj
$GPRMC,184438.000,A,4009.7210,N,07506.9077,W,23.11,143.44,100612,,,D*4C
$PMTK001,314,3*36
$PMTK001,220,3*30
$PMTK001,185,3*3C
$GPGGA,184439.000,4009.7158,N,07506.9033,W,2,12,0.82,8140.4,M,-34.0,M,0000,0000*6F
$GPRMC,184439.000,A,4009.7158,N,0750RÎÂj
$GPRMC,184438.000,A,4009.7210,N,07506.9077,W,23.11,143.44,100612,,,D*4C
$PMTK001,314,3*36
$PMTK001,220,3*30
$PMTK001,185,3*3C
$GPGGA,184439.000,4009.7158,N,07506.9033,W,2,12,0.82,8140.4,M,-34.0,M,0000,0000*6F
$GPRMC,184439.000,A,4009.7158,N,0750RÎÂj
$GPRMC,184438.000,A,4009.7210,N,07506.9077,W,23.11,143.44,100612,,,D*4C
$PMTK001,314,3*36
$PMTK001,220,3*30
$PMTK001,185,3*3C
$GPGGA,184439.000,4009.7158,N,07506.9033,W,2,12,0.82,8140.4,M,-34.0,M,0000,0000*6F
$GPRMC,184439.000,A,4009.7158,N,0750RÎÂj
$GPRMC,184438.000,A,4009.7210,N,07506.9077,W,23.11,143.44,100612,,,D*4C
$PMTK001,314,3*36
$PMTK001,220,3*30
$PMTK001,185,3*3C
$GPGGA,184439.000,4009.7158,N,07506.9033,W,2,12,0.82,8140.4,M,-34.0,M,0000,0000*6F
$GPRMC,184439.000,A,4009.7158,N,0750RÎÂj
$GPRMC,184438.000,A,4009.7210,N,07506.9077,W,23.11,143.44,100612,,,D*4C
$PMTK001,314,3*36
$PMTK001,220,3*30
$PMTK001,185,3*3C
$GPGGA,184439.000,4009.7158,N,07506.9033,W,2,12,0.82,8140.4,M,-34.0,M,0000,0000*6F
$GPRMC,184439.000,A,4009.7158,N,0750RÎÂj
$GPRMC,184438.000,A,4009.7210,N,07506.9077,W,23.11,143.44,100612,,,D*4C
$PMTK001,314,3*36
$PMTK001,220,3*30
$PMTK001,185,3*3C
$GPGGA,184439.000,4009.7158,N,07506.9033,W,2,12,0.82,8140.4,M,-34.0,M,0000,0000*6F
$GPRMC,184439.000,A,4009.7158,N,0750RÎÂj
$GPRMC,184438.000,A,4009.7210,N,07506.9077,W,23.11,143.44,100612,,,D*4C
$PMTK001,314,3*36
$PMTK001,220,3*30
$PMTK001,185,3*3C
$GPGGA,184439.000,4009.7158,N,07506.9033,W,2,12,0.82,8140.4,M,-34.0,M,0000,0000*6F
$GPRMC,184439.000,A,4009.7158,N,0750RÎÂj
$GPRMC,184438.000,A,4009.7210,N,07506.9077,W,23.11,143.44,100612,,,D*4C
$PMTK001,314,3*36
$PMTK001,220,3*30
$PMTK001,185,3*3C
$GPGGA,184439.000,4009.7158,N,07506.9033,W,2,12,0.82,8140.4,M,-34.0,M,0000,0000*6F
$GPRMC,184439.000,A,4009.7158,N,0750RÎÂj
$GPRMC,184438.000,A,4009.7210,N,07506.9077,W,23.11,143.44,100612,,,D*4C
$PMTK001,314,3*36
$PMTK001,220,3*30
$PMTK001,185,3*3C
$GPGGA,184439.000,4009.7158,N,07506.9033,W,2,12,0.82,8140.4,M,-34.0,M,0000,0000*6F
$GPRMC,184439.000,A,4009.7158,N,0750RÎÂj
$GPRMC,184438.000,A,4009.7210,N,07506.9077,W,23.11,143.44,100612,,,D*4C
$PMTK001,314,3*36
$PMTK001,220,3*30
$PMTK001,185,3*3C
$GPGGA,184439.000,4009.7158,N,07506.9033,W,2,12,0.82,8140.4,M,-34.0,M,0000,0000*6F
$GPRMC,184439.000,A,4009.7158,N,0750RÎÂj
$GPRMC,184438.000,A,4009.7210,N,07506.9077,W,23.11,143.44,100612,,,D*4C
$PMTK001,314,3*36
$PMTK001,220,3*30
$PMTK001,185,3*3C
$GPGGA,184439.000,4009.7158,N,07506.9033,W,2,12,0.82,8140.4,M,-34.0,M,0000,0000*6F
$GPRMC,184439.000,A,4009.7158,N,0750RÎÂj
$GPRMC,184438.000,A,4009.7210,N,07506.9077,W,23.11,143.44,100612,,,D*4C
$PMTK001,314,3*36
$PMTK001,220,3*30
$PMTK001,185,3*3C
$GPGGA,184439.000,4009.7158,N,07506.9033,W,2,12,0.82,8140.4,M,-34.0,M,0000,0000*6F
$GPRMC,184439.000,A,4009.7158,N,0750RÎÂj
$GPRMC,184438.000,A,4009.7210,N,07506.9077,W,23.11,143.44,100612,,,D*4C
$PMTK001,314,3*36
$PMTK001,220,3*30
$PMTK001,185,3*3C
$GPGGA,184439.000,4009.7158,N,07506.9033,W,2,12,0.82,8140.4,M,-34.0,M,0000,0000*6F
$GPRMC,184439.000,A,4009.7158,N,0750RÎÂj
$GPRMC,184438.000,A,4009.7210,N,07506.9077,W,23.11,143.44,100612,,,D*4C
$PMTK001,314,3*36
$PMTK001,220,3*30
$PMTK001,185,3*3C
$GPGGA,184439.000,4009.7158,N,07506.9033,W,2,12,0.82,8140.4,M,-34.0,M,0000,0000*6F
$GPRMC,184439.000,A,4009.7158,N,0750RÎÂj
$GPRMC,184438.000,A,4009.7210,N,07506.9077,W,23.11,143.44,100612,,,D*4C
$PMTK001,314,3*36
$PMTK001,220,3*30
$PMTK001,185,3*3C
$GPGGA,184439.000,4009.7158,N,07506.9033,W,2,12,0.82,8140.4,M,-34.0,M,0000,0000*6F
$GPRMC,184439.000,A,4009.7158,N,0750RÎÂj
$GPRMC,184438.000,A,4009.7210,N,07506.9077,W,23.11,143.44,100612,,,D*4C
$PMTK001,314,3*36
$PMTK001,220,3*30
$PMTK001,185,3*3C
$GPGGA,184439.000,4009.7158,N,07506.9033,W,2,12,0.82,8140.4,M,-34.0,M,0000,0000*6F
$GPRMC,184439.000,A,4009.7158,N,0750RÎÂj
$GPRMC,184438.000,A,4009.7210,N,07506.9077,W,23.11,143.44,100612,,,D*4C
$PMTK001,314,3*36
$PMTK001,220,3*30
$PMTK001,185,3*3C
$GPGGA,184439.000,4009.7158,N,07506.9033,W,2,12,0.82,8140.4,M,-34.0,M,0000,0000*6F
$GPRMC,184439.000,A,4009.7158,N,0750RÎÂj
$GPRMC,184438.000,A,4009.7210,N,07506.9077,W,23.11,143.44,100612,,,D*4C
$PMTK001,314,3*36
$PMTK001,220,3*30
$PMTK001,185,3*3C
$GPGGA,184439.000,4009.7158,N,07506.9033,W,2,12,0.82,8140.4,M,-34.0,M,0000,0000*6F
$GPRMC,184439.000,A,4009.7158,N,0750RÎÂj
$GPRMC,184438.000,A,4009.7210,N,07506.9077,W,23.11,143.44,100612,,,D*4C
$PMTK001,314,3*36
$PMTK001,220,3*30
$PMTK001,185,3*3C
$GPGGA,184439.000,4009.7158,N,07506.9033,W,2,12,0.82,8140.4,M,-34.0,M,0000,0000*6F
$GPRMC,184439.000,A,4009.7158,N,0750RÎÂj
$GPRMC,184438.000,A,4009.7210,N,07506.9077,W,23.11,143.44,100612,,,D*4C
$PMTK001,314,3*36
$PMTK001,220,3*30
$PMTK001,185,3*3C
$GPGGA,184439.000,4009.7158,N,07506.9033,W,2,12,0.82,8140.4,M,-34.0,M,0000,0000*6F
$GPRMC,184439.000,A,4009.7158,N,0750RÎÂj
$GPRMC,184438.000,A,4009.7210,N,07506.9077,W,23.11,143.44,100612,,,D*4C
$PMTK001,314,3*36
$PMTK001,220,3*30
$PMTK001,185,3*3C
$GPGGA,184439.000,4009.7158,N,07506.9033,W,2,12,0.82,8140.4,M,-34.0,M,0000,0000*6F
$GPRMC,184439.000,A,4009.7158,N,0750RÎÂj
$GPRMC,184438.000,A,4009.7210,N,07506.9077,W,23.11,143.44,100612,,,D*4C
$PMTK001,314,3*36
$PMTK001,220,3*30
$PMTK001,185,3*3C
$GPGGA,184439.000,4009.7158,N,07506.9033,W,2,12,0.82,8140.4,M,-34.0,M,0000,0000*6F
$GPRMC,184439.000,A,4009.7158,N,0750RÎÂj
$GPRMC,184438.000,A,4009.7210,N,07506.9077,W,23.11,143.44,100612,,,D*4C
$PMTK001,314,3*36
$PMTK001,220,3*30
$PMTK001,185,3*3C
$GPGGA,184439.000,4009.7158,N,07506.9033,W,2,12,0.82,8140.4,M,-34.0,M,0000,0000*6F
$GPRMC,184439.000,A,4009.7158,N,0750RÎÂj
$GPRMC,184438.000,A,4009.7210,N,07506.9077,W,23.11,143.44,100612,,,D*4C
$PMTK001,314,3*36
$PMTK001,220,3*30
$PMTK001,185,3*3C
$GPGGA,184439.000,4009.7158,N,07506.9033,W,2,12,0.82,8140.4,M,-34.0,M,0000,0000*6F
$GPRMC,184439.000,A,4009.7158,N,0750RÎÂj
$GPRMC,184438.000,A,4009.7210,N,07506.9077,W,23.11,143.44,100612,,,D*4C
$PMTK001,314,3*36
$PMTK001,220,3*30
$PMTK001,185,3*3C
$GPGGA,184439.000,4009.7158,N,07506.9033,W,2,12,0.82,8140.4,M,-34.0,M,0000,0000*6F
$GPRMC,184439.000,A,4009.7158,N,0750RÎÂj
$GPRMC,184438.000,A,4009.7210,N,07506.9077,W,23.11,143.44,100612,,,D*4C
$PMTK001,314,3*36
$PMTK001,220,3*30
$PMTK001,185,3*3C
$GPGGA,184439.000,4009.7158,N,07506.9033,W,2,12,0.82,8140.4,M,-34.0,M,0000,0000*6F
$GPRMC,184439.000,A,4009.7158,N,0750RÎÂj
$GPRMC,184438.000,A,4009.7210,N,07506.9077,W,23.11,143.44,100612,,,D*4C
$PMTK001,314,3*36
$PMTK001,220,3*30
$PMTK001,185,3*3C
$GPGGA,184439.000,4009.7158,N,07506.9033,W,2,12,0.82,8140.4,M,-34.0,M,0000,0000*6F
$GPRMC,184439.000,A,4009.7158,N,0750RÎÂj
$GPRMC,184438.000,A,4009.7210,N,07506.9077,W,23.11,143.44,100612,,,D*4C
$PMTK001,314,3*36
$PMTK001,220,3*30
$PMTK001,185,3*3C
$GPGGA,184439.000,4009.7158,N,07506.9033,W,2,12,0.82,8140.4,M,-34.0,M,0000,0000*6F
$GPRMC,184439.000,A,4009.7158,N,0750RÎÂj
$GPRMC,184438.000,A,4009.7210,N,07506.9077,W,23.11,143.44,100612,,,D*4C
$PMTK001,314,3*36
$PMTK001,220,3*30
$PMTK001,185,3*3C
$GPGGA,184439.000,4009.7158,N,07506.9033,W,2,12,0.82,8140.4,M,-34.0,M,0000,0000*6F
$GPRMC,184439.000,A,4009.7158,N,0750RÎÂj
$GPRMC,184438.000,A,4009.7210,N,07506.9077,W,23.11,143.44,100612,,,D*4C
$PMTK001,314,3*36
$PMTK001,220,3*30
$PMTK001,185,3*3C
$GPGGA,184439.000,4009.7158,N,07506.9033,W,2,12,0.82,8140.4,M,-34.0,M,0000,0000*6F
$GPRMC,184439.000,A,4009.7158,N,0750RÎÂj
$GPRMC,184438.000,A,4009.7210,N,07506.9077,W,23.11,143.44,100612,,,D*4C
$PMTK001,314,3*36
$PMTK001,220,3*30
$PMTK001,185,3*3C
$GPGGA,184439.000,4009.7158,N,07506.9033,W,2,12,0.82,8140.4,M,-34.0,M,0000,0000*6F
$GPRMC,184439.000,A,4009.7158,N,0750RÎÂj
$GPRMC,184438.000,A,4009.7210,N,07506.9077,W,23.11,143.44,100612,,,D*4C
$PMTK001,314,3*36
$PMTK001,220,3*30
$PMTK001,185,3*3C
$GPGGA,184439.000,4009.7158,N,07506.9033,W,2,12,0.82,8140.4,M,-34.0,M,0000,0000*6F
$GPRMC,184439.000,A,4009.7158,N,0750RÎÂj
$GPRMC,184438.000,A,4009.7210,N,07506.9077,W,23.11,143.44,100612,,,D*4C
$PMTK001,314,3*36
$PMTK001,220,3*30
$PMTK001,185,3*3C
$GPGGA,184439.000,4009.7158,N,07506.9033,W,2,12,0.82,8140.4,M,-34.0,M,0000,0000*6F
$GPRMC,184439.000,A,4009.7158,N,0750RÎÂj
$GPRMC,184438.000,A,4009.7210,N,07506.9077,W,23.11,143.44,100612,,,D*4C
$PMTK001,314,3*36
$PMTK001,220,3*30
$PMTK001,185,3*3C
$GPGGA,184439.000,4009.7158,N,07506.9033,W,2,12,0.82,8140.4,M,-34.0,M,0000,0000*6F
$GPRMC,184439.000,A,4009.7158,N,0750RÎÂj
$GPRMC,184438.000,A,4009.7210,N,07506.9077,W,23.11,143.44,100612,,,D*4C
$PMTK001,314,3*36
$PMTK001,220,3*30
$PMTK001,185,3*3C
$GPGGA,184439.000,4009.7158,N,07506.9033,W,2,12,0.82,8140.4,M,-34.0,M,0000,0000*6F
$GPRMC,184439.000,A,4009.7158,N,0750RÎÂj
$GPRMC,184438.000,A,4009.7210,N,07506.9077,W,23.11,143.44,100612,,,D*4C
$PMTK001,314,3*36
$PMTK001,220,3*30
$PMTK001,185,3*3C
$GPGGA,184439.000,4009.7158,N,07506.9033,W,2,12,0.82,8140.4,M,-34.0,M,0000,0000*6F
$GPRMC,184439.000,A,4009.7158,N,0750RÎÂj
$GPRMC,184438.000,A,4009.7210,N,07506.9077,W,23.11,143.44,100612,,,D*4C
$PMTK001,314,3*36
$PMTK001,220,3*30
$PMTK001,185,3*3C
$GPGGA,184439.000,4009.7158,N,07506.9033,W,2,12,0.82,8140.4,M,-34.0,M,0000,0000*6F
$GPRMC,184439.000,A,4009.7158,N,0750RÎÂj
$GPRMC,184438.000,A,4009.7210,N,07506.9077,W,23.11,143.44,100612,,,D*4C
$PMTK001,314,3*36
$PMTK001,220,3*30
$PMTK001,185,3*3C
$GPGGA,184439.000,4009.7158,N,07506.9033,W,2,12,0.82,8140.4,M,-34.0,M,0000,0000*6F
$GPRMC,184439.000,A,4009.7158,N,0750RÎÂj
$GPRMC,184438.000,A,4009.7210,N,07506.9077,W,23.11,143.44,100612,,,D*4C
$PMTK001,314,3*36
$PMTK001,220,3*30
$PMTK001,185,3*3C
$GPGGA,184439.000,4009.7158,N,07506.9033,W,2,12,0.82,8140.4,M,-34.0,M,0000,0000*6F
$GPRMC,184439.000,A,4009.7158,N,0750RÎÂj
$GPRMC,184438.000,A,4009.7210,N,07506.9077,W,23.11,143.44,100612,,,D*4C
$PMTK001,314,3*36
$PMTK001,220,3*30
$PMTK001,185,3*3C
$GPGGA,184439.000,4009.7158,N,07506.9033,W,2,12,0.82,8140.4,M,-34.0,M,0000,0000*6F
$GPRMC,184439.000,A,4009.7158,N,0750RÎÂj
$GPRMC,184438.000,A,4009.7210,N,07506.9077,W,23.11,143.44,100612,,,D*4C
$PMTK001,314,3*36
$PMTK001,220,3*30
$PMTK001,185,3*3C
$GPGGA,184439.000,4009.7158,N,07506.9033,W,2,12,0.82,8140.4,M,-34.0,M,0000,0000*6F
$GPRMC,184439.000,A,4009.7158,N,0750RÎÂj
$GPRMC,184438.000,A,4009.7210,N,07506.9077,W,23.11,143.44,100612,,,D*4C
$PMTK001,314,3*36
$PMTK001,220,3*30
$PMTK001,185,3*3C
$GPGGA,184439.000,4009.7158,N,07506.9033,W,2,12,0.82,8140.4,M,-34.0,M,0000,0000*6F
$GPRMC,184439.000,A,4009.7158,N,0750RÎÂj
$GPRMC,184438.000,A,4009.7210,N,07506.9077,W,23.11,143.44,100612,,,D*4C
$PMTK001,314,3*36
$PMTK001,220,3*30
$PMTK001,185,3*3C
$GPGGA,184439.000,4009.7158,N,07506.9033,W,2,12,0.82,8140.4,M,-34.0,M,0000,0000*6F
$GPRMC,184439.000,A,4009.7158,N,0750RÎÂj
$GPRMC,184438.000,A,4009.7210,N,07506.9077,W,23.11,143.44,100612,,,D*4C
$PMTK001,314,3*36
$PMTK001,220,3*30
$PMTK001,185,3*3C
$GPGGA,184439.000,4009.7158,N,07506.9033,W,2,12,0.82,8140.4,M,-34.0,M,0000,0000*6F
$GPRMC,184439.000,A,4009.7158,N,0750