$PMTK001,314,3*36
$PMTK001,220,3*30
$PMTK001,185,3*3C
$GPGGA,173638.000,4026.7016,N,07520.5927,W,2,6,1.14,149.7,M,-33.9,M,0000,0000*61
$GPRMC,173638.000,A,4026.7016,N,07520.5927,W,0.17,252.42,100612,,,D*79
$GPGGA,173639.000,4026.7016,N,07520.5927,W,2$PMTK001,314,3*36
$PMTK001,220,3*30
$PMTK001,185,3*3C
$GPGGA,173638.000,4026.7016,N,07520.5927,W,2,6,1.14,149.7,M,-33.9,M,0000,0000*61
$GPRMC,173638.000,A,4026.7016,N,07520.5927,W,0.17,252.42,100612,,,D*79
$GPGGA,173639.000,4026.7016,N,07520.5927,W,2$PMTK001,314,3*36
$PMTK001,220,3*30
$PMTK001,185,3*3C
$GPGGA,173638.000,4026.7016,N,07520.5927,W,2,6,1.14,149.7,M,-33.9,M,0000,0000*61
$GPRMC,173638.000,A,4026.7016,N,07520.5927,W,0.17,252.42,100612,,,D*79
$GPGGA,173639.000,4026.7016,N,07520.5927,W,2$PMTK001,314,3*36
$PMTK001,220,3*30
$PMTK001,185,3*3C
$GPGGA,173638.000,4026.7016,N,07520.5927,W,2,6,1.14,149.7,M,-33.9,M,0000,0000*61
$GPRMC,173638.000,A,4026.7016,N,07520.5927,W,0.17,252.42,100612,,,D*79
$GPGGA,173639.000,4026.7016,N,07520.5927,W,2$PMTK001,314,3*36
$PMTK001,220,3*30
$PMTK001,185,3*3C
$GPGGA,173638.000,4026.7016,N,07520.5927,W,2,6,1.14,149.7,M,-33.9,M,0000,0000*61
$GPRMC,173638.000,A,4026.7016,N,07520.5927,W,0.17,252.42,100612,,,D*79
$GPGGA,173639.000,4026.7016,N,07520.5927,W,2$PMTK001,314,3*36
$PMTK001,220,3*30
$PMTK001,185,3*3C
$GPGGA,173638.000,4026.7016,N,07520.5927,W,2,6,1.14,149.7,M,-33.9,M,0000,0000*61
$GPRMC,173638.000,A,4026.7016,N,07520.5927,W,0.17,252.42,100612,,,D*79
$GPGGA,173639.000,4026.7016,N,07520.5927,W,2$PMTK001,314,3*36
$PMTK001,220,3*30
$PMTK001,185,3*3C
$GPGGA,173638.000,4026.7016,N,07520.5927,W,2,6,1.14,149.7,M,-33.9,M,0000,0000*61
$GPRMC,173638.000,A,4026.7016,N,07520.5927,W,0.17,252.42,100612,,,D*79
$GPGGA,173639.000,4026.7016,N,07520.5927,W,2$PMTK001,314,3*36
$PMTK001,220,3*30
$PMTK001,185,3*3C
$GPGGA,173638.000,4026.7016,N,07520.5927,W,2,6,1.14,149.7,M,-33.9,M,0000,0000*61
$GPRMC,173638.000,A,4026.7016,N,07520.5927,W,0.17,252.42,100612,,,D*79
$GPGGA,173639.000,4026.7016,N,07520.5927,W,2$PMTK001,314,3*36
$PMTK001,220,3*30
$PMTK001,185,3*3C
$GPGGA,173638.000,4026.7016,N,07520.5927,W,2,6,1.14,149.7,M,-33.9,M,0000,0000*61
$GPRMC,173638.000,A,4026.7016,N,07520.5927,W,0.17,252.42,100612,,,D*79
$GPGGA,173639.000,4026.7016,N,07520.5927,W,2$PMTK001,314,3*36
$PMTK001,220,3*30
$PMTK001,185,3*3C
$GPGGA,173638.000,4026.7016,N,07520.5927,W,2,6,1.14,149.7,M,-33.9,M,0000,0000*61
$GPRMC,173638.000,A,4026.7016,N,07520.5927,W,0.17,252.42,100612,,,D*79
$GPGGA,173639.000,4026.7016,N,07520.5927,W,2$PMTK001,314,3*36
$PMTK001,220,3*30
$PMTK001,185,3*3C
$GPGGA,173638.000,4026.7016,N,07520.5927,W,2,6,1.14,149.7,M,-33.9,M,0000,0000*61
$GPRMC,173638.000,A,4026.7016,N,07520.5927,W,0.17,252.42,100612,,,D*79
$GPGGA,173639.000,4026.7016,N,07520.5927,W,2$PMTK001,314,3*36
$PMTK001,220,3*30
$PMTK001,185,3*3C
$GPGGA,173638.000,4026.7016,N,07520.5927,W,2,6,1.14,149.7,M,-33.9,M,0000,0000*61
$GPRMC,173638.000,A,4026.7016,N,07520.5927,W,0.17,252.42,100612,,,D*79
$GPGGA,173639.000,4026.7016,N,07520.5927,W,2$PMTK001,314,3*36
$PMTK001,220,3*30
$PMTK001,185,3*3C
$GPGGA,173638.000,4026.7016,N,07520.5927,W,2,6,1.14,149.7,M,-33.9,M,0000,0000*61
$GPRMC,173638.000,A,4026.7016,N,07520.5927,W,0.17,252.42,100612,,,D*79
$GPGGA,173639.000,4026.7016,N,07520.5927,W,2$PMTK001,314,3*36
$PMTK001,220,3*30
$PMTK001,185,3*3C
$GPGGA,173638.000,4026.7016,N,07520.5927,W,2,6,1.14,149.7,M,-33.9,M,0000,0000*61
$GPRMC,173638.000,A,4026.7016,N,07520.5927,W,0.17,252.42,100612,,,D*79
$GPGGA,173639.000,4026.7016,N,07520.5927,W,2$PMTK001,314,3*36
$PMTK001,220,3*30
$PMTK001,185,3*3C
$GPGGA,173638.000,4026.7016,N,07520.5927,W,2,6,1.14,149.7,M,-33.9,M,0000,0000*61
$GPRMC,173638.000,A,4026.7016,N,07520.5927,W,0.17,252.42,100612,,,D*79
$GPGGA,173639.000,4026.7016,N,07520.5927,W,2$PMTK001,314,3*36
$PMTK001,220,3*30
$PMTK001,185,3*3C
$GPGGA,173638.000,4026.7016,N,07520.5927,W,2,6,1.14,149.7,M,-33.9,M,0000,0000*61
$GPRMC,173638.000,A,4026.7016,N,07520.5927,W,0.17,252.42,100612,,,D*79
$GPGGA,173639.000,4026.7016,N,07520.5927,W,2$PMTK001,314,3*36
$PMTK001,220,3*30
$PMTK001,185,3*3C
$GPGGA,173638.000,4026.7016,N,07520.5927,W,2,6,1.14,149.7,M,-33.9,M,0000,0000*61
$GPRMC,173638.000,A,4026.7016,N,07520.5927,W,0.17,252.42,100612,,,D*79
$GPGGA,173639.000,4026.7016,N,07520.5927,W,2$PMTK001,314,3*36
$PMTK001,220,3*30
$PMTK001,185,3*3C
$GPGGA,173638.000,4026.7016,N,07520.5927,W,2,6,1.14,149.7,M,-33.9,M,0000,0000*61
$GPRMC,173638.000,A,4026.7016,N,07520.5927,W,0.17,252.42,100612,,,D*79
$GPGGA,173639.000,4026.7016,N,07520.5927,W,2$PMTK001,314,3*36
$PMTK001,220,3*30
$PMTK001,185,3*3C
$GPGGA,173638.000,4026.7016,N,07520.5927,W,2,6,1.14,149.7,M,-33.9,M,0000,0000*61
$GPRMC,173638.000,A,4026.7016,N,07520.5927,W,0.17,252.42,100612,,,D*79
$GPGGA,173639.000,4026.7016,N,07520.5927,W,2$PMTK001,314,3*36
$PMTK001,220,3*30
$PMTK001,185,3*3C
$GPGGA,173638.000,4026.7016,N,07520.5927,W,2,6,1.14,149.7,M,-33.9,M,0000,0000*61
$GPRMC,173638.000,A,4026.7016,N,07520.5927,W,0.17,252.42,100612,,,D*79
$GPGGA,173639.000,4026.7016,N,07520.5927,W,2$PMTK001,314,3*36
$PMTK001,220,3*30
$PMTK001,185,3*3C
$GPGGA,173638.000,4026.7016,N,07520.5927,W,2,6,1.14,149.7,M,-33.9,M,0000,0000*61
$GPRMC,173638.000,A,4026.7016,N,07520.5927,W,0.17,252.42,100612,,,D*79
$GPGGA,173639.000,4026.7016,N,07520.5927,W,2$PMTK001,314,3*36
$PMTK001,220,3*30
$PMTK001,185,3*3C
$GPGGA,173638.000,4026.7016,N,07520.5927,W,2,6,1.14,149.7,M,-33.9,M,0000,0000*61
$GPRMC,173638.000,A,4026.7016,N,07520.5927,W,0.17,252.42,100612,,,D*79
$GPGGA,173639.000,4026.7016,N,07520.5927,W,2$PMTK001,314,3*36
$PMTK001,220,3*30
$PMTK001,185,3*3C
$GPGGA,173638.000,4026.7016,N,07520.5927,W,2,6,1.14,149.7,M,-33.9,M,0000,0000*61
$GPRMC,173638.000,A,4026.7016,N,07520.5927,W,0.17,252.42,100612,,,D*79
$GPGGA,173639.000,4026.7016,N,07520.5927,W,2$PMTK001,314,3*36
$PMTK001,220,3*30
$PMTK001,185,3*3C
$GPGGA,173638.000,4026.7016,N,07520.5927,W,2,6,1.14,149.7,M,-33.9,M,0000,0000*61
$GPRMC,173638.000,A,4026.7016,N,07520.5927,W,0.17,252.42,100612,,,D*79
$GPGGA,173639.000,4026.7016,N,07520.5927,W,2$PMTK001,314,3*36
$PMTK001,220,3*30
$PMTK001,185,3*3C
$GPGGA,173638.000,4026.7016,N,07520.5927,W,2,6,1.14,149.7,M,-33.9,M,0000,0000*61
$GPRMC,173638.000,A,4026.7016,N,07520.5927,W,0.17,252.42,100612,,,D*79
$GPGGA,173639.000,4026.7016,N,07520.5927,W,2$PMTK001,314,3*36
$PMTK001,220,3*30
$PMTK001,185,3*3C
$GPGGA,173638.000,4026.7016,N,07520.5927,W,2,6,1.14,149.7,M,-33.9,M,0000,0000*61
$GPRMC,173638.000,A,4026.7016,N,07520.5927,W,0.17,252.42,100612,,,D*79
$GPGGA,173639.000,4026.7016,N,07520.5927,W,2$PMTK001,314,3*36
$PMTK001,220,3*30
$PMTK001,185,3*3C
$GPGGA,173638.000,4026.7016,N,07520.5927,W,2,6,1.14,149.7,M,-33.9,M,0000,0000*61
$GPRMC,173638.000,A,4026.7016,N,07520.5927,W,0.17,252.42,100612,,,D*79
$GPGGA,173639.000,4026.7016,N,07520.5927,W,2$PMTK001,314,3*36
$PMTK001,220,3*30
$PMTK001,185,3*3C
$GPGGA,173638.000,4026.7016,N,07520.5927,W,2,6,1.14,149.7,M,-33.9,M,0000,0000*61
$GPRMC,173638.000,A,4026.7016,N,07520.5927,W,0.17,252.42,100612,,,D*79
$GPGGA,173639.000,4026.7016,N,07520.5927,W,2$PMTK001,314,3*36
$PMTK001,220,3*30
$PMTK001,185,3*3C
$GPGGA,173638.000,4026.7016,N,07520.5927,W,2,6,1.14,149.7,M,-33.9,M,0000,0000*61
$GPRMC,173638.000,A,4026.7016,N,07520.5927,W,0.17,252.42,100612,,,D*79
$GPGGA,173639.000,4026.7016,N,07520.5927,W,2$PMTK001,314,3*36
$PMTK001,220,3*30
$PMTK001,185,3*3C
$GPGGA,173638.000,4026.7016,N,07520.5927,W,2,6,1.14,149.7,M,-33.9,M,0000,0000*61
$GPRMC,173638.000,A,4026.7016,N,07520.5927,W,0.17,252.42,100612,,,D*79
$GPGGA,173639.000,4026.7016,N,07520.5927,W,2$PMTK001,314,3*36
$PMTK001,220,3*30
$PMTK001,185,3*3C
$GPGGA,173638.000,4026.7016,N,07520.5927,W,2,6,1.14,149.7,M,-33.9,M,0000,0000*61
$GPRMC,173638.000,A,4026.7016,N,07520.5927,W,0.17,252.42,100612,,,D*79
$GPGGA,173639.000,4026.7016,N,07520.5927,W,2$PMTK001,314,3*36
$PMTK001,220,3*30
$PMTK001,185,3*3C
$GPGGA,173638.000,4026.7016,N,07520.5927,W,2,6,1.14,149.7,M,-33.9,M,0000,0000*61
$GPRMC,173638.000,A,4026.7016,N,07520.5927,W,0.17,252.42,100612,,,D*79
$GPGGA,173639.000,4026.7016,N,07520.5927,W,2$PMTK001,314,3*36
$PMTK001,220,3*30
$PMTK001,185,3*3C
$GPGGA,173638.000,4026.7016,N,07520.5927,W,2,6,1.14,149.7,M,-33.9,M,0000,0000*61
$GPRMC,173638.000,A,4026.7016,N,07520.5927,W,0.17,252.42,100612,,,D*79
$GPGGA,173639.000,4026.7016,N,07520.5927,W,2$PMTK001,314,3*36
$PMTK001,220,3*30
$PMTK001,185,3*3C
$GPGGA,173638.000,4026.7016,N,07520.5927,W,2,6,1.14,149.7,M,-33.9,M,0000,0000*61
$GPRMC,173638.000,A,4026.7016,N,07520.5927,W,0.17,252.42,100612,,,D*79
$GPGGA,173639.000,4026.7016,N,07520.5927,W,2$PMTK001,314,3*36
$PMTK001,220,3*30
$PMTK001,185,3*3C
$GPGGA,173638.000,4026.7016,N,07520.5927,W,2,6,1.14,149.7,M,-33.9,M,0000,0000*61
$GPRMC,173638.000,A,4026.7016,N,07520.5927,W,0.17,252.42,100612,,,D*79
$GPGGA,173639.000,4026.7016,N,07520.5927,W,2$PMTK001,314,3*36
$PMTK001,220,3*30
$PMTK001,185,3*3C
$GPGGA,173638.000,4026.7016,N,07520.5927,W,2,6,1.14,149.7,M,-33.9,M,0000,0000*61
$GPRMC,173638.000,A,4026.7016,N,07520.5927,W,0.17,252.42,100612,,,D*79
$GPGGA,173639.000,4026.7016,N,07520.5927,W,2$PMTK001,314,3*36
$PMTK001,220,3*30
$PMTK001,185,3*3C
$GPGGA,173638.000,4026.7016,N,07520.5927,W,2,6,1.14,149.7,M,-33.9,M,0000,0000*61
$GPRMC,173638.000,A,4026.7016,N,07520.5927,W,0.17,252.42,100612,,,D*79
$GPGGA,173639.000,4026.7016,N,07520.5927,W,2$PMTK001,314,3*36
$PMTK001,220,3*30
$PMTK001,185,3*3C
$GPGGA,173638.000,4026.7016,N,07520.5927,W,2,6,1.14,149.7,M,-33.9,M,0000,0000*61
$GPRMC,173638.000,A,4026.7016,N,07520.5927,W,0.17,252.42,100612,,,D*79
$GPGGA,173639.000,4026.7016,N,07520.5927,W,2$PMTK001,314,3*36
$PMTK001,220,3*30
$PMTK001,185,3*3C
$GPGGA,173638.000,4026.7016,N,07520.5927,W,2,6,1.14,149.7,M,-33.9,M,0000,0000*61
$GPRMC,173638.000,A,4026.7016,N,07520.5927,W,0.17,252.42,100612,,,D*79
$GPGGA,173639.000,4026.7016,N,07520.5927,W,2$PMTK001,314,3*36
$PMTK001,220,3*30
$PMTK001,185,3*3C
$GPGGA,173638.000,4026.7016,N,07520.5927,W,2,6,1.14,149.7,M,-33.9,M,0000,0000*61
$GPRMC,173638.000,A,4026.7016,N,07520.5927,W,0.17,252.42,100612,,,D*79
$GPGGA,173639.000,4026.7016,N,07520.5927,W,2$PMTK001,314,3*36
$PMTK001,220,3*30
$PMTK001,185,3*3C
$GPGGA,173638.000,4026.7016,N,07520.5927,W,2,6,1.14,149.7,M,-33.9,M,0000,0000*61
$GPRMC,173638.000,A,4026.7016,N,07520.5927,W,0.17,252.42,100612,,,D*79
$GPGGA,173639.000,4026.7016,N,07520.5927,W,2$PMTK001,314,3*36
$PMTK001,220,3*30
$PMTK001,185,3*3C
$GPGGA,173638.000,4026.7016,N,07520.5927,W,2,6,1.14,149.7,M,-33.9,M,0000,0000*61
$GPRMC,173638.000,A,4026.7016,N,07520.5927,W,0.17,252.42,100612,,,D*79
$GPGGA,173639.000,4026.7016,N,07520.5927,W,2$PMTK001,314,3*36
$PMTK001,220,3*30
$PMTK001,185,3*3C
$GPGGA,173638.000,4026.7016,N,07520.5927,W,2,6,1.14,149.7,M,-33.9,M,0000,0000*61
$GPRMC,173638.000,A,4026.7016,N,07520.5927,W,0.17,252.42,100612,,,D*79
$GPGGA,173639.000,4026.7016,N,07520.5927,W,2$PMTK001,314,3*36
$PMTK001,220,3*30
$PMTK001,185,3*3C
$GPGGA,173638.000,4026.7016,N,07520.5927,W,2,6,1.14,149.7,M,-33.9,M,0000,0000*61
$GPRMC,173638.000,A,4026.7016,N,07520.5927,W,0.17,252.42,100612,,,D*79
$GPGGA,173639.000,4026.7016,N,07520.5927,W,2$PMTK001,314,3*36
$PMTK001,220,3*30
$PMTK001,185,3*3C
$GPGGA,173638.000,4026.7016,N,07520.5927,W,2,6,1.14,149.7,M,-33.9,M,0000,0000*61
$GPRMC,173638.000,A,4026.7016,N,07520.5927,W,0.17,252.42,100612,,,D*79
$GPGGA,173639.000,4026.7016,N,07520.5927,W,2$PMTK001,314,3*36
$PMTK001,220,3*30
$PMTK001,185,3*3C
$GPGGA,173638.000,4026.7016,N,07520.5927,W,2,6,1.14,149.7,M,-33.9,M,0000,0000*61
$GPRMC,173638.000,A,4026.7016,N,07520.5927,W,0.17,252.42,100612,,,D*79
$GPGGA,173639.000,4026.7016,N,07520.5927,W,2$PMTK001,314,3*36
$PMTK001,220,3*30
$PMTK001,185,3*3C
$GPGGA,173638.000,4026.7016,N,07520.5927,W,2,6,1.14,149.7,M,-33.9,M,0000,0000*61
$GPRMC,173638.000,A,4026.7016,N,07520.5927,W,0.17,252.42,100612,,,D*79
$GPGGA,173639.000,4026.7016,N,07520.5927,W,2$PMTK001,314,3*36
$PMTK001,220,3*30
$PMTK001,185,3*3C
$GPGGA,173638.000,4026.7016,N,07520.5927,W,2,6,1.14,149.7,M,-33.9,M,0000,0000*61
$GPRMC,173638.000,A,4026.7016,N,07520.5927,W,0.17,252.42,100612,,,D*79
$GPGGA,173639.000,4026.7016,N,07520.5927,W,2$PMTK001,314,3*36
$PMTK001,220,3*30
$PMTK001,185,3*3C
$GPGGA,173638.000,4026.7016,N,07520.5927,W,2,6,1.14,149.7,M,-33.9,M,0000,0000*61
$GPRMC,173638.000,A,4026.7016,N,07520.5927,W,0.17,252.42,100612,,,D*79
$GPGGA,173639.000,4026.7016,N,07520.5927,W,2$PMTK001,314,3*36
$PMTK001,220,3*30
$PMTK001,185,3*3C
$GPGGA,173638.000,4026.7016,N,07520.5927,W,2,6,1.14,149.7,M,-33.9,M,0000,0000*61
$GPRMC,173638.000,A,4026.7016,N,07520.5927,W,0.17,252.42,100612,,,D*79
$GPGGA,173639.000,4026.7016,N,07520.5927,W,2$PMTK001,314,3*36
$PMTK001,220,3*30
$PMTK001,185,3*3C
$GPGGA,173638.000,4026.7016,N,07520.5927,W,2,6,1.14,149.7,M,-33.9,M,0000,0000*61
$GPRMC,173638.000,A,4026.7016,N,07520.5927,W,0.17,252.42,100612,,,D*79
$GPGGA,173639.000,4026.7016,N,07520.5927,W,2$PMTK001,314,3*36
$PMTK001,220,3*30
$PMTK001,185,3*3C
$GPGGA,173638.000,4026.7016,N,07520.5927,W,2,6,1.14,149.7,M,-33.9,M,0000,0000*61
$GPRMC,173638.000,A,4026.7016,N,07520.5927,W,0.17,252.42,100612,,,D*79
$GPGGA,173639.000,4026.7016,N,07520.5927,W,2$PMTK001,314,3*36
$PMTK001,220,3*30
$PMTK001,185,3*3C
$GPGGA,173638.000,4026.7016,N,07520.5927,W,2,6,1.14,149.7,M,-33.9,M,0000,0000*61
$GPRMC,173638.000,A,4026.7016,N,07520.5927,W,0.17,252.42,100612,,,D*79
$GPGGA,173639.000,4026.7016,N,07520.5927,W,2$PMTK001,314,3*36
$PMTK001,220,3*30
$PMTK001,185,3*3C
$GPGGA,173638.000,4026.7016,N,07520.5927,W,2,6,1.14,149.7,M,-33.9,M,0000,0000*61
$GPRMC,173638.000,A,4026.7016,N,07520.5927,W,0.17,252.42,100612,,,D*79
$GPGGA,173639.000,4026.7016,N,07520.5927,W,2$PMTK001,314,3*36
$PMTK001,220,3*30
$PMTK001,185,3*3C
$GPGGA,173638.000,4026.7016,N,07520.5927,W,2,6,1.14,149.7,M,-33.9,M,0000,0000*61
$GPRMC,173638.000,A,4026.7016,N,07520.5927,W,0.17,252.42,100612,,,D*79
$GPGGA,173639.000,4026.7016,N,07520.5927,W,2$PMTK001,314,3*36
$PMTK001,220,3*30
$PMTK001,185,3*3C
$GPGGA,173638.000,4026.7016,N,07520.5927,W,2,6,1.14,149.7,M,-33.9,M,0000,0000*61
$GPRMC,173638.000,A,4026.7016,N,07520.5927,W,0.17,252.42,100612,,,D*79
$GPGGA,173639.000,4026.7016,N,07520.5927,W,2$PMTK001,314,3*36
$PMTK001,220,3*30
$PMTK001,185,3*3C
$GPGGA,173638.000,4026.7016,N,07520.5927,W,2,6,1.14,149.7,M,-33.9,M,0000,0000*61
$GPRMC,173638.000,A,4026.7016,N,07520.5927,W,0.17,252.42,100612,,,D*79
$GPGGA,173639.000,4026.7016,N,07520.5927,W,2$PMTK001,314,3*36
$PMTK001,220,3*30
$PMTK001,185,3*3C
$GPGGA,173638.000,4026.7016,N,07520.5927,W,2,6,1.14,149.7,M,-33.9,M,0000,0000*61
$GPRMC,173638.000,A,4026.7016,N,07520.5927,W,0.17,252.42,100612,,,D*79
$GPGGA,173639.000,4026.7016,N,07520.5927,W,2