$GPGGA,181439.000,4019.7543,N,07516.6903,W,2,10,0.82,4552.4,M,-33.9,M,0000,0000*66
$GPRMC,181439.000,A,4019.7543,N,07516.6903,W,30.48,159.56,100612,,,D*4A
$PMTK001,314,3*36
$PMTK001,220,3*30
$PMTK001,185,3*3C
$GPGGA,181440.000,4019.7468,N,07516.6861,$GPGGA,181439.000,4019.7543,N,07516.6903,W,2,10,0.82,4552.4,M,-33.9,M,0000,0000*66
$GPRMC,181439.000,A,4019.7543,N,07516.6903,W,30.48,159.56,100612,,,D*4A
$PMTK001,314,3*36
$PMTK001,220,3*30
$PMTK001,185,3*3C
$GPGGA,181440.000,4019.7468,N,07516.6861,$GPGGA,181439.000,4019.7543,N,07516.6903,W,2,10,0.82,4552.4,M,-33.9,M,0000,0000*66
$GPRMC,181439.000,A,4019.7543,N,07516.6903,W,30.48,159.56,100612,,,D*4A
$PMTK001,314,3*36
$PMTK001,220,3*30
$PMTK001,185,3*3C
$GPGGA,181440.000,4019.7468,N,07516.6861,$GPGGA,181439.000,4019.7543,N,07516.6903,W,2,10,0.82,4552.4,M,-33.9,M,0000,0000*66
$GPRMC,181439.000,A,4019.7543,N,07516.6903,W,30.48,159.56,100612,,,D*4A
$PMTK001,314,3*36
$PMTK001,220,3*30
$PMTK001,185,3*3C
$GPGGA,181440.000,4019.7468,N,07516.6861,$GPGGA,181439.000,4019.7543,N,07516.6903,W,2,10,0.82,4552.4,M,-33.9,M,0000,0000*66
$GPRMC,181439.000,A,4019.7543,N,07516.6903,W,30.48,159.56,100612,,,D*4A
$PMTK001,314,3*36
$PMTK001,220,3*30
$PMTK001,185,3*3C
$GPGGA,181440.000,4019.7468,N,07516.6861,$GPGGA,181439.000,4019.7543,N,07516.6903,W,2,10,0.82,4552.4,M,-33.9,M,0000,0000*66
$GPRMC,181439.000,A,4019.7543,N,07516.6903,W,30.48,159.56,100612,,,D*4A
$PMTK001,314,3*36
$PMTK001,220,3*30
$PMTK001,185,3*3C
$GPGGA,181440.000,4019.7468,N,07516.6861,$GPGGA,181439.000,4019.7543,N,07516.6903,W,2,10,0.82,4552.4,M,-33.9,M,0000,0000*66
$GPRMC,181439.000,A,4019.7543,N,07516.6903,W,30.48,159.56,100612,,,D*4A
$PMTK001,314,3*36
$PMTK001,220,3*30
$PMTK001,185,3*3C
$GPGGA,181440.000,4019.7468,N,07516.6861,$GPGGA,181439.000,4019.7543,N,07516.6903,W,2,10,0.82,4552.4,M,-33.9,M,0000,0000*66
$GPRMC,181439.000,A,4019.7543,N,07516.6903,W,30.48,159.56,100612,,,D*4A
$PMTK001,314,3*36
$PMTK001,220,3*30
$PMTK001,185,3*3C
$GPGGA,181440.000,4019.7468,N,07516.6861,$GPGGA,181439.000,4019.7543,N,07516.6903,W,2,10,0.82,4552.4,M,-33.9,M,0000,0000*66
$GPRMC,181439.000,A,4019.7543,N,07516.6903,W,30.48,159.56,100612,,,D*4A
$PMTK001,314,3*36
$PMTK001,220,3*30
$PMTK001,185,3*3C
$GPGGA,181440.000,4019.7468,N,07516.6861,$GPGGA,181439.000,4019.7543,N,07516.6903,W,2,10,0.82,4552.4,M,-33.9,M,0000,0000*66
$GPRMC,181439.000,A,4019.7543,N,07516.6903,W,30.48,159.56,100612,,,D*4A
$PMTK001,314,3*36
$PMTK001,220,3*30
$PMTK001,185,3*3C
$GPGGA,181440.000,4019.7468,N,07516.6861,$GPGGA,181439.000,4019.7543,N,07516.6903,W,2,10,0.82,4552.4,M,-33.9,M,0000,0000*66
$GPRMC,181439.000,A,4019.7543,N,07516.6903,W,30.48,159.56,100612,,,D*4A
$PMTK001,314,3*36
$PMTK001,220,3*30
$PMTK001,185,3*3C
$GPGGA,181440.000,4019.7468,N,07516.6861,$GPGGA,181439.000,4019.7543,N,07516.6903,W,2,10,0.82,4552.4,M,-33.9,M,0000,0000*66
$GPRMC,181439.000,A,4019.7543,N,07516.6903,W,30.48,159.56,100612,,,D*4A
$PMTK001,314,3*36
$PMTK001,220,3*30
$PMTK001,185,3*3C
$GPGGA,181440.000,4019.7468,N,07516.6861,$GPGGA,181439.000,4019.7543,N,07516.6903,W,2,10,0.82,4552.4,M,-33.9,M,0000,0000*66
$GPRMC,181439.000,A,4019.7543,N,07516.6903,W,30.48,159.56,100612,,,D*4A
$PMTK001,314,3*36
$PMTK001,220,3*30
$PMTK001,185,3*3C
$GPGGA,181440.000,4019.7468,N,07516.6861,$GPGGA,181439.000,4019.7543,N,07516.6903,W,2,10,0.82,4552.4,M,-33.9,M,0000,0000*66
$GPRMC,181439.000,A,4019.7543,N,07516.6903,W,30.48,159.56,100612,,,D*4A
$PMTK001,314,3*36
$PMTK001,220,3*30
$PMTK001,185,3*3C
$GPGGA,181440.000,4019.7468,N,07516.6861,$GPGGA,181439.000,4019.7543,N,07516.6903,W,2,10,0.82,4552.4,M,-33.9,M,0000,0000*66
$GPRMC,181439.000,A,4019.7543,N,07516.6903,W,30.48,159.56,100612,,,D*4A
$PMTK001,314,3*36
$PMTK001,220,3*30
$PMTK001,185,3*3C
$GPGGA,181440.000,4019.7468,N,07516.6861,$GPGGA,181439.000,4019.7543,N,07516.6903,W,2,10,0.82,4552.4,M,-33.9,M,0000,0000*66
$GPRMC,181439.000,A,4019.7543,N,07516.6903,W,30.48,159.56,100612,,,D*4A
$PMTK001,314,3*36
$PMTK001,220,3*30
$PMTK001,185,3*3C
$GPGGA,181440.000,4019.7468,N,07516.6861,$GPGGA,181439.000,4019.7543,N,07516.6903,W,2,10,0.82,4552.4,M,-33.9,M,0000,0000*66
$GPRMC,181439.000,A,4019.7543,N,07516.6903,W,30.48,159.56,100612,,,D*4A
$PMTK001,314,3*36
$PMTK001,220,3*30
$PMTK001,185,3*3C
$GPGGA,181440.000,4019.7468,N,07516.6861,$GPGGA,181439.000,4019.7543,N,07516.6903,W,2,10,0.82,4552.4,M,-33.9,M,0000,0000*66
$GPRMC,181439.000,A,4019.7543,N,07516.6903,W,30.48,159.56,100612,,,D*4A
$PMTK001,314,3*36
$PMTK001,220,3*30
$PMTK001,185,3*3C
$GPGGA,181440.000,4019.7468,N,07516.6861,$GPGGA,181439.000,4019.7543,N,07516.6903,W,2,10,0.82,4552.4,M,-33.9,M,0000,0000*66
$GPRMC,181439.000,A,4019.7543,N,07516.6903,W,30.48,159.56,100612,,,D*4A
$PMTK001,314,3*36
$PMTK001,220,3*30
$PMTK001,185,3*3C
$GPGGA,181440.000,4019.7468,N,07516.6861,$GPGGA,181439.000,4019.7543,N,07516.6903,W,2,10,0.82,4552.4,M,-33.9,M,0000,0000*66
$GPRMC,181439.000,A,4019.7543,N,07516.6903,W,30.48,159.56,100612,,,D*4A
$PMTK001,314,3*36
$PMTK001,220,3*30
$PMTK001,185,3*3C
$GPGGA,181440.000,4019.7468,N,07516.6861,$GPGGA,181439.000,4019.7543,N,07516.6903,W,2,10,0.82,4552.4,M,-33.9,M,0000,0000*66
$GPRMC,181439.000,A,4019.7543,N,07516.6903,W,30.48,159.56,100612,,,D*4A
$PMTK001,314,3*36
$PMTK001,220,3*30
$PMTK001,185,3*3C
$GPGGA,181440.000,4019.7468,N,07516.6861,$GPGGA,181439.000,4019.7543,N,07516.6903,W,2,10,0.82,4552.4,M,-33.9,M,0000,0000*66
$GPRMC,181439.000,A,4019.7543,N,07516.6903,W,30.48,159.56,100612,,,D*4A
$PMTK001,314,3*36
$PMTK001,220,3*30
$PMTK001,185,3*3C
$GPGGA,181440.000,4019.7468,N,07516.6861,$GPGGA,181439.000,4019.7543,N,07516.6903,W,2,10,0.82,4552.4,M,-33.9,M,0000,0000*66
$GPRMC,181439.000,A,4019.7543,N,07516.6903,W,30.48,159.56,100612,,,D*4A
$PMTK001,314,3*36
$PMTK001,220,3*30
$PMTK001,185,3*3C
$GPGGA,181440.000,4019.7468,N,07516.6861,$GPGGA,181439.000,4019.7543,N,07516.6903,W,2,10,0.82,4552.4,M,-33.9,M,0000,0000*66
$GPRMC,181439.000,A,4019.7543,N,07516.6903,W,30.48,159.56,100612,,,D*4A
$PMTK001,314,3*36
$PMTK001,220,3*30
$PMTK001,185,3*3C
$GPGGA,181440.000,4019.7468,N,07516.6861,$GPGGA,181439.000,4019.7543,N,07516.6903,W,2,10,0.82,4552.4,M,-33.9,M,0000,0000*66
$GPRMC,181439.000,A,4019.7543,N,07516.6903,W,30.48,159.56,100612,,,D*4A
$PMTK001,314,3*36
$PMTK001,220,3*30
$PMTK001,185,3*3C
$GPGGA,181440.000,4019.7468,N,07516.6861,$GPGGA,181439.000,4019.7543,N,07516.6903,W,2,10,0.82,4552.4,M,-33.9,M,0000,0000*66
$GPRMC,181439.000,A,4019.7543,N,07516.6903,W,30.48,159.56,100612,,,D*4A
$PMTK001,314,3*36
$PMTK001,220,3*30
$PMTK001,185,3*3C
$GPGGA,181440.000,4019.7468,N,07516.6861,$GPGGA,181439.000,4019.7543,N,07516.6903,W,2,10,0.82,4552.4,M,-33.9,M,0000,0000*66
$GPRMC,181439.000,A,4019.7543,N,07516.6903,W,30.48,159.56,100612,,,D*4A
$PMTK001,314,3*36
$PMTK001,220,3*30
$PMTK001,185,3*3C
$GPGGA,181440.000,4019.7468,N,07516.6861,$GPGGA,181439.000,4019.7543,N,07516.6903,W,2,10,0.82,4552.4,M,-33.9,M,0000,0000*66
$GPRMC,181439.000,A,4019.7543,N,07516.6903,W,30.48,159.56,100612,,,D*4A
$PMTK001,314,3*36
$PMTK001,220,3*30
$PMTK001,185,3*3C
$GPGGA,181440.000,4019.7468,N,07516.6861,$GPGGA,181439.000,4019.7543,N,07516.6903,W,2,10,0.82,4552.4,M,-33.9,M,0000,0000*66
$GPRMC,181439.000,A,4019.7543,N,07516.6903,W,30.48,159.56,100612,,,D*4A
$PMTK001,314,3*36
$PMTK001,220,3*30
$PMTK001,185,3*3C
$GPGGA,181440.000,4019.7468,N,07516.6861,$GPGGA,181439.000,4019.7543,N,07516.6903,W,2,10,0.82,4552.4,M,-33.9,M,0000,0000*66
$GPRMC,181439.000,A,4019.7543,N,07516.6903,W,30.48,159.56,100612,,,D*4A
$PMTK001,314,3*36
$PMTK001,220,3*30
$PMTK001,185,3*3C
$GPGGA,181440.000,4019.7468,N,07516.6861,$GPGGA,181439.000,4019.7543,N,07516.6903,W,2,10,0.82,4552.4,M,-33.9,M,0000,0000*66
$GPRMC,181439.000,A,4019.7543,N,07516.6903,W,30.48,159.56,100612,,,D*4A
$PMTK001,314,3*36
$PMTK001,220,3*30
$PMTK001,185,3*3C
$GPGGA,181440.000,4019.7468,N,07516.6861,$GPGGA,181439.000,4019.7543,N,07516.6903,W,2,10,0.82,4552.4,M,-33.9,M,0000,0000*66
$GPRMC,181439.000,A,4019.7543,N,07516.6903,W,30.48,159.56,100612,,,D*4A
$PMTK001,314,3*36
$PMTK001,220,3*30
$PMTK001,185,3*3C
$GPGGA,181440.000,4019.7468,N,07516.6861,$GPGGA,181439.000,4019.7543,N,07516.6903,W,2,10,0.82,4552.4,M,-33.9,M,0000,0000*66
$GPRMC,181439.000,A,4019.7543,N,07516.6903,W,30.48,159.56,100612,,,D*4A
$PMTK001,314,3*36
$PMTK001,220,3*30
$PMTK001,185,3*3C
$GPGGA,181440.000,4019.7468,N,07516.6861,$GPGGA,181439.000,4019.7543,N,07516.6903,W,2,10,0.82,4552.4,M,-33.9,M,0000,0000*66
$GPRMC,181439.000,A,4019.7543,N,07516.6903,W,30.48,159.56,100612,,,D*4A
$PMTK001,314,3*36
$PMTK001,220,3*30
$PMTK001,185,3*3C
$GPGGA,181440.000,4019.7468,N,07516.6861,$GPGGA,181439.000,4019.7543,N,07516.6903,W,2,10,0.82,4552.4,M,-33.9,M,0000,0000*66
$GPRMC,181439.000,A,4019.7543,N,07516.6903,W,30.48,159.56,100612,,,D*4A
$PMTK001,314,3*36
$PMTK001,220,3*30
$PMTK001,185,3*3C
$GPGGA,181440.000,4019.7468,N,07516.6861,$GPGGA,181439.000,4019.7543,N,07516.6903,W,2,10,0.82,4552.4,M,-33.9,M,0000,0000*66
$GPRMC,181439.000,A,4019.7543,N,07516.6903,W,30.48,159.56,100612,,,D*4A
$PMTK001,314,3*36
$PMTK001,220,3*30
$PMTK001,185,3*3C
$GPGGA,181440.000,4019.7468,N,07516.6861,$GPGGA,181439.000,4019.7543,N,07516.6903,W,2,10,0.82,4552.4,M,-33.9,M,0000,0000*66
$GPRMC,181439.000,A,4019.7543,N,07516.6903,W,30.48,159.56,100612,,,D*4A
$PMTK001,314,3*36
$PMTK001,220,3*30
$PMTK001,185,3*3C
$GPGGA,181440.000,4019.7468,N,07516.6861,$GPGGA,181439.000,4019.7543,N,07516.6903,W,2,10,0.82,4552.4,M,-33.9,M,0000,0000*66
$GPRMC,181439.000,A,4019.7543,N,07516.6903,W,30.48,159.56,100612,,,D*4A
$PMTK001,314,3*36
$PMTK001,220,3*30
$PMTK001,185,3*3C
$GPGGA,181440.000,4019.7468,N,07516.6861,$GPGGA,181439.000,4019.7543,N,07516.6903,W,2,10,0.82,4552.4,M,-33.9,M,0000,0000*66
$GPRMC,181439.000,A,4019.7543,N,07516.6903,W,30.48,159.56,100612,,,D*4A
$PMTK001,314,3*36
$PMTK001,220,3*30
$PMTK001,185,3*3C
$GPGGA,181440.000,4019.7468,N,07516.6861,$GPGGA,181439.000,4019.7543,N,07516.6903,W,2,10,0.82,4552.4,M,-33.9,M,0000,0000*66
$GPRMC,181439.000,A,4019.7543,N,07516.6903,W,30.48,159.56,100612,,,D*4A
$PMTK001,314,3*36
$PMTK001,220,3*30
$PMTK001,185,3*3C
$GPGGA,181440.000,4019.7468,N,07516.6861,$GPGGA,181439.000,4019.7543,N,07516.6903,W,2,10,0.82,4552.4,M,-33.9,M,0000,0000*66
$GPRMC,181439.000,A,4019.7543,N,07516.6903,W,30.48,159.56,100612,,,D*4A
$PMTK001,314,3*36
$PMTK001,220,3*30
$PMTK001,185,3*3C
$GPGGA,181440.000,4019.7468,N,07516.6861,$GPGGA,181439.000,4019.7543,N,07516.6903,W,2,10,0.82,4552.4,M,-33.9,M,0000,0000*66
$GPRMC,181439.000,A,4019.7543,N,07516.6903,W,30.48,159.56,100612,,,D*4A
$PMTK001,314,3*36
$PMTK001,220,3*30
$PMTK001,185,3*3C
$GPGGA,181440.000,4019.7468,N,07516.6861,$GPGGA,181439.000,4019.7543,N,07516.6903,W,2,10,0.82,4552.4,M,-33.9,M,0000,0000*66
$GPRMC,181439.000,A,4019.7543,N,07516.6903,W,30.48,159.56,100612,,,D*4A
$PMTK001,314,3*36
$PMTK001,220,3*30
$PMTK001,185,3*3C
$GPGGA,181440.000,4019.7468,N,07516.6861,$GPGGA,181439.000,4019.7543,N,07516.6903,W,2,10,0.82,4552.4,M,-33.9,M,0000,0000*66
$GPRMC,181439.000,A,4019.7543,N,07516.6903,W,30.48,159.56,100612,,,D*4A
$PMTK001,314,3*36
$PMTK001,220,3*30
$PMTK001,185,3*3C
$GPGGA,181440.000,4019.7468,N,07516.6861,$GPGGA,181439.000,4019.7543,N,07516.6903,W,2,10,0.82,4552.4,M,-33.9,M,0000,0000*66
$GPRMC,181439.000,A,4019.7543,N,07516.6903,W,30.48,159.56,100612,,,D*4A
$PMTK001,314,3*36
$PMTK001,220,3*30
$PMTK001,185,3*3C
$GPGGA,181440.000,4019.7468,N,07516.6861,$GPGGA,181439.000,4019.7543,N,07516.6903,W,2,10,0.82,4552.4,M,-33.9,M,0000,0000*66
$GPRMC,181439.000,A,4019.7543,N,07516.6903,W,30.48,159.56,100612,,,D*4A
$PMTK001,314,3*36
$PMTK001,220,3*30
$PMTK001,185,3*3C
$GPGGA,181440.000,4019.7468,N,07516.6861,$GPGGA,181439.000,4019.7543,N,07516.6903,W,2,10,0.82,4552.4,M,-33.9,M,0000,0000*66
$GPRMC,181439.000,A,4019.7543,N,07516.6903,W,30.48,159.56,100612,,,D*4A
$PMTK001,314,3*36
$PMTK001,220,3*30
$PMTK001,185,3*3C
$GPGGA,181440.000,4019.7468,N,07516.6861,$GPGGA,181439.000,4019.7543,N,07516.6903,W,2,10,0.82,4552.4,M,-33.9,M,0000,0000*66
$GPRMC,181439.000,A,4019.7543,N,07516.6903,W,30.48,159.56,100612,,,D*4A
$PMTK001,314,3*36
$PMTK001,220,3*30
$PMTK001,185,3*3C
$GPGGA,181440.000,4019.7468,N,07516.6861,$GPGGA,181439.000,4019.7543,N,07516.6903,W,2,10,0.82,4552.4,M,-33.9,M,0000,0000*66
$GPRMC,181439.000,A,4019.7543,N,07516.6903,W,30.48,159.56,100612,,,D*4A
$PMTK001,314,3*36
$PMTK001,220,3*30
$PMTK001,185,3*3C
$GPGGA,181440.000,4019.7468,N,07516.6861,$GPGGA,181439.000,4019.7543,N,07516.6903,W,2,10,0.82,4552.4,M,-33.9,M,0000,0000*66
$GPRMC,181439.000,A,4019.7543,N,07516.6903,W,30.48,159.56,100612,,,D*4A
$PMTK001,314,3*36
$PMTK001,220,3*30
$PMTK001,185,3*3C
$GPGGA,181440.000,4019.7468,N,07516.6861,$GPGGA,181439.000,4019.7543,N,07516.6903,W,2,10,0.82,4552.4,M,-33.9,M,0000,0000*66
$GPRMC,181439.000,A,4019.7543,N,07516.6903,W,30.48,159.56,100612,,,D*4A
$PMTK001,314,3*36
$PMTK001,220,3*30
$PMTK001,185,3*3C
$GPGGA,181440.000,4019.7468,N,07516.6861,$GPGGA,181439.000,4019.7543,N,07516.6903,W,2,10,0.82,4552.4,M,-33.9,M,0000,0000*66
$GPRMC,181439.000,A,4019.7543,N,07516.6903,W,30.48,159.56,100612,,,D*4A
$PMTK001,314,3*36
$PMTK001,220,3*30
$PMTK001,185,3*3C
$GPGGA,181440.000,4019.7468,N,07516.6861,$GPGGA,181439.000,4019.7543,N,07516.6903,W,2,10,0.82,4552.4,M,-33.9,M,0000,0000*66
$GPRMC,181439.000,A,4019.7543,N,07516.6903,W,30.48,159.56,100612,,,D*4A
$PMTK001,314,3*36
$PMTK001,220,3*30
$PMTK001,185,3*3C
$GPGGA,181440.000,4019.7468,N,07516.6861,$GPGGA,181439.000,4019.7543,N,07516.6903,W,2,10,0.82,4552.4,M,-33.9,M,0000,0000*66
$GPRMC,181439.000,A,4019.7543,N,07516.6903,W,30.48,159.56,100612,,,D*4A
$PMTK001,314,3*36
$PMTK001,220,3*30
$PMTK001,185,3*3C
$GPGGA,181440.000,4019.7468,N,07516.6861,$GPGGA,181439.000,4019.7543,N,07516.6903,W,2,10,0.82,4552.4,M,-33.9,M,0000,0000*66
$GPRMC,181439.000,A,4019.7543,N,07516.6903,W,30.48,159.56,100612,,,D*4A
$PMTK001,314,3*36
$PMTK001,220,3*30
$PMTK001,185,3*3C
$GPGGA,181440.000,4019.7468,N,07516.6861,$GPGGA,181439.000,4019.7543,N,07516.6903,W,2,10,0.82,4552.4,M,-33.9,M,0000,0000*66
$GPRMC,181439.000,A,4019.7543,N,07516.6903,W,30.48,159.56,100612,,,D*4A
$PMTK001,314,3*36
$PMTK001,220,3*30
$PMTK001,185,3*3C
$GPGGA,181440.000,4019.7468,N,07516.6861,$GPGGA,181439.000,4019.7543,N,07516.6903,W,2,10,0.82,4552.4,M,-33.9,M,0000,0000*66
$GPRMC,181439.000,A,4019.7543,N,07516.6903,W,30.48,159.56,100612,,,D*4A
$PMTK001,314,3*36
$PMTK001,220,3*30
$PMTK001,185,3*3C
$GPGGA,181440.000,4019.7468,N,07516.6861,