$PMTK001,314,3*36
$PMTK001,220,3*30
$PMTK001,185,3*3C
$GPGGA,181240.000,4020.5378,N,07517.0135,W,2,10,0.82,4246.5,M,-33.9,M,0000,0000*61
$GPRMC,181240.000,A,4020.5378,N,07517.0135,W,25.51,169.86,100612,,,D*4C
$GPGGA,181241.000,4020.5305,N,07517.0118,$PMTK001,314,3*36
$PMTK001,220,3*30
$PMTK001,185,3*3C
$GPGGA,181240.000,4020.5378,N,07517.0135,W,2,10,0.82,4246.5,M,-33.9,M,0000,0000*61
$GPRMC,181240.000,A,4020.5378,N,07517.0135,W,25.51,169.86,100612,,,D*4C
$GPGGA,181241.000,4020.5305,N,07517.0118,$PMTK001,314,3*36
$PMTK001,220,3*30
$PMTK001,185,3*3C
$GPGGA,181240.000,4020.5378,N,07517.0135,W,2,10,0.82,4246.5,M,-33.9,M,0000,0000*61
$GPRMC,181240.000,A,4020.5378,N,07517.0135,W,25.51,169.86,100612,,,D*4C
$GPGGA,181241.000,4020.5305,N,07517.0118,$PMTK001,314,3*36
$PMTK001,220,3*30
$PMTK001,185,3*3C
$GPGGA,181240.000,4020.5378,N,07517.0135,W,2,10,0.82,4246.5,M,-33.9,M,0000,0000*61
$GPRMC,181240.000,A,4020.5378,N,07517.0135,W,25.51,169.86,100612,,,D*4C
$GPGGA,181241.000,4020.5305,N,07517.0118,$PMTK001,314,3*36
$PMTK001,220,3*30
$PMTK001,185,3*3C
$GPGGA,181240.000,4020.5378,N,07517.0135,W,2,10,0.82,4246.5,M,-33.9,M,0000,0000*61
$GPRMC,181240.000,A,4020.5378,N,07517.0135,W,25.51,169.86,100612,,,D*4C
$GPGGA,181241.000,4020.5305,N,07517.0118,$PMTK001,314,3*36
$PMTK001,220,3*30
$PMTK001,185,3*3C
$GPGGA,181240.000,4020.5378,N,07517.0135,W,2,10,0.82,4246.5,M,-33.9,M,0000,0000*61
$GPRMC,181240.000,A,4020.5378,N,07517.0135,W,25.51,169.86,100612,,,D*4C
$GPGGA,181241.000,4020.5305,N,07517.0118,$PMTK001,314,3*36
$PMTK001,220,3*30
$PMTK001,185,3*3C
$GPGGA,181240.000,4020.5378,N,07517.0135,W,2,10,0.82,4246.5,M,-33.9,M,0000,0000*61
$GPRMC,181240.000,A,4020.5378,N,07517.0135,W,25.51,169.86,100612,,,D*4C
$GPGGA,181241.000,4020.5305,N,07517.0118,$PMTK001,314,3*36
$PMTK001,220,3*30
$PMTK001,185,3*3C
$GPGGA,181240.000,4020.5378,N,07517.0135,W,2,10,0.82,4246.5,M,-33.9,M,0000,0000*61
$GPRMC,181240.000,A,4020.5378,N,07517.0135,W,25.51,169.86,100612,,,D*4C
$GPGGA,181241.000,4020.5305,N,07517.0118,$PMTK001,314,3*36
$PMTK001,220,3*30
$PMTK001,185,3*3C
$GPGGA,181240.000,4020.5378,N,07517.0135,W,2,10,0.82,4246.5,M,-33.9,M,0000,0000*61
$GPRMC,181240.000,A,4020.5378,N,07517.0135,W,25.51,169.86,100612,,,D*4C
$GPGGA,181241.000,4020.5305,N,07517.0118,$PMTK001,314,3*36
$PMTK001,220,3*30
$PMTK001,185,3*3C
$GPGGA,181240.000,4020.5378,N,07517.0135,W,2,10,0.82,4246.5,M,-33.9,M,0000,0000*61
$GPRMC,181240.000,A,4020.5378,N,07517.0135,W,25.51,169.86,100612,,,D*4C
$GPGGA,181241.000,4020.5305,N,07517.0118,$PMTK001,314,3*36
$PMTK001,220,3*30
$PMTK001,185,3*3C
$GPGGA,181240.000,4020.5378,N,07517.0135,W,2,10,0.82,4246.5,M,-33.9,M,0000,0000*61
$GPRMC,181240.000,A,4020.5378,N,07517.0135,W,25.51,169.86,100612,,,D*4C
$GPGGA,181241.000,4020.5305,N,07517.0118,$PMTK001,314,3*36
$PMTK001,220,3*30
$PMTK001,185,3*3C
$GPGGA,181240.000,4020.5378,N,07517.0135,W,2,10,0.82,4246.5,M,-33.9,M,0000,0000*61
$GPRMC,181240.000,A,4020.5378,N,07517.0135,W,25.51,169.86,100612,,,D*4C
$GPGGA,181241.000,4020.5305,N,07517.0118,$PMTK001,314,3*36
$PMTK001,220,3*30
$PMTK001,185,3*3C
$GPGGA,181240.000,4020.5378,N,07517.0135,W,2,10,0.82,4246.5,M,-33.9,M,0000,0000*61
$GPRMC,181240.000,A,4020.5378,N,07517.0135,W,25.51,169.86,100612,,,D*4C
$GPGGA,181241.000,4020.5305,N,07517.0118,$PMTK001,314,3*36
$PMTK001,220,3*30
$PMTK001,185,3*3C
$GPGGA,181240.000,4020.5378,N,07517.0135,W,2,10,0.82,4246.5,M,-33.9,M,0000,0000*61
$GPRMC,181240.000,A,4020.5378,N,07517.0135,W,25.51,169.86,100612,,,D*4C
$GPGGA,181241.000,4020.5305,N,07517.0118,$PMTK001,314,3*36
$PMTK001,220,3*30
$PMTK001,185,3*3C
$GPGGA,181240.000,4020.5378,N,07517.0135,W,2,10,0.82,4246.5,M,-33.9,M,0000,0000*61
$GPRMC,181240.000,A,4020.5378,N,07517.0135,W,25.51,169.86,100612,,,D*4C
$GPGGA,181241.000,4020.5305,N,07517.0118,$PMTK001,314,3*36
$PMTK001,220,3*30
$PMTK001,185,3*3C
$GPGGA,181240.000,4020.5378,N,07517.0135,W,2,10,0.82,4246.5,M,-33.9,M,0000,0000*61
$GPRMC,181240.000,A,4020.5378,N,07517.0135,W,25.51,169.86,100612,,,D*4C
$GPGGA,181241.000,4020.5305,N,07517.0118,$PMTK001,314,3*36
$PMTK001,220,3*30
$PMTK001,185,3*3C
$GPGGA,181240.000,4020.5378,N,07517.0135,W,2,10,0.82,4246.5,M,-33.9,M,0000,0000*61
$GPRMC,181240.000,A,4020.5378,N,07517.0135,W,25.51,169.86,100612,,,D*4C
$GPGGA,181241.000,4020.5305,N,07517.0118,$PMTK001,314,3*36
$PMTK001,220,3*30
$PMTK001,185,3*3C
$GPGGA,181240.000,4020.5378,N,07517.0135,W,2,10,0.82,4246.5,M,-33.9,M,0000,0000*61
$GPRMC,181240.000,A,4020.5378,N,07517.0135,W,25.51,169.86,100612,,,D*4C
$GPGGA,181241.000,4020.5305,N,07517.0118,$PMTK001,314,3*36
$PMTK001,220,3*30
$PMTK001,185,3*3C
$GPGGA,181240.000,4020.5378,N,07517.0135,W,2,10,0.82,4246.5,M,-33.9,M,0000,0000*61
$GPRMC,181240.000,A,4020.5378,N,07517.0135,W,25.51,169.86,100612,,,D*4C
$GPGGA,181241.000,4020.5305,N,07517.0118,$PMTK001,314,3*36
$PMTK001,220,3*30
$PMTK001,185,3*3C
$GPGGA,181240.000,4020.5378,N,07517.0135,W,2,10,0.82,4246.5,M,-33.9,M,0000,0000*61
$GPRMC,181240.000,A,4020.5378,N,07517.0135,W,25.51,169.86,100612,,,D*4C
$GPGGA,181241.000,4020.5305,N,07517.0118,$PMTK001,314,3*36
$PMTK001,220,3*30
$PMTK001,185,3*3C
$GPGGA,181240.000,4020.5378,N,07517.0135,W,2,10,0.82,4246.5,M,-33.9,M,0000,0000*61
$GPRMC,181240.000,A,4020.5378,N,07517.0135,W,25.51,169.86,100612,,,D*4C
$GPGGA,181241.000,4020.5305,N,07517.0118,$PMTK001,314,3*36
$PMTK001,220,3*30
$PMTK001,185,3*3C
$GPGGA,181240.000,4020.5378,N,07517.0135,W,2,10,0.82,4246.5,M,-33.9,M,0000,0000*61
$GPRMC,181240.000,A,4020.5378,N,07517.0135,W,25.51,169.86,100612,,,D*4C
$GPGGA,181241.000,4020.5305,N,07517.0118,$PMTK001,314,3*36
$PMTK001,220,3*30
$PMTK001,185,3*3C
$GPGGA,181240.000,4020.5378,N,07517.0135,W,2,10,0.82,4246.5,M,-33.9,M,0000,0000*61
$GPRMC,181240.000,A,4020.5378,N,07517.0135,W,25.51,169.86,100612,,,D*4C
$GPGGA,181241.000,4020.5305,N,07517.0118,$PMTK001,314,3*36
$PMTK001,220,3*30
$PMTK001,185,3*3C
$GPGGA,181240.000,4020.5378,N,07517.0135,W,2,10,0.82,4246.5,M,-33.9,M,0000,0000*61
$GPRMC,181240.000,A,4020.5378,N,07517.0135,W,25.51,169.86,100612,,,D*4C
$GPGGA,181241.000,4020.5305,N,07517.0118,$PMTK001,314,3*36
$PMTK001,220,3*30
$PMTK001,185,3*3C
$GPGGA,181240.000,4020.5378,N,07517.0135,W,2,10,0.82,4246.5,M,-33.9,M,0000,0000*61
$GPRMC,181240.000,A,4020.5378,N,07517.0135,W,25.51,169.86,100612,,,D*4C
$GPGGA,181241.000,4020.5305,N,07517.0118,$PMTK001,314,3*36
$PMTK001,220,3*30
$PMTK001,185,3*3C
$GPGGA,181240.000,4020.5378,N,07517.0135,W,2,10,0.82,4246.5,M,-33.9,M,0000,0000*61
$GPRMC,181240.000,A,4020.5378,N,07517.0135,W,25.51,169.86,100612,,,D*4C
$GPGGA,181241.000,4020.5305,N,07517.0118,$PMTK001,314,3*36
$PMTK001,220,3*30
$PMTK001,185,3*3C
$GPGGA,181240.000,4020.5378,N,07517.0135,W,2,10,0.82,4246.5,M,-33.9,M,0000,0000*61
$GPRMC,181240.000,A,4020.5378,N,07517.0135,W,25.51,169.86,100612,,,D*4C
$GPGGA,181241.000,4020.5305,N,07517.0118,$PMTK001,314,3*36
$PMTK001,220,3*30
$PMTK001,185,3*3C
$GPGGA,181240.000,4020.5378,N,07517.0135,W,2,10,0.82,4246.5,M,-33.9,M,0000,0000*61
$GPRMC,181240.000,A,4020.5378,N,07517.0135,W,25.51,169.86,100612,,,D*4C
$GPGGA,181241.000,4020.5305,N,07517.0118,$PMTK001,314,3*36
$PMTK001,220,3*30
$PMTK001,185,3*3C
$GPGGA,181240.000,4020.5378,N,07517.0135,W,2,10,0.82,4246.5,M,-33.9,M,0000,0000*61
$GPRMC,181240.000,A,4020.5378,N,07517.0135,W,25.51,169.86,100612,,,D*4C
$GPGGA,181241.000,4020.5305,N,07517.0118,$PMTK001,314,3*36
$PMTK001,220,3*30
$PMTK001,185,3*3C
$GPGGA,181240.000,4020.5378,N,07517.0135,W,2,10,0.82,4246.5,M,-33.9,M,0000,0000*61
$GPRMC,181240.000,A,4020.5378,N,07517.0135,W,25.51,169.86,100612,,,D*4C
$GPGGA,181241.000,4020.5305,N,07517.0118,$PMTK001,314,3*36
$PMTK001,220,3*30
$PMTK001,185,3*3C
$GPGGA,181240.000,4020.5378,N,07517.0135,W,2,10,0.82,4246.5,M,-33.9,M,0000,0000*61
$GPRMC,181240.000,A,4020.5378,N,07517.0135,W,25.51,169.86,100612,,,D*4C
$GPGGA,181241.000,4020.5305,N,07517.0118,$PMTK001,314,3*36
$PMTK001,220,3*30
$PMTK001,185,3*3C
$GPGGA,181240.000,4020.5378,N,07517.0135,W,2,10,0.82,4246.5,M,-33.9,M,0000,0000*61
$GPRMC,181240.000,A,4020.5378,N,07517.0135,W,25.51,169.86,100612,,,D*4C
$GPGGA,181241.000,4020.5305,N,07517.0118,$PMTK001,314,3*36
$PMTK001,220,3*30
$PMTK001,185,3*3C
$GPGGA,181240.000,4020.5378,N,07517.0135,W,2,10,0.82,4246.5,M,-33.9,M,0000,0000*61
$GPRMC,181240.000,A,4020.5378,N,07517.0135,W,25.51,169.86,100612,,,D*4C
$GPGGA,181241.000,4020.5305,N,07517.0118,$PMTK001,314,3*36
$PMTK001,220,3*30
$PMTK001,185,3*3C
$GPGGA,181240.000,4020.5378,N,07517.0135,W,2,10,0.82,4246.5,M,-33.9,M,0000,0000*61
$GPRMC,181240.000,A,4020.5378,N,07517.0135,W,25.51,169.86,100612,,,D*4C
$GPGGA,181241.000,4020.5305,N,07517.0118,$PMTK001,314,3*36
$PMTK001,220,3*30
$PMTK001,185,3*3C
$GPGGA,181240.000,4020.5378,N,07517.0135,W,2,10,0.82,4246.5,M,-33.9,M,0000,0000*61
$GPRMC,181240.000,A,4020.5378,N,07517.0135,W,25.51,169.86,100612,,,D*4C
$GPGGA,181241.000,4020.5305,N,07517.0118,$PMTK001,314,3*36
$PMTK001,220,3*30
$PMTK001,185,3*3C
$GPGGA,181240.000,4020.5378,N,07517.0135,W,2,10,0.82,4246.5,M,-33.9,M,0000,0000*61
$GPRMC,181240.000,A,4020.5378,N,07517.0135,W,25.51,169.86,100612,,,D*4C
$GPGGA,181241.000,4020.5305,N,07517.0118,$PMTK001,314,3*36
$PMTK001,220,3*30
$PMTK001,185,3*3C
$GPGGA,181240.000,4020.5378,N,07517.0135,W,2,10,0.82,4246.5,M,-33.9,M,0000,0000*61
$GPRMC,181240.000,A,4020.5378,N,07517.0135,W,25.51,169.86,100612,,,D*4C
$GPGGA,181241.000,4020.5305,N,07517.0118,$PMTK001,314,3*36
$PMTK001,220,3*30
$PMTK001,185,3*3C
$GPGGA,181240.000,4020.5378,N,07517.0135,W,2,10,0.82,4246.5,M,-33.9,M,0000,0000*61
$GPRMC,181240.000,A,4020.5378,N,07517.0135,W,25.51,169.86,100612,,,D*4C
$GPGGA,181241.000,4020.5305,N,07517.0118,$PMTK001,314,3*36
$PMTK001,220,3*30
$PMTK001,185,3*3C
$GPGGA,181240.000,4020.5378,N,07517.0135,W,2,10,0.82,4246.5,M,-33.9,M,0000,0000*61
$GPRMC,181240.000,A,4020.5378,N,07517.0135,W,25.51,169.86,100612,,,D*4C
$GPGGA,181241.000,4020.5305,N,07517.0118,$PMTK001,314,3*36
$PMTK001,220,3*30
$PMTK001,185,3*3C
$GPGGA,181240.000,4020.5378,N,07517.0135,W,2,10,0.82,4246.5,M,-33.9,M,0000,0000*61
$GPRMC,181240.000,A,4020.5378,N,07517.0135,W,25.51,169.86,100612,,,D*4C
$GPGGA,181241.000,4020.5305,N,07517.0118,$PMTK001,314,3*36
$PMTK001,220,3*30
$PMTK001,185,3*3C
$GPGGA,181240.000,4020.5378,N,07517.0135,W,2,10,0.82,4246.5,M,-33.9,M,0000,0000*61
$GPRMC,181240.000,A,4020.5378,N,07517.0135,W,25.51,169.86,100612,,,D*4C
$GPGGA,181241.000,4020.5305,N,07517.0118,$PMTK001,314,3*36
$PMTK001,220,3*30
$PMTK001,185,3*3C
$GPGGA,181240.000,4020.5378,N,07517.0135,W,2,10,0.82,4246.5,M,-33.9,M,0000,0000*61
$GPRMC,181240.000,A,4020.5378,N,07517.0135,W,25.51,169.86,100612,,,D*4C
$GPGGA,181241.000,4020.5305,N,07517.0118,$PMTK001,314,3*36
$PMTK001,220,3*30
$PMTK001,185,3*3C
$GPGGA,181240.000,4020.5378,N,07517.0135,W,2,10,0.82,4246.5,M,-33.9,M,0000,0000*61
$GPRMC,181240.000,A,4020.5378,N,07517.0135,W,25.51,169.86,100612,,,D*4C
$GPGGA,181241.000,4020.5305,N,07517.0118,$PMTK001,314,3*36
$PMTK001,220,3*30
$PMTK001,185,3*3C
$GPGGA,181240.000,4020.5378,N,07517.0135,W,2,10,0.82,4246.5,M,-33.9,M,0000,0000*61
$GPRMC,181240.000,A,4020.5378,N,07517.0135,W,25.51,169.86,100612,,,D*4C
$GPGGA,181241.000,4020.5305,N,07517.0118,$PMTK001,314,3*36
$PMTK001,220,3*30
$PMTK001,185,3*3C
$GPGGA,181240.000,4020.5378,N,07517.0135,W,2,10,0.82,4246.5,M,-33.9,M,0000,0000*61
$GPRMC,181240.000,A,4020.5378,N,07517.0135,W,25.51,169.86,100612,,,D*4C
$GPGGA,181241.000,4020.5305,N,07517.0118,$PMTK001,314,3*36
$PMTK001,220,3*30
$PMTK001,185,3*3C
$GPGGA,181240.000,4020.5378,N,07517.0135,W,2,10,0.82,4246.5,M,-33.9,M,0000,0000*61
$GPRMC,181240.000,A,4020.5378,N,07517.0135,W,25.51,169.86,100612,,,D*4C
$GPGGA,181241.000,4020.5305,N,07517.0118,$PMTK001,314,3*36
$PMTK001,220,3*30
$PMTK001,185,3*3C
$GPGGA,181240.000,4020.5378,N,07517.0135,W,2,10,0.82,4246.5,M,-33.9,M,0000,0000*61
$GPRMC,181240.000,A,4020.5378,N,07517.0135,W,25.51,169.86,100612,,,D*4C
$GPGGA,181241.000,4020.5305,N,07517.0118,$PMTK001,314,3*36
$PMTK001,220,3*30
$PMTK001,185,3*3C
$GPGGA,181240.000,4020.5378,N,07517.0135,W,2,10,0.82,4246.5,M,-33.9,M,0000,0000*61
$GPRMC,181240.000,A,4020.5378,N,07517.0135,W,25.51,169.86,100612,,,D*4C
$GPGGA,181241.000,4020.5305,N,07517.0118,$PMTK001,314,3*36
$PMTK001,220,3*30
$PMTK001,185,3*3C
$GPGGA,181240.000,4020.5378,N,07517.0135,W,2,10,0.82,4246.5,M,-33.9,M,0000,0000*61
$GPRMC,181240.000,A,4020.5378,N,07517.0135,W,25.51,169.86,100612,,,D*4C
$GPGGA,181241.000,4020.5305,N,07517.0118,$PMTK001,314,3*36
$PMTK001,220,3*30
$PMTK001,185,3*3C
$GPGGA,181240.000,4020.5378,N,07517.0135,W,2,10,0.82,4246.5,M,-33.9,M,0000,0000*61
$GPRMC,181240.000,A,4020.5378,N,07517.0135,W,25.51,169.86,100612,,,D*4C
$GPGGA,181241.000,4020.5305,N,07517.0118,$PMTK001,314,3*36
$PMTK001,220,3*30
$PMTK001,185,3*3C
$GPGGA,181240.000,4020.5378,N,07517.0135,W,2,10,0.82,4246.5,M,-33.9,M,0000,0000*61
$GPRMC,181240.000,A,4020.5378,N,07517.0135,W,25.51,169.86,100612,,,D*4C
$GPGGA,181241.000,4020.5305,N,07517.0118,$PMTK001,314,3*36
$PMTK001,220,3*30
$PMTK001,185,3*3C
$GPGGA,181240.000,4020.5378,N,07517.0135,W,2,10,0.82,4246.5,M,-33.9,M,0000,0000*61
$GPRMC,181240.000,A,4020.5378,N,07517.0135,W,25.51,169.86,100612,,,D*4C
$GPGGA,181241.000,4020.5305,N,07517.0118,$PMTK001,314,3*36
$PMTK001,220,3*30
$PMTK001,185,3*3C
$GPGGA,181240.000,4020.5378,N,07517.0135,W,2,10,0.82,4246.5,M,-33.9,M,0000,0000*61
$GPRMC,181240.000,A,4020.5378,N,07517.0135,W,25.51,169.86,100612,,,D*4C
$GPGGA,181241.000,4020.5305,N,07517.0118,$PMTK001,314,3*36
$PMTK001,220,3*30
$PMTK001,185,3*3C
$GPGGA,181240.000,4020.5378,N,07517.0135,W,2,10,0.82,4246.5,M,-33.9,M,0000,0000*61
$GPRMC,181240.000,A,4020.5378,N,07517.0135,W,25.51,169.86,100612,,,D*4C
$GPGGA,181241.000,4020.5305,N,07517.0118,$PMTK001,314,3*36
$PMTK001,220,3*30
$PMTK001,185,3*3C
$GPGGA,181240.000,4020.5378,N,07517.0135,W,2,10,0.82,4246.5,M,-33.9,M,0000,0000*61
$GPRMC,181240.000,A,4020.5378,N,07517.0135,W,25.51,169.86,100612,,,D*4C
$GPGGA,181241.000,4020.5305,N,07517.0118,$PMTK001,314,3*36
$PMTK001,220,3*30
$PMTK001,185,3*3C
$GPGGA,181240.000,4020.5378,N,07517.0135,W,2,10,0.82,4246.5,M,-33.9,M,0000,0000*61
$GPRMC,181240.000,A,4020.5378,N,07517.0135,W,25.51,169.86,100612,,,D*4C
$GPGGA,181241.000,4020.5305,N,07517.0118,$PMTK001,314,3*36
$PMTK001,220,3*30
$PMTK001,185,3*3C
$GPGGA,181240.000,4020.5378,N,07517.0135,W,2,10,0.82,4246.5,M,-33.9,M,0000,0000*61
$GPRMC,181240.000,A,4020.5378,N,07517.0135,W,25.51,169.86,100612,,,D*4C
$GPGGA,181241.000,4020.5305,N,07517.0118,