$PMTK001,314,3*36
$PMTK001,220,3*30
$PMTK001,185,3*3C
$GPGGA,182240.000,4016.5393,N,07514.3705,W,2,12,0.83,5580.0,M,-33.9,M,0000,0000*6D
$GPRMC,182240.000,A,4016.5393,N,07514.3705,W,20.30,144.37,100612,,,D*4D
$GPGGA,182241.000,4016.5349,N,07514.3661,$PMTK001,314,3*36
$PMTK001,220,3*30
$PMTK001,185,3*3C
$GPGGA,182240.000,4016.5393,N,07514.3705,W,2,12,0.83,5580.0,M,-33.9,M,0000,0000*6D
$GPRMC,182240.000,A,4016.5393,N,07514.3705,W,20.30,144.37,100612,,,D*4D
$GPGGA,182241.000,4016.5349,N,07514.3661,$PMTK001,314,3*36
$PMTK001,220,3*30
$PMTK001,185,3*3C
$GPGGA,182240.000,4016.5393,N,07514.3705,W,2,12,0.83,5580.0,M,-33.9,M,0000,0000*6D
$GPRMC,182240.000,A,4016.5393,N,07514.3705,W,20.30,144.37,100612,,,D*4D
$GPGGA,182241.000,4016.5349,N,07514.3661,$PMTK001,314,3*36
$PMTK001,220,3*30
$PMTK001,185,3*3C
$GPGGA,182240.000,4016.5393,N,07514.3705,W,2,12,0.83,5580.0,M,-33.9,M,0000,0000*6D
$GPRMC,182240.000,A,4016.5393,N,07514.3705,W,20.30,144.37,100612,,,D*4D
$GPGGA,182241.000,4016.5349,N,07514.3661,$PMTK001,314,3*36
$PMTK001,220,3*30
$PMTK001,185,3*3C
$GPGGA,182240.000,4016.5393,N,07514.3705,W,2,12,0.83,5580.0,M,-33.9,M,0000,0000*6D
$GPRMC,182240.000,A,4016.5393,N,07514.3705,W,20.30,144.37,100612,,,D*4D
$GPGGA,182241.000,4016.5349,N,07514.3661,$PMTK001,314,3*36
$PMTK001,220,3*30
$PMTK001,185,3*3C
$GPGGA,182240.000,4016.5393,N,07514.3705,W,2,12,0.83,5580.0,M,-33.9,M,0000,0000*6D
$GPRMC,182240.000,A,4016.5393,N,07514.3705,W,20.30,144.37,100612,,,D*4D
$GPGGA,182241.000,4016.5349,N,07514.3661,$PMTK001,314,3*36
$PMTK001,220,3*30
$PMTK001,185,3*3C
$GPGGA,182240.000,4016.5393,N,07514.3705,W,2,12,0.83,5580.0,M,-33.9,M,0000,0000*6D
$GPRMC,182240.000,A,4016.5393,N,07514.3705,W,20.30,144.37,100612,,,D*4D
$GPGGA,182241.000,4016.5349,N,07514.3661,$PMTK001,314,3*36
$PMTK001,220,3*30
$PMTK001,185,3*3C
$GPGGA,182240.000,4016.5393,N,07514.3705,W,2,12,0.83,5580.0,M,-33.9,M,0000,0000*6D
$GPRMC,182240.000,A,4016.5393,N,07514.3705,W,20.30,144.37,100612,,,D*4D
$GPGGA,182241.000,4016.5349,N,07514.3661,$PMTK001,314,3*36
$PMTK001,220,3*30
$PMTK001,185,3*3C
$GPGGA,182240.000,4016.5393,N,07514.3705,W,2,12,0.83,5580.0,M,-33.9,M,0000,0000*6D
$GPRMC,182240.000,A,4016.5393,N,07514.3705,W,20.30,144.37,100612,,,D*4D
$GPGGA,182241.000,4016.5349,N,07514.3661,$PMTK001,314,3*36
$PMTK001,220,3*30
$PMTK001,185,3*3C
$GPGGA,182240.000,4016.5393,N,07514.3705,W,2,12,0.83,5580.0,M,-33.9,M,0000,0000*6D
$GPRMC,182240.000,A,4016.5393,N,07514.3705,W,20.30,144.37,100612,,,D*4D
$GPGGA,182241.000,4016.5349,N,07514.3661,$PMTK001,314,3*36
$PMTK001,220,3*30
$PMTK001,185,3*3C
$GPGGA,182240.000,4016.5393,N,07514.3705,W,2,12,0.83,5580.0,M,-33.9,M,0000,0000*6D
$GPRMC,182240.000,A,4016.5393,N,07514.3705,W,20.30,144.37,100612,,,D*4D
$GPGGA,182241.000,4016.5349,N,07514.3661,$PMTK001,314,3*36
$PMTK001,220,3*30
$PMTK001,185,3*3C
$GPGGA,182240.000,4016.5393,N,07514.3705,W,2,12,0.83,5580.0,M,-33.9,M,0000,0000*6D
$GPRMC,182240.000,A,4016.5393,N,07514.3705,W,20.30,144.37,100612,,,D*4D
$GPGGA,182241.000,4016.5349,N,07514.3661,$PMTK001,314,3*36
$PMTK001,220,3*30
$PMTK001,185,3*3C
$GPGGA,182240.000,4016.5393,N,07514.3705,W,2,12,0.83,5580.0,M,-33.9,M,0000,0000*6D
$GPRMC,182240.000,A,4016.5393,N,07514.3705,W,20.30,144.37,100612,,,D*4D
$GPGGA,182241.000,4016.5349,N,07514.3661,$PMTK001,314,3*36
$PMTK001,220,3*30
$PMTK001,185,3*3C
$GPGGA,182240.000,4016.5393,N,07514.3705,W,2,12,0.83,5580.0,M,-33.9,M,0000,0000*6D
$GPRMC,182240.000,A,4016.5393,N,07514.3705,W,20.30,144.37,100612,,,D*4D
$GPGGA,182241.000,4016.5349,N,07514.3661,$PMTK001,314,3*36
$PMTK001,220,3*30
$PMTK001,185,3*3C
$GPGGA,182240.000,4016.5393,N,07514.3705,W,2,12,0.83,5580.0,M,-33.9,M,0000,0000*6D
$GPRMC,182240.000,A,4016.5393,N,07514.3705,W,20.30,144.37,100612,,,D*4D
$GPGGA,182241.000,4016.5349,N,07514.3661,$PMTK001,314,3*36
$PMTK001,220,3*30
$PMTK001,185,3*3C
$GPGGA,182240.000,4016.5393,N,07514.3705,W,2,12,0.83,5580.0,M,-33.9,M,0000,0000*6D
$GPRMC,182240.000,A,4016.5393,N,07514.3705,W,20.30,144.37,100612,,,D*4D
$GPGGA,182241.000,4016.5349,N,07514.3661,$PMTK001,314,3*36
$PMTK001,220,3*30
$PMTK001,185,3*3C
$GPGGA,182240.000,4016.5393,N,07514.3705,W,2,12,0.83,5580.0,M,-33.9,M,0000,0000*6D
$GPRMC,182240.000,A,4016.5393,N,07514.3705,W,20.30,144.37,100612,,,D*4D
$GPGGA,182241.000,4016.5349,N,07514.3661,$PMTK001,314,3*36
$PMTK001,220,3*30
$PMTK001,185,3*3C
$GPGGA,182240.000,4016.5393,N,07514.3705,W,2,12,0.83,5580.0,M,-33.9,M,0000,0000*6D
$GPRMC,182240.000,A,4016.5393,N,07514.3705,W,20.30,144.37,100612,,,D*4D
$GPGGA,182241.000,4016.5349,N,07514.3661,$PMTK001,314,3*36
$PMTK001,220,3*30
$PMTK001,185,3*3C
$GPGGA,182240.000,4016.5393,N,07514.3705,W,2,12,0.83,5580.0,M,-33.9,M,0000,0000*6D
$GPRMC,182240.000,A,4016.5393,N,07514.3705,W,20.30,144.37,100612,,,D*4D
$GPGGA,182241.000,4016.5349,N,07514.3661,$PMTK001,314,3*36
$PMTK001,220,3*30
$PMTK001,185,3*3C
$GPGGA,182240.000,4016.5393,N,07514.3705,W,2,12,0.83,5580.0,M,-33.9,M,0000,0000*6D
$GPRMC,182240.000,A,4016.5393,N,07514.3705,W,20.30,144.37,100612,,,D*4D
$GPGGA,182241.000,4016.5349,N,07514.3661,$PMTK001,314,3*36
$PMTK001,220,3*30
$PMTK001,185,3*3C
$GPGGA,182240.000,4016.5393,N,07514.3705,W,2,12,0.83,5580.0,M,-33.9,M,0000,0000*6D
$GPRMC,182240.000,A,4016.5393,N,07514.3705,W,20.30,144.37,100612,,,D*4D
$GPGGA,182241.000,4016.5349,N,07514.3661,$PMTK001,314,3*36
$PMTK001,220,3*30
$PMTK001,185,3*3C
$GPGGA,182240.000,4016.5393,N,07514.3705,W,2,12,0.83,5580.0,M,-33.9,M,0000,0000*6D
$GPRMC,182240.000,A,4016.5393,N,07514.3705,W,20.30,144.37,100612,,,D*4D
$GPGGA,182241.000,4016.5349,N,07514.3661,$PMTK001,314,3*36
$PMTK001,220,3*30
$PMTK001,185,3*3C
$GPGGA,182240.000,4016.5393,N,07514.3705,W,2,12,0.83,5580.0,M,-33.9,M,0000,0000*6D
$GPRMC,182240.000,A,4016.5393,N,07514.3705,W,20.30,144.37,100612,,,D*4D
$GPGGA,182241.000,4016.5349,N,07514.3661,$PMTK001,314,3*36
$PMTK001,220,3*30
$PMTK001,185,3*3C
$GPGGA,182240.000,4016.5393,N,07514.3705,W,2,12,0.83,5580.0,M,-33.9,M,0000,0000*6D
$GPRMC,182240.000,A,4016.5393,N,07514.3705,W,20.30,144.37,100612,,,D*4D
$GPGGA,182241.000,4016.5349,N,07514.3661,$PMTK001,314,3*36
$PMTK001,220,3*30
$PMTK001,185,3*3C
$GPGGA,182240.000,4016.5393,N,07514.3705,W,2,12,0.83,5580.0,M,-33.9,M,0000,0000*6D
$GPRMC,182240.000,A,4016.5393,N,07514.3705,W,20.30,144.37,100612,,,D*4D
$GPGGA,182241.000,4016.5349,N,07514.3661,$PMTK001,314,3*36
$PMTK001,220,3*30
$PMTK001,185,3*3C
$GPGGA,182240.000,4016.5393,N,07514.3705,W,2,12,0.83,5580.0,M,-33.9,M,0000,0000*6D
$GPRMC,182240.000,A,4016.5393,N,07514.3705,W,20.30,144.37,100612,,,D*4D
$GPGGA,182241.000,4016.5349,N,07514.3661,$PMTK001,314,3*36
$PMTK001,220,3*30
$PMTK001,185,3*3C
$GPGGA,182240.000,4016.5393,N,07514.3705,W,2,12,0.83,5580.0,M,-33.9,M,0000,0000*6D
$GPRMC,182240.000,A,4016.5393,N,07514.3705,W,20.30,144.37,100612,,,D*4D
$GPGGA,182241.000,4016.5349,N,07514.3661,$PMTK001,314,3*36
$PMTK001,220,3*30
$PMTK001,185,3*3C
$GPGGA,182240.000,4016.5393,N,07514.3705,W,2,12,0.83,5580.0,M,-33.9,M,0000,0000*6D
$GPRMC,182240.000,A,4016.5393,N,07514.3705,W,20.30,144.37,100612,,,D*4D
$GPGGA,182241.000,4016.5349,N,07514.3661,$PMTK001,314,3*36
$PMTK001,220,3*30
$PMTK001,185,3*3C
$GPGGA,182240.000,4016.5393,N,07514.3705,W,2,12,0.83,5580.0,M,-33.9,M,0000,0000*6D
$GPRMC,182240.000,A,4016.5393,N,07514.3705,W,20.30,144.37,100612,,,D*4D
$GPGGA,182241.000,4016.5349,N,07514.3661,$PMTK001,314,3*36
$PMTK001,220,3*30
$PMTK001,185,3*3C
$GPGGA,182240.000,4016.5393,N,07514.3705,W,2,12,0.83,5580.0,M,-33.9,M,0000,0000*6D
$GPRMC,182240.000,A,4016.5393,N,07514.3705,W,20.30,144.37,100612,,,D*4D
$GPGGA,182241.000,4016.5349,N,07514.3661,$PMTK001,314,3*36
$PMTK001,220,3*30
$PMTK001,185,3*3C
$GPGGA,182240.000,4016.5393,N,07514.3705,W,2,12,0.83,5580.0,M,-33.9,M,0000,0000*6D
$GPRMC,182240.000,A,4016.5393,N,07514.3705,W,20.30,144.37,100612,,,D*4D
$GPGGA,182241.000,4016.5349,N,07514.3661,$PMTK001,314,3*36
$PMTK001,220,3*30
$PMTK001,185,3*3C
$GPGGA,182240.000,4016.5393,N,07514.3705,W,2,12,0.83,5580.0,M,-33.9,M,0000,0000*6D
$GPRMC,182240.000,A,4016.5393,N,07514.3705,W,20.30,144.37,100612,,,D*4D
$GPGGA,182241.000,4016.5349,N,07514.3661,$PMTK001,314,3*36
$PMTK001,220,3*30
$PMTK001,185,3*3C
$GPGGA,182240.000,4016.5393,N,07514.3705,W,2,12,0.83,5580.0,M,-33.9,M,0000,0000*6D
$GPRMC,182240.000,A,4016.5393,N,07514.3705,W,20.30,144.37,100612,,,D*4D
$GPGGA,182241.000,4016.5349,N,07514.3661,$PMTK001,314,3*36
$PMTK001,220,3*30
$PMTK001,185,3*3C
$GPGGA,182240.000,4016.5393,N,07514.3705,W,2,12,0.83,5580.0,M,-33.9,M,0000,0000*6D
$GPRMC,182240.000,A,4016.5393,N,07514.3705,W,20.30,144.37,100612,,,D*4D
$GPGGA,182241.000,4016.5349,N,07514.3661,$PMTK001,314,3*36
$PMTK001,220,3*30
$PMTK001,185,3*3C
$GPGGA,182240.000,4016.5393,N,07514.3705,W,2,12,0.83,5580.0,M,-33.9,M,0000,0000*6D
$GPRMC,182240.000,A,4016.5393,N,07514.3705,W,20.30,144.37,100612,,,D*4D
$GPGGA,182241.000,4016.5349,N,07514.3661,$PMTK001,314,3*36
$PMTK001,220,3*30
$PMTK001,185,3*3C
$GPGGA,182240.000,4016.5393,N,07514.3705,W,2,12,0.83,5580.0,M,-33.9,M,0000,0000*6D
$GPRMC,182240.000,A,4016.5393,N,07514.3705,W,20.30,144.37,100612,,,D*4D
$GPGGA,182241.000,4016.5349,N,07514.3661,$PMTK001,314,3*36
$PMTK001,220,3*30
$PMTK001,185,3*3C
$GPGGA,182240.000,4016.5393,N,07514.3705,W,2,12,0.83,5580.0,M,-33.9,M,0000,0000*6D
$GPRMC,182240.000,A,4016.5393,N,07514.3705,W,20.30,144.37,100612,,,D*4D
$GPGGA,182241.000,4016.5349,N,07514.3661,$PMTK001,314,3*36
$PMTK001,220,3*30
$PMTK001,185,3*3C
$GPGGA,182240.000,4016.5393,N,07514.3705,W,2,12,0.83,5580.0,M,-33.9,M,0000,0000*6D
$GPRMC,182240.000,A,4016.5393,N,07514.3705,W,20.30,144.37,100612,,,D*4D
$GPGGA,182241.000,4016.5349,N,07514.3661,$PMTK001,314,3*36
$PMTK001,220,3*30
$PMTK001,185,3*3C
$GPGGA,182240.000,4016.5393,N,07514.3705,W,2,12,0.83,5580.0,M,-33.9,M,0000,0000*6D
$GPRMC,182240.000,A,4016.5393,N,07514.3705,W,20.30,144.37,100612,,,D*4D
$GPGGA,182241.000,4016.5349,N,07514.3661,$PMTK001,314,3*36
$PMTK001,220,3*30
$PMTK001,185,3*3C
$GPGGA,182240.000,4016.5393,N,07514.3705,W,2,12,0.83,5580.0,M,-33.9,M,0000,0000*6D
$GPRMC,182240.000,A,4016.5393,N,07514.3705,W,20.30,144.37,100612,,,D*4D
$GPGGA,182241.000,4016.5349,N,07514.3661,$PMTK001,314,3*36
$PMTK001,220,3*30
$PMTK001,185,3*3C
$GPGGA,182240.000,4016.5393,N,07514.3705,W,2,12,0.83,5580.0,M,-33.9,M,0000,0000*6D
$GPRMC,182240.000,A,4016.5393,N,07514.3705,W,20.30,144.37,100612,,,D*4D
$GPGGA,182241.000,4016.5349,N,07514.3661,$PMTK001,314,3*36
$PMTK001,220,3*30
$PMTK001,185,3*3C
$GPGGA,182240.000,4016.5393,N,07514.3705,W,2,12,0.83,5580.0,M,-33.9,M,0000,0000*6D
$GPRMC,182240.000,A,4016.5393,N,07514.3705,W,20.30,144.37,100612,,,D*4D
$GPGGA,182241.000,4016.5349,N,07514.3661,$PMTK001,314,3*36
$PMTK001,220,3*30
$PMTK001,185,3*3C
$GPGGA,182240.000,4016.5393,N,07514.3705,W,2,12,0.83,5580.0,M,-33.9,M,0000,0000*6D
$GPRMC,182240.000,A,4016.5393,N,07514.3705,W,20.30,144.37,100612,,,D*4D
$GPGGA,182241.000,4016.5349,N,07514.3661,$PMTK001,314,3*36
$PMTK001,220,3*30
$PMTK001,185,3*3C
$GPGGA,182240.000,4016.5393,N,07514.3705,W,2,12,0.83,5580.0,M,-33.9,M,0000,0000*6D
$GPRMC,182240.000,A,4016.5393,N,07514.3705,W,20.30,144.37,100612,,,D*4D
$GPGGA,182241.000,4016.5349,N,07514.3661,$PMTK001,314,3*36
$PMTK001,220,3*30
$PMTK001,185,3*3C
$GPGGA,182240.000,4016.5393,N,07514.3705,W,2,12,0.83,5580.0,M,-33.9,M,0000,0000*6D
$GPRMC,182240.000,A,4016.5393,N,07514.3705,W,20.30,144.37,100612,,,D*4D
$GPGGA,182241.000,4016.5349,N,07514.3661,$PMTK001,314,3*36
$PMTK001,220,3*30
$PMTK001,185,3*3C
$GPGGA,182240.000,4016.5393,N,07514.3705,W,2,12,0.83,5580.0,M,-33.9,M,0000,0000*6D
$GPRMC,182240.000,A,4016.5393,N,07514.3705,W,20.30,144.37,100612,,,D*4D
$GPGGA,182241.000,4016.5349,N,07514.3661,$PMTK001,314,3*36
$PMTK001,220,3*30
$PMTK001,185,3*3C
$GPGGA,182240.000,4016.5393,N,07514.3705,W,2,12,0.83,5580.0,M,-33.9,M,0000,0000*6D
$GPRMC,182240.000,A,4016.5393,N,07514.3705,W,20.30,144.37,100612,,,D*4D
$GPGGA,182241.000,4016.5349,N,07514.3661,$PMTK001,314,3*36
$PMTK001,220,3*30
$PMTK001,185,3*3C
$GPGGA,182240.000,4016.5393,N,07514.3705,W,2,12,0.83,5580.0,M,-33.9,M,0000,0000*6D
$GPRMC,182240.000,A,4016.5393,N,07514.3705,W,20.30,144.37,100612,,,D*4D
$GPGGA,182241.000,4016.5349,N,07514.3661,$PMTK001,314,3*36
$PMTK001,220,3*30
$PMTK001,185,3*3C
$GPGGA,182240.000,4016.5393,N,07514.3705,W,2,12,0.83,5580.0,M,-33.9,M,0000,0000*6D
$GPRMC,182240.000,A,4016.5393,N,07514.3705,W,20.30,144.37,100612,,,D*4D
$GPGGA,182241.000,4016.5349,N,07514.3661,$PMTK001,314,3*36
$PMTK001,220,3*30
$PMTK001,185,3*3C
$GPGGA,182240.000,4016.5393,N,07514.3705,W,2,12,0.83,5580.0,M,-33.9,M,0000,0000*6D
$GPRMC,182240.000,A,4016.5393,N,07514.3705,W,20.30,144.37,100612,,,D*4D
$GPGGA,182241.000,4016.5349,N,07514.3661,$PMTK001,314,3*36
$PMTK001,220,3*30
$PMTK001,185,3*3C
$GPGGA,182240.000,4016.5393,N,07514.3705,W,2,12,0.83,5580.0,M,-33.9,M,0000,0000*6D
$GPRMC,182240.000,A,4016.5393,N,07514.3705,W,20.30,144.37,100612,,,D*4D
$GPGGA,182241.000,4016.5349,N,07514.3661,$PMTK001,314,3*36
$PMTK001,220,3*30
$PMTK001,185,3*3C
$GPGGA,182240.000,4016.5393,N,07514.3705,W,2,12,0.83,5580.0,M,-33.9,M,0000,0000*6D
$GPRMC,182240.000,A,4016.5393,N,07514.3705,W,20.30,144.37,100612,,,D*4D
$GPGGA,182241.000,4016.5349,N,07514.3661,$PMTK001,314,3*36
$PMTK001,220,3*30
$PMTK001,185,3*3C
$GPGGA,182240.000,4016.5393,N,07514.3705,W,2,12,0.83,5580.0,M,-33.9,M,0000,0000*6D
$GPRMC,182240.000,A,4016.5393,N,07514.3705,W,20.30,144.37,100612,,,D*4D
$GPGGA,182241.000,4016.5349,N,07514.3661,$PMTK001,314,3*36
$PMTK001,220,3*30
$PMTK001,185,3*3C
$GPGGA,182240.000,4016.5393,N,07514.3705,W,2,12,0.83,5580.0,M,-33.9,M,0000,0000*6D
$GPRMC,182240.000,A,4016.5393,N,07514.3705,W,20.30,144.37,100612,,,D*4D
$GPGGA,182241.000,4016.5349,N,07514.3661,$PMTK001,314,3*36
$PMTK001,220,3*30
$PMTK001,185,3*3C
$GPGGA,182240.000,4016.5393,N,07514.3705,W,2,12,0.83,5580.0,M,-33.9,M,0000,0000*6D
$GPRMC,182240.000,A,4016.5393,N,07514.3705,W,20.30,144.37,100612,,,D*4D
$GPGGA,182241.000,4016.5349,N,07514.3661,$PMTK001,314,3*36
$PMTK001,220,3*30
$PMTK001,185,3*3C
$GPGGA,182240.000,4016.5393,N,07514.3705,W,2,12,0.83,5580.0,M,-33.9,M,0000,0000*6D
$GPRMC,182240.000,A,4016.5393,N,07514.3705,W,20.30,144.37,100612,,,D*4D
$GPGGA,182241.000,4016.5349,N,07514.3661,$PMTK001,314,3*36
$PMTK001,220,3*30
$PMTK001,185,3*3C
$GPGGA,182240.000,4016.5393,N,07514.3705,W,2,12,0.83,5580.0,M,-33.9,M,0000,0000*6D
$GPRMC,182240.000,A,4016.5393,N,07514.3705,W,20.30,144.37,100612,,,D*4D
$GPGGA,182241.000,4016.5349,N,07514.3661,