$GPGGA,173235.000,4026.7008,N,07520.5957,W,2,10,0.80,148.5,M,-33.9,M,0000,0000*58
$GPRMC,173235.000,A,4026.7008,N,07520.5957,W,0.11,263.00,100612,,,D*7A
$PMTK001,314,3*36
$PMTK001,220,3*30
$PMTK001,185,3*3C
$GPGGA,173236.000,4026.7008,N,07520.5957,W,$GPGGA,173235.000,4026.7008,N,07520.5957,W,2,10,0.80,148.5,M,-33.9,M,0000,0000*58
$GPRMC,173235.000,A,4026.7008,N,07520.5957,W,0.11,263.00,100612,,,D*7A
$PMTK001,314,3*36
$PMTK001,220,3*30
$PMTK001,185,3*3C
$GPGGA,173236.000,4026.7008,N,07520.5957,W,$GPGGA,173235.000,4026.7008,N,07520.5957,W,2,10,0.80,148.5,M,-33.9,M,0000,0000*58
$GPRMC,173235.000,A,4026.7008,N,07520.5957,W,0.11,263.00,100612,,,D*7A
$PMTK001,314,3*36
$PMTK001,220,3*30
$PMTK001,185,3*3C
$GPGGA,173236.000,4026.7008,N,07520.5957,W,$GPGGA,173235.000,4026.7008,N,07520.5957,W,2,10,0.80,148.5,M,-33.9,M,0000,0000*58
$GPRMC,173235.000,A,4026.7008,N,07520.5957,W,0.11,263.00,100612,,,D*7A
$PMTK001,314,3*36
$PMTK001,220,3*30
$PMTK001,185,3*3C
$GPGGA,173236.000,4026.7008,N,07520.5957,W,$GPGGA,173235.000,4026.7008,N,07520.5957,W,2,10,0.80,148.5,M,-33.9,M,0000,0000*58
$GPRMC,173235.000,A,4026.7008,N,07520.5957,W,0.11,263.00,100612,,,D*7A
$PMTK001,314,3*36
$PMTK001,220,3*30
$PMTK001,185,3*3C
$GPGGA,173236.000,4026.7008,N,07520.5957,W,$GPGGA,173235.000,4026.7008,N,07520.5957,W,2,10,0.80,148.5,M,-33.9,M,0000,0000*58
$GPRMC,173235.000,A,4026.7008,N,07520.5957,W,0.11,263.00,100612,,,D*7A
$PMTK001,314,3*36
$PMTK001,220,3*30
$PMTK001,185,3*3C
$GPGGA,173236.000,4026.7008,N,07520.5957,W,$GPGGA,173235.000,4026.7008,N,07520.5957,W,2,10,0.80,148.5,M,-33.9,M,0000,0000*58
$GPRMC,173235.000,A,4026.7008,N,07520.5957,W,0.11,263.00,100612,,,D*7A
$PMTK001,314,3*36
$PMTK001,220,3*30
$PMTK001,185,3*3C
$GPGGA,173236.000,4026.7008,N,07520.5957,W,$GPGGA,173235.000,4026.7008,N,07520.5957,W,2,10,0.80,148.5,M,-33.9,M,0000,0000*58
$GPRMC,173235.000,A,4026.7008,N,07520.5957,W,0.11,263.00,100612,,,D*7A
$PMTK001,314,3*36
$PMTK001,220,3*30
$PMTK001,185,3*3C
$GPGGA,173236.000,4026.7008,N,07520.5957,W,$GPGGA,173235.000,4026.7008,N,07520.5957,W,2,10,0.80,148.5,M,-33.9,M,0000,0000*58
$GPRMC,173235.000,A,4026.7008,N,07520.5957,W,0.11,263.00,100612,,,D*7A
$PMTK001,314,3*36
$PMTK001,220,3*30
$PMTK001,185,3*3C
$GPGGA,173236.000,4026.7008,N,07520.5957,W,$GPGGA,173235.000,4026.7008,N,07520.5957,W,2,10,0.80,148.5,M,-33.9,M,0000,0000*58
$GPRMC,173235.000,A,4026.7008,N,07520.5957,W,0.11,263.00,100612,,,D*7A
$PMTK001,314,3*36
$PMTK001,220,3*30
$PMTK001,185,3*3C
$GPGGA,173236.000,4026.7008,N,07520.5957,W,$GPGGA,173235.000,4026.7008,N,07520.5957,W,2,10,0.80,148.5,M,-33.9,M,0000,0000*58
$GPRMC,173235.000,A,4026.7008,N,07520.5957,W,0.11,263.00,100612,,,D*7A
$PMTK001,314,3*36
$PMTK001,220,3*30
$PMTK001,185,3*3C
$GPGGA,173236.000,4026.7008,N,07520.5957,W,$GPGGA,173235.000,4026.7008,N,07520.5957,W,2,10,0.80,148.5,M,-33.9,M,0000,0000*58
$GPRMC,173235.000,A,4026.7008,N,07520.5957,W,0.11,263.00,100612,,,D*7A
$PMTK001,314,3*36
$PMTK001,220,3*30
$PMTK001,185,3*3C
$GPGGA,173236.000,4026.7008,N,07520.5957,W,$GPGGA,173235.000,4026.7008,N,07520.5957,W,2,10,0.80,148.5,M,-33.9,M,0000,0000*58
$GPRMC,173235.000,A,4026.7008,N,07520.5957,W,0.11,263.00,100612,,,D*7A
$PMTK001,314,3*36
$PMTK001,220,3*30
$PMTK001,185,3*3C
$GPGGA,173236.000,4026.7008,N,07520.5957,W,$GPGGA,173235.000,4026.7008,N,07520.5957,W,2,10,0.80,148.5,M,-33.9,M,0000,0000*58
$GPRMC,173235.000,A,4026.7008,N,07520.5957,W,0.11,263.00,100612,,,D*7A
$PMTK001,314,3*36
$PMTK001,220,3*30
$PMTK001,185,3*3C
$GPGGA,173236.000,4026.7008,N,07520.5957,W,$GPGGA,173235.000,4026.7008,N,07520.5957,W,2,10,0.80,148.5,M,-33.9,M,0000,0000*58
$GPRMC,173235.000,A,4026.7008,N,07520.5957,W,0.11,263.00,100612,,,D*7A
$PMTK001,314,3*36
$PMTK001,220,3*30
$PMTK001,185,3*3C
$GPGGA,173236.000,4026.7008,N,07520.5957,W,$GPGGA,173235.000,4026.7008,N,07520.5957,W,2,10,0.80,148.5,M,-33.9,M,0000,0000*58
$GPRMC,173235.000,A,4026.7008,N,07520.5957,W,0.11,263.00,100612,,,D*7A
$PMTK001,314,3*36
$PMTK001,220,3*30
$PMTK001,185,3*3C
$GPGGA,173236.000,4026.7008,N,07520.5957,W,$GPGGA,173235.000,4026.7008,N,07520.5957,W,2,10,0.80,148.5,M,-33.9,M,0000,0000*58
$GPRMC,173235.000,A,4026.7008,N,07520.5957,W,0.11,263.00,100612,,,D*7A
$PMTK001,314,3*36
$PMTK001,220,3*30
$PMTK001,185,3*3C
$GPGGA,173236.000,4026.7008,N,07520.5957,W,$GPGGA,173235.000,4026.7008,N,07520.5957,W,2,10,0.80,148.5,M,-33.9,M,0000,0000*58
$GPRMC,173235.000,A,4026.7008,N,07520.5957,W,0.11,263.00,100612,,,D*7A
$PMTK001,314,3*36
$PMTK001,220,3*30
$PMTK001,185,3*3C
$GPGGA,173236.000,4026.7008,N,07520.5957,W,$GPGGA,173235.000,4026.7008,N,07520.5957,W,2,10,0.80,148.5,M,-33.9,M,0000,0000*58
$GPRMC,173235.000,A,4026.7008,N,07520.5957,W,0.11,263.00,100612,,,D*7A
$PMTK001,314,3*36
$PMTK001,220,3*30
$PMTK001,185,3*3C
$GPGGA,173236.000,4026.7008,N,07520.5957,W,$GPGGA,173235.000,4026.7008,N,07520.5957,W,2,10,0.80,148.5,M,-33.9,M,0000,0000*58
$GPRMC,173235.000,A,4026.7008,N,07520.5957,W,0.11,263.00,100612,,,D*7A
$PMTK001,314,3*36
$PMTK001,220,3*30
$PMTK001,185,3*3C
$GPGGA,173236.000,4026.7008,N,07520.5957,W,$GPGGA,173235.000,4026.7008,N,07520.5957,W,2,10,0.80,148.5,M,-33.9,M,0000,0000*58
$GPRMC,173235.000,A,4026.7008,N,07520.5957,W,0.11,263.00,100612,,,D*7A
$PMTK001,314,3*36
$PMTK001,220,3*30
$PMTK001,185,3*3C
$GPGGA,173236.000,4026.7008,N,07520.5957,W,$GPGGA,173235.000,4026.7008,N,07520.5957,W,2,10,0.80,148.5,M,-33.9,M,0000,0000*58
$GPRMC,173235.000,A,4026.7008,N,07520.5957,W,0.11,263.00,100612,,,D*7A
$PMTK001,314,3*36
$PMTK001,220,3*30
$PMTK001,185,3*3C
$GPGGA,173236.000,4026.7008,N,07520.5957,W,$GPGGA,173235.000,4026.7008,N,07520.5957,W,2,10,0.80,148.5,M,-33.9,M,0000,0000*58
$GPRMC,173235.000,A,4026.7008,N,07520.5957,W,0.11,263.00,100612,,,D*7A
$PMTK001,314,3*36
$PMTK001,220,3*30
$PMTK001,185,3*3C
$GPGGA,173236.000,4026.7008,N,07520.5957,W,$GPGGA,173235.000,4026.7008,N,07520.5957,W,2,10,0.80,148.5,M,-33.9,M,0000,0000*58
$GPRMC,173235.000,A,4026.7008,N,07520.5957,W,0.11,263.00,100612,,,D*7A
$PMTK001,314,3*36
$PMTK001,220,3*30
$PMTK001,185,3*3C
$GPGGA,173236.000,4026.7008,N,07520.5957,W,$GPGGA,173235.000,4026.7008,N,07520.5957,W,2,10,0.80,148.5,M,-33.9,M,0000,0000*58
$GPRMC,173235.000,A,4026.7008,N,07520.5957,W,0.11,263.00,100612,,,D*7A
$PMTK001,314,3*36
$PMTK001,220,3*30
$PMTK001,185,3*3C
$GPGGA,173236.000,4026.7008,N,07520.5957,W,$GPGGA,173235.000,4026.7008,N,07520.5957,W,2,10,0.80,148.5,M,-33.9,M,0000,0000*58
$GPRMC,173235.000,A,4026.7008,N,07520.5957,W,0.11,263.00,100612,,,D*7A
$PMTK001,314,3*36
$PMTK001,220,3*30
$PMTK001,185,3*3C
$GPGGA,173236.000,4026.7008,N,07520.5957,W,$GPGGA,173235.000,4026.7008,N,07520.5957,W,2,10,0.80,148.5,M,-33.9,M,0000,0000*58
$GPRMC,173235.000,A,4026.7008,N,07520.5957,W,0.11,263.00,100612,,,D*7A
$PMTK001,314,3*36
$PMTK001,220,3*30
$PMTK001,185,3*3C
$GPGGA,173236.000,4026.7008,N,07520.5957,W,$GPGGA,173235.000,4026.7008,N,07520.5957,W,2,10,0.80,148.5,M,-33.9,M,0000,0000*58
$GPRMC,173235.000,A,4026.7008,N,07520.5957,W,0.11,263.00,100612,,,D*7A
$PMTK001,314,3*36
$PMTK001,220,3*30
$PMTK001,185,3*3C
$GPGGA,173236.000,4026.7008,N,07520.5957,W,$GPGGA,173235.000,4026.7008,N,07520.5957,W,2,10,0.80,148.5,M,-33.9,M,0000,0000*58
$GPRMC,173235.000,A,4026.7008,N,07520.5957,W,0.11,263.00,100612,,,D*7A
$PMTK001,314,3*36
$PMTK001,220,3*30
$PMTK001,185,3*3C
$GPGGA,173236.000,4026.7008,N,07520.5957,W,$GPGGA,173235.000,4026.7008,N,07520.5957,W,2,10,0.80,148.5,M,-33.9,M,0000,0000*58
$GPRMC,173235.000,A,4026.7008,N,07520.5957,W,0.11,263.00,100612,,,D*7A
$PMTK001,314,3*36
$PMTK001,220,3*30
$PMTK001,185,3*3C
$GPGGA,173236.000,4026.7008,N,07520.5957,W,$GPGGA,173235.000,4026.7008,N,07520.5957,W,2,10,0.80,148.5,M,-33.9,M,0000,0000*58
$GPRMC,173235.000,A,4026.7008,N,07520.5957,W,0.11,263.00,100612,,,D*7A
$PMTK001,314,3*36
$PMTK001,220,3*30
$PMTK001,185,3*3C
$GPGGA,173236.000,4026.7008,N,07520.5957,W,$GPGGA,173235.000,4026.7008,N,07520.5957,W,2,10,0.80,148.5,M,-33.9,M,0000,0000*58
$GPRMC,173235.000,A,4026.7008,N,07520.5957,W,0.11,263.00,100612,,,D*7A
$PMTK001,314,3*36
$PMTK001,220,3*30
$PMTK001,185,3*3C
$GPGGA,173236.000,4026.7008,N,07520.5957,W,$GPGGA,173235.000,4026.7008,N,07520.5957,W,2,10,0.80,148.5,M,-33.9,M,0000,0000*58
$GPRMC,173235.000,A,4026.7008,N,07520.5957,W,0.11,263.00,100612,,,D*7A
$PMTK001,314,3*36
$PMTK001,220,3*30
$PMTK001,185,3*3C
$GPGGA,173236.000,4026.7008,N,07520.5957,W,$GPGGA,173235.000,4026.7008,N,07520.5957,W,2,10,0.80,148.5,M,-33.9,M,0000,0000*58
$GPRMC,173235.000,A,4026.7008,N,07520.5957,W,0.11,263.00,100612,,,D*7A
$PMTK001,314,3*36
$PMTK001,220,3*30
$PMTK001,185,3*3C
$GPGGA,173236.000,4026.7008,N,07520.5957,W,$GPGGA,173235.000,4026.7008,N,07520.5957,W,2,10,0.80,148.5,M,-33.9,M,0000,0000*58
$GPRMC,173235.000,A,4026.7008,N,07520.5957,W,0.11,263.00,100612,,,D*7A
$PMTK001,314,3*36
$PMTK001,220,3*30
$PMTK001,185,3*3C
$GPGGA,173236.000,4026.7008,N,07520.5957,W,$GPGGA,173235.000,4026.7008,N,07520.5957,W,2,10,0.80,148.5,M,-33.9,M,0000,0000*58
$GPRMC,173235.000,A,4026.7008,N,07520.5957,W,0.11,263.00,100612,,,D*7A
$PMTK001,314,3*36
$PMTK001,220,3*30
$PMTK001,185,3*3C
$GPGGA,173236.000,4026.7008,N,07520.5957,W,$GPGGA,173235.000,4026.7008,N,07520.5957,W,2,10,0.80,148.5,M,-33.9,M,0000,0000*58
$GPRMC,173235.000,A,4026.7008,N,07520.5957,W,0.11,263.00,100612,,,D*7A
$PMTK001,314,3*36
$PMTK001,220,3*30
$PMTK001,185,3*3C
$GPGGA,173236.000,4026.7008,N,07520.5957,W,$GPGGA,173235.000,4026.7008,N,07520.5957,W,2,10,0.80,148.5,M,-33.9,M,0000,0000*58
$GPRMC,173235.000,A,4026.7008,N,07520.5957,W,0.11,263.00,100612,,,D*7A
$PMTK001,314,3*36
$PMTK001,220,3*30
$PMTK001,185,3*3C
$GPGGA,173236.000,4026.7008,N,07520.5957,W,$GPGGA,173235.000,4026.7008,N,07520.5957,W,2,10,0.80,148.5,M,-33.9,M,0000,0000*58
$GPRMC,173235.000,A,4026.7008,N,07520.5957,W,0.11,263.00,100612,,,D*7A
$PMTK001,314,3*36
$PMTK001,220,3*30
$PMTK001,185,3*3C
$GPGGA,173236.000,4026.7008,N,07520.5957,W,$GPGGA,173235.000,4026.7008,N,07520.5957,W,2,10,0.80,148.5,M,-33.9,M,0000,0000*58
$GPRMC,173235.000,A,4026.7008,N,07520.5957,W,0.11,263.00,100612,,,D*7A
$PMTK001,314,3*36
$PMTK001,220,3*30
$PMTK001,185,3*3C
$GPGGA,173236.000,4026.7008,N,07520.5957,W,$GPGGA,173235.000,4026.7008,N,07520.5957,W,2,10,0.80,148.5,M,-33.9,M,0000,0000*58
$GPRMC,173235.000,A,4026.7008,N,07520.5957,W,0.11,263.00,100612,,,D*7A
$PMTK001,314,3*36
$PMTK001,220,3*30
$PMTK001,185,3*3C
$GPGGA,173236.000,4026.7008,N,07520.5957,W,$GPGGA,173235.000,4026.7008,N,07520.5957,W,2,10,0.80,148.5,M,-33.9,M,0000,0000*58
$GPRMC,173235.000,A,4026.7008,N,07520.5957,W,0.11,263.00,100612,,,D*7A
$PMTK001,314,3*36
$PMTK001,220,3*30
$PMTK001,185,3*3C
$GPGGA,173236.000,4026.7008,N,07520.5957,W,$GPGGA,173235.000,4026.7008,N,07520.5957,W,2,10,0.80,148.5,M,-33.9,M,0000,0000*58
$GPRMC,173235.000,A,4026.7008,N,07520.5957,W,0.11,263.00,100612,,,D*7A
$PMTK001,314,3*36
$PMTK001,220,3*30
$PMTK001,185,3*3C
$GPGGA,173236.000,4026.7008,N,07520.5957,W,$GPGGA,173235.000,4026.7008,N,07520.5957,W,2,10,0.80,148.5,M,-33.9,M,0000,0000*58
$GPRMC,173235.000,A,4026.7008,N,07520.5957,W,0.11,263.00,100612,,,D*7A
$PMTK001,314,3*36
$PMTK001,220,3*30
$PMTK001,185,3*3C
$GPGGA,173236.000,4026.7008,N,07520.5957,W,$GPGGA,173235.000,4026.7008,N,07520.5957,W,2,10,0.80,148.5,M,-33.9,M,0000,0000*58
$GPRMC,173235.000,A,4026.7008,N,07520.5957,W,0.11,263.00,100612,,,D*7A
$PMTK001,314,3*36
$PMTK001,220,3*30
$PMTK001,185,3*3C
$GPGGA,173236.000,4026.7008,N,07520.5957,W,$GPGGA,173235.000,4026.7008,N,07520.5957,W,2,10,0.80,148.5,M,-33.9,M,0000,0000*58
$GPRMC,173235.000,A,4026.7008,N,07520.5957,W,0.11,263.00,100612,,,D*7A
$PMTK001,314,3*36
$PMTK001,220,3*30
$PMTK001,185,3*3C
$GPGGA,173236.000,4026.7008,N,07520.5957,W,$GPGGA,173235.000,4026.7008,N,07520.5957,W,2,10,0.80,148.5,M,-33.9,M,0000,0000*58
$GPRMC,173235.000,A,4026.7008,N,07520.5957,W,0.11,263.00,100612,,,D*7A
$PMTK001,314,3*36
$PMTK001,220,3*30
$PMTK001,185,3*3C
$GPGGA,173236.000,4026.7008,N,07520.5957,W,$GPGGA,173235.000,4026.7008,N,07520.5957,W,2,10,0.80,148.5,M,-33.9,M,0000,0000*58
$GPRMC,173235.000,A,4026.7008,N,07520.5957,W,0.11,263.00,100612,,,D*7A
$PMTK001,314,3*36
$PMTK001,220,3*30
$PMTK001,185,3*3C
$GPGGA,173236.000,4026.7008,N,07520.5957,W,$GPGGA,173235.000,4026.7008,N,07520.5957,W,2,10,0.80,148.5,M,-33.9,M,0000,0000*58
$GPRMC,173235.000,A,4026.7008,N,07520.5957,W,0.11,263.00,100612,,,D*7A
$PMTK001,314,3*36
$PMTK001,220,3*30
$PMTK001,185,3*3C
$GPGGA,173236.000,4026.7008,N,07520.5957,W,$GPGGA,173235.000,4026.7008,N,07520.5957,W,2,10,0.80,148.5,M,-33.9,M,0000,0000*58
$GPRMC,173235.000,A,4026.7008,N,07520.5957,W,0.11,263.00,100612,,,D*7A
$PMTK001,314,3*36
$PMTK001,220,3*30
$PMTK001,185,3*3C
$GPGGA,173236.000,4026.7008,N,07520.5957,W,$GPGGA,173235.000,4026.7008,N,07520.5957,W,2,10,0.80,148.5,M,-33.9,M,0000,0000*58
$GPRMC,173235.000,A,4026.7008,N,07520.5957,W,0.11,263.00,100612,,,D*7A
$PMTK001,314,3*36
$PMTK001,220,3*30
$PMTK001,185,3*3C
$GPGGA,173236.000,4026.7008,N,07520.5957,W,$GPGGA,173235.000,4026.7008,N,07520.5957,W,2,10,0.80,148.5,M,-33.9,M,0000,0000*58
$GPRMC,173235.000,A,4026.7008,N,07520.5957,W,0.11,263.00,100612,,,D*7A
$PMTK001,314,3*36
$PMTK001,220,3*30
$PMTK001,185,3*3C
$GPGGA,173236.000,4026.7008,N,07520.5957,W,$GPGGA,173235.000,4026.7008,N,07520.5957,W,2,10,0.80,148.5,M,-33.9,M,0000,0000*58
$GPRMC,173235.000,A,4026.7008,N,07520.5957,W,0.11,263.00,100612,,,D*7A
$PMTK001,314,3*36
$PMTK001,220,3*30
$PMTK001,185,3*3C
$GPGGA,173236.000,4026.7008,N,07520.5957,W,$GPGGA,173235.000,4026.7008,N,07520.5957,W,2,10,0.80,148.5,M,-33.9,M,0000,0000*58
$GPRMC,173235.000,A,4026.7008,N,07520.5957,W,0.11,263.00,100612,,,D*7A
$PMTK001,314,3*36
$PMTK001,220,3*30
$PMTK001,185,3*3C
$GPGGA,173236.000,4026.7008,N,07520.5957,W,$GPGGA,173235.000,4026.7008,N,07520.5957,W,2,10,0.80,148.5,M,-33.9,M,0000,0000*58
$GPRMC,173235.000,A,4026.7008,N,07520.5957,W,0.11,263.00,100612,,,D*7A
$PMTK001,314,3*36
$PMTK001,220,3*30
$PMTK001,185,3*3C
$GPGGA,173236.000,4026.7008,N,07520.5957,W,$GPGGA,173235.000,4026.7008,N,07520.5957,W,2,10,0.80,148.5,M,-33.9,M,0000,0000*58
$GPRMC,173235.000,A,4026.7008,N,07520.5957,W,0.11,263.00,100612,,,D*7A
$PMTK001,314,3*36
$PMTK001,220,3*30
$PMTK001,185,3*3C
$GPGGA,173236.000,4026.7008,N,07520.5957,W,$GPGGA,173235.000,4026.7008,N,07520.5957,W,2,10,0.80,148.5,M,-33.9,M,0000,0000*58
$GPRMC,173235.000,A,4026.7008,N,07520.5957,W,0.11,263.00,100612,,,D*7A
$PMTK001,314,3*36
$PMTK001,220,3*30
$PMTK001,185,3*3C
$GPGGA,173236.000,4026.7008,N,07520.5957,W,$GPGGA,173235.000,4026.7008,N,07520.5957,W,2,10,0.80,148.5,M,-33.9,M,0000,0000*58
$GPRMC,173235.000,A,4026.7008,N,07520.5957,W,0.11,263.00,100612,,,D*7A
$PMTK001,314,3*36
$PMTK001,220,3*30
$PMTK001,185,3*3C
$GPGGA,173236.000,4026.7008,N,07520.5957,W,