$GPGGA,180239.000,4024.1018,N,07518.1292,W,2,10,0.82,3147.1,M,-33.9,M,0000,0000*6A
$GPRMC,180239.000,A,4024.1018,N,07518.1292,W,24.05,146.22,100612,,,D*45
$PMTK001,314,3*36
$PMTK001,220,3*30
$PMTK001,185,3*3C
$GPGGA,180240.000,4024.0963,N,07518.1244,$GPGGA,180239.000,4024.1018,N,07518.1292,W,2,10,0.82,3147.1,M,-33.9,M,0000,0000*6A
$GPRMC,180239.000,A,4024.1018,N,07518.1292,W,24.05,146.22,100612,,,D*45
$PMTK001,314,3*36
$PMTK001,220,3*30
$PMTK001,185,3*3C
$GPGGA,180240.000,4024.0963,N,07518.1244,$GPGGA,180239.000,4024.1018,N,07518.1292,W,2,10,0.82,3147.1,M,-33.9,M,0000,0000*6A
$GPRMC,180239.000,A,4024.1018,N,07518.1292,W,24.05,146.22,100612,,,D*45
$PMTK001,314,3*36
$PMTK001,220,3*30
$PMTK001,185,3*3C
$GPGGA,180240.000,4024.0963,N,07518.1244,$GPGGA,180239.000,4024.1018,N,07518.1292,W,2,10,0.82,3147.1,M,-33.9,M,0000,0000*6A
$GPRMC,180239.000,A,4024.1018,N,07518.1292,W,24.05,146.22,100612,,,D*45
$PMTK001,314,3*36
$PMTK001,220,3*30
$PMTK001,185,3*3C
$GPGGA,180240.000,4024.0963,N,07518.1244,$GPGGA,180239.000,4024.1018,N,07518.1292,W,2,10,0.82,3147.1,M,-33.9,M,0000,0000*6A
$GPRMC,180239.000,A,4024.1018,N,07518.1292,W,24.05,146.22,100612,,,D*45
$PMTK001,314,3*36
$PMTK001,220,3*30
$PMTK001,185,3*3C
$GPGGA,180240.000,4024.0963,N,07518.1244,$GPGGA,180239.000,4024.1018,N,07518.1292,W,2,10,0.82,3147.1,M,-33.9,M,0000,0000*6A
$GPRMC,180239.000,A,4024.1018,N,07518.1292,W,24.05,146.22,100612,,,D*45
$PMTK001,314,3*36
$PMTK001,220,3*30
$PMTK001,185,3*3C
$GPGGA,180240.000,4024.0963,N,07518.1244,$GPGGA,180239.000,4024.1018,N,07518.1292,W,2,10,0.82,3147.1,M,-33.9,M,0000,0000*6A
$GPRMC,180239.000,A,4024.1018,N,07518.1292,W,24.05,146.22,100612,,,D*45
$PMTK001,314,3*36
$PMTK001,220,3*30
$PMTK001,185,3*3C
$GPGGA,180240.000,4024.0963,N,07518.1244,$GPGGA,180239.000,4024.1018,N,07518.1292,W,2,10,0.82,3147.1,M,-33.9,M,0000,0000*6A
$GPRMC,180239.000,A,4024.1018,N,07518.1292,W,24.05,146.22,100612,,,D*45
$PMTK001,314,3*36
$PMTK001,220,3*30
$PMTK001,185,3*3C
$GPGGA,180240.000,4024.0963,N,07518.1244,$GPGGA,180239.000,4024.1018,N,07518.1292,W,2,10,0.82,3147.1,M,-33.9,M,0000,0000*6A
$GPRMC,180239.000,A,4024.1018,N,07518.1292,W,24.05,146.22,100612,,,D*45
$PMTK001,314,3*36
$PMTK001,220,3*30
$PMTK001,185,3*3C
$GPGGA,180240.000,4024.0963,N,07518.1244,$GPGGA,180239.000,4024.1018,N,07518.1292,W,2,10,0.82,3147.1,M,-33.9,M,0000,0000*6A
$GPRMC,180239.000,A,4024.1018,N,07518.1292,W,24.05,146.22,100612,,,D*45
$PMTK001,314,3*36
$PMTK001,220,3*30
$PMTK001,185,3*3C
$GPGGA,180240.000,4024.0963,N,07518.1244,$GPGGA,180239.000,4024.1018,N,07518.1292,W,2,10,0.82,3147.1,M,-33.9,M,0000,0000*6A
$GPRMC,180239.000,A,4024.1018,N,07518.1292,W,24.05,146.22,100612,,,D*45
$PMTK001,314,3*36
$PMTK001,220,3*30
$PMTK001,185,3*3C
$GPGGA,180240.000,4024.0963,N,07518.1244,$GPGGA,180239.000,4024.1018,N,07518.1292,W,2,10,0.82,3147.1,M,-33.9,M,0000,0000*6A
$GPRMC,180239.000,A,4024.1018,N,07518.1292,W,24.05,146.22,100612,,,D*45
$PMTK001,314,3*36
$PMTK001,220,3*30
$PMTK001,185,3*3C
$GPGGA,180240.000,4024.0963,N,07518.1244,$GPGGA,180239.000,4024.1018,N,07518.1292,W,2,10,0.82,3147.1,M,-33.9,M,0000,0000*6A
$GPRMC,180239.000,A,4024.1018,N,07518.1292,W,24.05,146.22,100612,,,D*45
$PMTK001,314,3*36
$PMTK001,220,3*30
$PMTK001,185,3*3C
$GPGGA,180240.000,4024.0963,N,07518.1244,$GPGGA,180239.000,4024.1018,N,07518.1292,W,2,10,0.82,3147.1,M,-33.9,M,0000,0000*6A
$GPRMC,180239.000,A,4024.1018,N,07518.1292,W,24.05,146.22,100612,,,D*45
$PMTK001,314,3*36
$PMTK001,220,3*30
$PMTK001,185,3*3C
$GPGGA,180240.000,4024.0963,N,07518.1244,$GPGGA,180239.000,4024.1018,N,07518.1292,W,2,10,0.82,3147.1,M,-33.9,M,0000,0000*6A
$GPRMC,180239.000,A,4024.1018,N,07518.1292,W,24.05,146.22,100612,,,D*45
$PMTK001,314,3*36
$PMTK001,220,3*30
$PMTK001,185,3*3C
$GPGGA,180240.000,4024.0963,N,07518.1244,$GPGGA,180239.000,4024.1018,N,07518.1292,W,2,10,0.82,3147.1,M,-33.9,M,0000,0000*6A
$GPRMC,180239.000,A,4024.1018,N,07518.1292,W,24.05,146.22,100612,,,D*45
$PMTK001,314,3*36
$PMTK001,220,3*30
$PMTK001,185,3*3C
$GPGGA,180240.000,4024.0963,N,07518.1244,$GPGGA,180239.000,4024.1018,N,07518.1292,W,2,10,0.82,3147.1,M,-33.9,M,0000,0000*6A
$GPRMC,180239.000,A,4024.1018,N,07518.1292,W,24.05,146.22,100612,,,D*45
$PMTK001,314,3*36
$PMTK001,220,3*30
$PMTK001,185,3*3C
$GPGGA,180240.000,4024.0963,N,07518.1244,$GPGGA,180239.000,4024.1018,N,07518.1292,W,2,10,0.82,3147.1,M,-33.9,M,0000,0000*6A
$GPRMC,180239.000,A,4024.1018,N,07518.1292,W,24.05,146.22,100612,,,D*45
$PMTK001,314,3*36
$PMTK001,220,3*30
$PMTK001,185,3*3C
$GPGGA,180240.000,4024.0963,N,07518.1244,$GPGGA,180239.000,4024.1018,N,07518.1292,W,2,10,0.82,3147.1,M,-33.9,M,0000,0000*6A
$GPRMC,180239.000,A,4024.1018,N,07518.1292,W,24.05,146.22,100612,,,D*45
$PMTK001,314,3*36
$PMTK001,220,3*30
$PMTK001,185,3*3C
$GPGGA,180240.000,4024.0963,N,07518.1244,$GPGGA,180239.000,4024.1018,N,07518.1292,W,2,10,0.82,3147.1,M,-33.9,M,0000,0000*6A
$GPRMC,180239.000,A,4024.1018,N,07518.1292,W,24.05,146.22,100612,,,D*45
$PMTK001,314,3*36
$PMTK001,220,3*30
$PMTK001,185,3*3C
$GPGGA,180240.000,4024.0963,N,07518.1244,$GPGGA,180239.000,4024.1018,N,07518.1292,W,2,10,0.82,3147.1,M,-33.9,M,0000,0000*6A
$GPRMC,180239.000,A,4024.1018,N,07518.1292,W,24.05,146.22,100612,,,D*45
$PMTK001,314,3*36
$PMTK001,220,3*30
$PMTK001,185,3*3C
$GPGGA,180240.000,4024.0963,N,07518.1244,$GPGGA,180239.000,4024.1018,N,07518.1292,W,2,10,0.82,3147.1,M,-33.9,M,0000,0000*6A
$GPRMC,180239.000,A,4024.1018,N,07518.1292,W,24.05,146.22,100612,,,D*45
$PMTK001,314,3*36
$PMTK001,220,3*30
$PMTK001,185,3*3C
$GPGGA,180240.000,4024.0963,N,07518.1244,$GPGGA,180239.000,4024.1018,N,07518.1292,W,2,10,0.82,3147.1,M,-33.9,M,0000,0000*6A
$GPRMC,180239.000,A,4024.1018,N,07518.1292,W,24.05,146.22,100612,,,D*45
$PMTK001,314,3*36
$PMTK001,220,3*30
$PMTK001,185,3*3C
$GPGGA,180240.000,4024.0963,N,07518.1244,$GPGGA,180239.000,4024.1018,N,07518.1292,W,2,10,0.82,3147.1,M,-33.9,M,0000,0000*6A
$GPRMC,180239.000,A,4024.1018,N,07518.1292,W,24.05,146.22,100612,,,D*45
$PMTK001,314,3*36
$PMTK001,220,3*30
$PMTK001,185,3*3C
$GPGGA,180240.000,4024.0963,N,07518.1244,$GPGGA,180239.000,4024.1018,N,07518.1292,W,2,10,0.82,3147.1,M,-33.9,M,0000,0000*6A
$GPRMC,180239.000,A,4024.1018,N,07518.1292,W,24.05,146.22,100612,,,D*45
$PMTK001,314,3*36
$PMTK001,220,3*30
$PMTK001,185,3*3C
$GPGGA,180240.000,4024.0963,N,07518.1244,$GPGGA,180239.000,4024.1018,N,07518.1292,W,2,10,0.82,3147.1,M,-33.9,M,0000,0000*6A
$GPRMC,180239.000,A,4024.1018,N,07518.1292,W,24.05,146.22,100612,,,D*45
$PMTK001,314,3*36
$PMTK001,220,3*30
$PMTK001,185,3*3C
$GPGGA,180240.000,4024.0963,N,07518.1244,$GPGGA,180239.000,4024.1018,N,07518.1292,W,2,10,0.82,3147.1,M,-33.9,M,0000,0000*6A
$GPRMC,180239.000,A,4024.1018,N,07518.1292,W,24.05,146.22,100612,,,D*45
$PMTK001,314,3*36
$PMTK001,220,3*30
$PMTK001,185,3*3C
$GPGGA,180240.000,4024.0963,N,07518.1244,$GPGGA,180239.000,4024.1018,N,07518.1292,W,2,10,0.82,3147.1,M,-33.9,M,0000,0000*6A
$GPRMC,180239.000,A,4024.1018,N,07518.1292,W,24.05,146.22,100612,,,D*45
$PMTK001,314,3*36
$PMTK001,220,3*30
$PMTK001,185,3*3C
$GPGGA,180240.000,4024.0963,N,07518.1244,$GPGGA,180239.000,4024.1018,N,07518.1292,W,2,10,0.82,3147.1,M,-33.9,M,0000,0000*6A
$GPRMC,180239.000,A,4024.1018,N,07518.1292,W,24.05,146.22,100612,,,D*45
$PMTK001,314,3*36
$PMTK001,220,3*30
$PMTK001,185,3*3C
$GPGGA,180240.000,4024.0963,N,07518.1244,$GPGGA,180239.000,4024.1018,N,07518.1292,W,2,10,0.82,3147.1,M,-33.9,M,0000,0000*6A
$GPRMC,180239.000,A,4024.1018,N,07518.1292,W,24.05,146.22,100612,,,D*45
$PMTK001,314,3*36
$PMTK001,220,3*30
$PMTK001,185,3*3C
$GPGGA,180240.000,4024.0963,N,07518.1244,$GPGGA,180239.000,4024.1018,N,07518.1292,W,2,10,0.82,3147.1,M,-33.9,M,0000,0000*6A
$GPRMC,180239.000,A,4024.1018,N,07518.1292,W,24.05,146.22,100612,,,D*45
$PMTK001,314,3*36
$PMTK001,220,3*30
$PMTK001,185,3*3C
$GPGGA,180240.000,4024.0963,N,07518.1244,$GPGGA,180239.000,4024.1018,N,07518.1292,W,2,10,0.82,3147.1,M,-33.9,M,0000,0000*6A
$GPRMC,180239.000,A,4024.1018,N,07518.1292,W,24.05,146.22,100612,,,D*45
$PMTK001,314,3*36
$PMTK001,220,3*30
$PMTK001,185,3*3C
$GPGGA,180240.000,4024.0963,N,07518.1244,$GPGGA,180239.000,4024.1018,N,07518.1292,W,2,10,0.82,3147.1,M,-33.9,M,0000,0000*6A
$GPRMC,180239.000,A,4024.1018,N,07518.1292,W,24.05,146.22,100612,,,D*45
$PMTK001,314,3*36
$PMTK001,220,3*30
$PMTK001,185,3*3C
$GPGGA,180240.000,4024.0963,N,07518.1244,$GPGGA,180239.000,4024.1018,N,07518.1292,W,2,10,0.82,3147.1,M,-33.9,M,0000,0000*6A
$GPRMC,180239.000,A,4024.1018,N,07518.1292,W,24.05,146.22,100612,,,D*45
$PMTK001,314,3*36
$PMTK001,220,3*30
$PMTK001,185,3*3C
$GPGGA,180240.000,4024.0963,N,07518.1244,$GPGGA,180239.000,4024.1018,N,07518.1292,W,2,10,0.82,3147.1,M,-33.9,M,0000,0000*6A
$GPRMC,180239.000,A,4024.1018,N,07518.1292,W,24.05,146.22,100612,,,D*45
$PMTK001,314,3*36
$PMTK001,220,3*30
$PMTK001,185,3*3C
$GPGGA,180240.000,4024.0963,N,07518.1244,$GPGGA,180239.000,4024.1018,N,07518.1292,W,2,10,0.82,3147.1,M,-33.9,M,0000,0000*6A
$GPRMC,180239.000,A,4024.1018,N,07518.1292,W,24.05,146.22,100612,,,D*45
$PMTK001,314,3*36
$PMTK001,220,3*30
$PMTK001,185,3*3C
$GPGGA,180240.000,4024.0963,N,07518.1244,$GPGGA,180239.000,4024.1018,N,07518.1292,W,2,10,0.82,3147.1,M,-33.9,M,0000,0000*6A
$GPRMC,180239.000,A,4024.1018,N,07518.1292,W,24.05,146.22,100612,,,D*45
$PMTK001,314,3*36
$PMTK001,220,3*30
$PMTK001,185,3*3C
$GPGGA,180240.000,4024.0963,N,07518.1244,$GPGGA,180239.000,4024.1018,N,07518.1292,W,2,10,0.82,3147.1,M,-33.9,M,0000,0000*6A
$GPRMC,180239.000,A,4024.1018,N,07518.1292,W,24.05,146.22,100612,,,D*45
$PMTK001,314,3*36
$PMTK001,220,3*30
$PMTK001,185,3*3C
$GPGGA,180240.000,4024.0963,N,07518.1244,$GPGGA,180239.000,4024.1018,N,07518.1292,W,2,10,0.82,3147.1,M,-33.9,M,0000,0000*6A
$GPRMC,180239.000,A,4024.1018,N,07518.1292,W,24.05,146.22,100612,,,D*45
$PMTK001,314,3*36
$PMTK001,220,3*30
$PMTK001,185,3*3C
$GPGGA,180240.000,4024.0963,N,07518.1244,$GPGGA,180239.000,4024.1018,N,07518.1292,W,2,10,0.82,3147.1,M,-33.9,M,0000,0000*6A
$GPRMC,180239.000,A,4024.1018,N,07518.1292,W,24.05,146.22,100612,,,D*45
$PMTK001,314,3*36
$PMTK001,220,3*30
$PMTK001,185,3*3C
$GPGGA,180240.000,4024.0963,N,07518.1244,$GPGGA,180239.000,4024.1018,N,07518.1292,W,2,10,0.82,3147.1,M,-33.9,M,0000,0000*6A
$GPRMC,180239.000,A,4024.1018,N,07518.1292,W,24.05,146.22,100612,,,D*45
$PMTK001,314,3*36
$PMTK001,220,3*30
$PMTK001,185,3*3C
$GPGGA,180240.000,4024.0963,N,07518.1244,$GPGGA,180239.000,4024.1018,N,07518.1292,W,2,10,0.82,3147.1,M,-33.9,M,0000,0000*6A
$GPRMC,180239.000,A,4024.1018,N,07518.1292,W,24.05,146.22,100612,,,D*45
$PMTK001,314,3*36
$PMTK001,220,3*30
$PMTK001,185,3*3C
$GPGGA,180240.000,4024.0963,N,07518.1244,$GPGGA,180239.000,4024.1018,N,07518.1292,W,2,10,0.82,3147.1,M,-33.9,M,0000,0000*6A
$GPRMC,180239.000,A,4024.1018,N,07518.1292,W,24.05,146.22,100612,,,D*45
$PMTK001,314,3*36
$PMTK001,220,3*30
$PMTK001,185,3*3C
$GPGGA,180240.000,4024.0963,N,07518.1244,$GPGGA,180239.000,4024.1018,N,07518.1292,W,2,10,0.82,3147.1,M,-33.9,M,0000,0000*6A
$GPRMC,180239.000,A,4024.1018,N,07518.1292,W,24.05,146.22,100612,,,D*45
$PMTK001,314,3*36
$PMTK001,220,3*30
$PMTK001,185,3*3C
$GPGGA,180240.000,4024.0963,N,07518.1244,$GPGGA,180239.000,4024.1018,N,07518.1292,W,2,10,0.82,3147.1,M,-33.9,M,0000,0000*6A
$GPRMC,180239.000,A,4024.1018,N,07518.1292,W,24.05,146.22,100612,,,D*45
$PMTK001,314,3*36
$PMTK001,220,3*30
$PMTK001,185,3*3C
$GPGGA,180240.000,4024.0963,N,07518.1244,$GPGGA,180239.000,4024.1018,N,07518.1292,W,2,10,0.82,3147.1,M,-33.9,M,0000,0000*6A
$GPRMC,180239.000,A,4024.1018,N,07518.1292,W,24.05,146.22,100612,,,D*45
$PMTK001,314,3*36
$PMTK001,220,3*30
$PMTK001,185,3*3C
$GPGGA,180240.000,4024.0963,N,07518.1244,$GPGGA,180239.000,4024.1018,N,07518.1292,W,2,10,0.82,3147.1,M,-33.9,M,0000,0000*6A
$GPRMC,180239.000,A,4024.1018,N,07518.1292,W,24.05,146.22,100612,,,D*45
$PMTK001,314,3*36
$PMTK001,220,3*30
$PMTK001,185,3*3C
$GPGGA,180240.000,4024.0963,N,07518.1244,$GPGGA,180239.000,4024.1018,N,07518.1292,W,2,10,0.82,3147.1,M,-33.9,M,0000,0000*6A
$GPRMC,180239.000,A,4024.1018,N,07518.1292,W,24.05,146.22,100612,,,D*45
$PMTK001,314,3*36
$PMTK001,220,3*30
$PMTK001,185,3*3C
$GPGGA,180240.000,4024.0963,N,07518.1244,$GPGGA,180239.000,4024.1018,N,07518.1292,W,2,10,0.82,3147.1,M,-33.9,M,0000,0000*6A
$GPRMC,180239.000,A,4024.1018,N,07518.1292,W,24.05,146.22,100612,,,D*45
$PMTK001,314,3*36
$PMTK001,220,3*30
$PMTK001,185,3*3C
$GPGGA,180240.000,4024.0963,N,07518.1244,$GPGGA,180239.000,4024.1018,N,07518.1292,W,2,10,0.82,3147.1,M,-33.9,M,0000,0000*6A
$GPRMC,180239.000,A,4024.1018,N,07518.1292,W,24.05,146.22,100612,,,D*45
$PMTK001,314,3*36
$PMTK001,220,3*30
$PMTK001,185,3*3C
$GPGGA,180240.000,4024.0963,N,07518.1244,$GPGGA,180239.000,4024.1018,N,07518.1292,W,2,10,0.82,3147.1,M,-33.9,M,0000,0000*6A
$GPRMC,180239.000,A,4024.1018,N,07518.1292,W,24.05,146.22,100612,,,D*45
$PMTK001,314,3*36
$PMTK001,220,3*30
$PMTK001,185,3*3C
$GPGGA,180240.000,4024.0963,N,07518.1244,$GPGGA,180239.000,4024.1018,N,07518.1292,W,2,10,0.82,3147.1,M,-33.9,M,0000,0000*6A
$GPRMC,180239.000,A,4024.1018,N,07518.1292,W,24.05,146.22,100612,,,D*45
$PMTK001,314,3*36
$PMTK001,220,3*30
$PMTK001,185,3*3C
$GPGGA,180240.000,4024.0963,N,07518.1244,$GPGGA,180239.000,4024.1018,N,07518.1292,W,2,10,0.82,3147.1,M,-33.9,M,0000,0000*6A
$GPRMC,180239.000,A,4024.1018,N,07518.1292,W,24.05,146.22,100612,,,D*45
$PMTK001,314,3*36
$PMTK001,220,3*30
$PMTK001,185,3*3C
$GPGGA,180240.000,4024.0963,N,07518.1244,$GPGGA,180239.000,4024.1018,N,07518.1292,W,2,10,0.82,3147.1,M,-33.9,M,0000,0000*6A
$GPRMC,180239.000,A,4024.1018,N,07518.1292,W,24.05,146.22,100612,,,D*45
$PMTK001,314,3*36
$PMTK001,220,3*30
$PMTK001,185,3*3C
$GPGGA,180240.000,4024.0963,N,07518.1244,$GPGGA,180239.000,4024.1018,N,07518.1292,W,2,10,0.82,3147.1,M,-33.9,M,0000,0000*6A
$GPRMC,180239.000,A,4024.1018,N,07518.1292,W,24.05,146.22,100612,,,D*45
$PMTK001,314,3*36
$PMTK001,220,3*30
$PMTK001,185,3*3C
$GPGGA,180240.000,4024.0963,N,07518.1244,$GPGGA,180239.000,4024.1018,N,07518.1292,W,2,10,0.82,3147.1,M,-33.9,M,0000,0000*6A
$GPRMC,180239.000,A,4024.1018,N,07518.1292,W,24.05,146.22,100612,,,D*45
$PMTK001,314,3*36
$PMTK001,220,3*30
$PMTK001,185,3*3C
$GPGGA,180240.000,4024.0963,N,07518.1244,$GPGGA,180239.000,4024.1018,N,07518.1292,W,2,10,0.82,3147.1,M,-33.9,M,0000,0000*6A
$GPRMC,180239.000,A,4024.1018,N,07518.1292,W,24.05,146.22,100612,,,D*45
$PMTK001,314,3*36
$PMTK001,220,3*30
$PMTK001,185,3*3C
$GPGGA,180240.000,4024.0963,N,07518.1244,$GPGGA,180239.000,4024.1018,N,07518.1292,W,2,10,0.82,3147.1,M,-33.9,M,0000,0000*6A
$GPRMC,180239.000,A,4024.1018,N,07518.1292,W,24.05,146.22,100612,,,D*45
$PMTK001,314,3*36
$PMTK001,220,3*30
$PMTK001,185,3*3C
$GPGGA,180240.000,4024.0963,N,07518.1244,