0,187.78,100612,,,D*76
$PMTK001,314,3*36
$PMTK001,220,3*30
$PMTK001,185,3*3C
$GPGGA,164928.000,4026.6987,N,07520.5986,W,2,9,0.92,149.5,M,-33.9,M,0000,0000*60
$GPRMC,164928.000,A,4026.6987,N,07520.5986,W,0.31,189.31,100612,,,D*7F
$GPGGA,164929.000,400,187.78,100612,,,D*76
$PMTK001,314,3*36
$PMTK001,220,3*30
$PMTK001,185,3*3C
$GPGGA,164928.000,4026.6987,N,07520.5986,W,2,9,0.92,149.5,M,-33.9,M,0000,0000*60
$GPRMC,164928.000,A,4026.6987,N,07520.5986,W,0.31,189.31,100612,,,D*7F
$GPGGA,164929.000,400,187.78,100612,,,D*76
$PMTK001,314,3*36
$PMTK001,220,3*30
$PMTK001,185,3*3C
$GPGGA,164928.000,4026.6987,N,07520.5986,W,2,9,0.92,149.5,M,-33.9,M,0000,0000*60
$GPRMC,164928.000,A,4026.6987,N,07520.5986,W,0.31,189.31,100612,,,D*7F
$GPGGA,164929.000,400,187.78,100612,,,D*76
$PMTK001,314,3*36
$PMTK001,220,3*30
$PMTK001,185,3*3C
$GPGGA,164928.000,4026.6987,N,07520.5986,W,2,9,0.92,149.5,M,-33.9,M,0000,0000*60
$GPRMC,164928.000,A,4026.6987,N,07520.5986,W,0.31,189.31,100612,,,D*7F
$GPGGA,164929.000,400,187.78,100612,,,D*76
$PMTK001,314,3*36
$PMTK001,220,3*30
$PMTK001,185,3*3C
$GPGGA,164928.000,4026.6987,N,07520.5986,W,2,9,0.92,149.5,M,-33.9,M,0000,0000*60
$GPRMC,164928.000,A,4026.6987,N,07520.5986,W,0.31,189.31,100612,,,D*7F
$GPGGA,164929.000,400,187.78,100612,,,D*76
$PMTK001,314,3*36
$PMTK001,220,3*30
$PMTK001,185,3*3C
$GPGGA,164928.000,4026.6987,N,07520.5986,W,2,9,0.92,149.5,M,-33.9,M,0000,0000*60
$GPRMC,164928.000,A,4026.6987,N,07520.5986,W,0.31,189.31,100612,,,D*7F
$GPGGA,164929.000,400,187.78,100612,,,D*76
$PMTK001,314,3*36
$PMTK001,220,3*30
$PMTK001,185,3*3C
$GPGGA,164928.000,4026.6987,N,07520.5986,W,2,9,0.92,149.5,M,-33.9,M,0000,0000*60
$GPRMC,164928.000,A,4026.6987,N,07520.5986,W,0.31,189.31,100612,,,D*7F
$GPGGA,164929.000,400,187.78,100612,,,D*76
$PMTK001,314,3*36
$PMTK001,220,3*30
$PMTK001,185,3*3C
$GPGGA,164928.000,4026.6987,N,07520.5986,W,2,9,0.92,149.5,M,-33.9,M,0000,0000*60
$GPRMC,164928.000,A,4026.6987,N,07520.5986,W,0.31,189.31,100612,,,D*7F
$GPGGA,164929.000,400,187.78,100612,,,D*76
$PMTK001,314,3*36
$PMTK001,220,3*30
$PMTK001,185,3*3C
$GPGGA,164928.000,4026.6987,N,07520.5986,W,2,9,0.92,149.5,M,-33.9,M,0000,0000*60
$GPRMC,164928.000,A,4026.6987,N,07520.5986,W,0.31,189.31,100612,,,D*7F
$GPGGA,164929.000,400,187.78,100612,,,D*76
$PMTK001,314,3*36
$PMTK001,220,3*30
$PMTK001,185,3*3C
$GPGGA,164928.000,4026.6987,N,07520.5986,W,2,9,0.92,149.5,M,-33.9,M,0000,0000*60
$GPRMC,164928.000,A,4026.6987,N,07520.5986,W,0.31,189.31,100612,,,D*7F
$GPGGA,164929.000,400,187.78,100612,,,D*76
$PMTK001,314,3*36
$PMTK001,220,3*30
$PMTK001,185,3*3C
$GPGGA,164928.000,4026.6987,N,07520.5986,W,2,9,0.92,149.5,M,-33.9,M,0000,0000*60
$GPRMC,164928.000,A,4026.6987,N,07520.5986,W,0.31,189.31,100612,,,D*7F
$GPGGA,164929.000,400,187.78,100612,,,D*76
$PMTK001,314,3*36
$PMTK001,220,3*30
$PMTK001,185,3*3C
$GPGGA,164928.000,4026.6987,N,07520.5986,W,2,9,0.92,149.5,M,-33.9,M,0000,0000*60
$GPRMC,164928.000,A,4026.6987,N,07520.5986,W,0.31,189.31,100612,,,D*7F
$GPGGA,164929.000,400,187.78,100612,,,D*76
$PMTK001,314,3*36
$PMTK001,220,3*30
$PMTK001,185,3*3C
$GPGGA,164928.000,4026.6987,N,07520.5986,W,2,9,0.92,149.5,M,-33.9,M,0000,0000*60
$GPRMC,164928.000,A,4026.6987,N,07520.5986,W,0.31,189.31,100612,,,D*7F
$GPGGA,164929.000,400,187.78,100612,,,D*76
$PMTK001,314,3*36
$PMTK001,220,3*30
$PMTK001,185,3*3C
$GPGGA,164928.000,4026.6987,N,07520.5986,W,2,9,0.92,149.5,M,-33.9,M,0000,0000*60
$GPRMC,164928.000,A,4026.6987,N,07520.5986,W,0.31,189.31,100612,,,D*7F
$GPGGA,164929.000,400,187.78,100612,,,D*76
$PMTK001,314,3*36
$PMTK001,220,3*30
$PMTK001,185,3*3C
$GPGGA,164928.000,4026.6987,N,07520.5986,W,2,9,0.92,149.5,M,-33.9,M,0000,0000*60
$GPRMC,164928.000,A,4026.6987,N,07520.5986,W,0.31,189.31,100612,,,D*7F
$GPGGA,164929.000,400,187.78,100612,,,D*76
$PMTK001,314,3*36
$PMTK001,220,3*30
$PMTK001,185,3*3C
$GPGGA,164928.000,4026.6987,N,07520.5986,W,2,9,0.92,149.5,M,-33.9,M,0000,0000*60
$GPRMC,164928.000,A,4026.6987,N,07520.5986,W,0.31,189.31,100612,,,D*7F
$GPGGA,164929.000,400,187.78,100612,,,D*76
$PMTK001,314,3*36
$PMTK001,220,3*30
$PMTK001,185,3*3C
$GPGGA,164928.000,4026.6987,N,07520.5986,W,2,9,0.92,149.5,M,-33.9,M,0000,0000*60
$GPRMC,164928.000,A,4026.6987,N,07520.5986,W,0.31,189.31,100612,,,D*7F
$GPGGA,164929.000,400,187.78,100612,,,D*76
$PMTK001,314,3*36
$PMTK001,220,3*30
$PMTK001,185,3*3C
$GPGGA,164928.000,4026.6987,N,07520.5986,W,2,9,0.92,149.5,M,-33.9,M,0000,0000*60
$GPRMC,164928.000,A,4026.6987,N,07520.5986,W,0.31,189.31,100612,,,D*7F
$GPGGA,164929.000,400,187.78,100612,,,D*76
$PMTK001,314,3*36
$PMTK001,220,3*30
$PMTK001,185,3*3C
$GPGGA,164928.000,4026.6987,N,07520.5986,W,2,9,0.92,149.5,M,-33.9,M,0000,0000*60
$GPRMC,164928.000,A,4026.6987,N,07520.5986,W,0.31,189.31,100612,,,D*7F
$GPGGA,164929.000,400,187.78,100612,,,D*76
$PMTK001,314,3*36
$PMTK001,220,3*30
$PMTK001,185,3*3C
$GPGGA,164928.000,4026.6987,N,07520.5986,W,2,9,0.92,149.5,M,-33.9,M,0000,0000*60
$GPRMC,164928.000,A,4026.6987,N,07520.5986,W,0.31,189.31,100612,,,D*7F
$GPGGA,164929.000,400,187.78,100612,,,D*76
$PMTK001,314,3*36
$PMTK001,220,3*30
$PMTK001,185,3*3C
$GPGGA,164928.000,4026.6987,N,07520.5986,W,2,9,0.92,149.5,M,-33.9,M,0000,0000*60
$GPRMC,164928.000,A,4026.6987,N,07520.5986,W,0.31,189.31,100612,,,D*7F
$GPGGA,164929.000,400,187.78,100612,,,D*76
$PMTK001,314,3*36
$PMTK001,220,3*30
$PMTK001,185,3*3C
$GPGGA,164928.000,4026.6987,N,07520.5986,W,2,9,0.92,149.5,M,-33.9,M,0000,0000*60
$GPRMC,164928.000,A,4026.6987,N,07520.5986,W,0.31,189.31,100612,,,D*7F
$GPGGA,164929.000,400,187.78,100612,,,D*76
$PMTK001,314,3*36
$PMTK001,220,3*30
$PMTK001,185,3*3C
$GPGGA,164928.000,4026.6987,N,07520.5986,W,2,9,0.92,149.5,M,-33.9,M,0000,0000*60
$GPRMC,164928.000,A,4026.6987,N,07520.5986,W,0.31,189.31,100612,,,D*7F
$GPGGA,164929.000,400,187.78,100612,,,D*76
$PMTK001,314,3*36
$PMTK001,220,3*30
$PMTK001,185,3*3C
$GPGGA,164928.000,4026.6987,N,07520.5986,W,2,9,0.92,149.5,M,-33.9,M,0000,0000*60
$GPRMC,164928.000,A,4026.6987,N,07520.5986,W,0.31,189.31,100612,,,D*7F
$GPGGA,164929.000,400,187.78,100612,,,D*76
$PMTK001,314,3*36
$PMTK001,220,3*30
$PMTK001,185,3*3C
$GPGGA,164928.000,4026.6987,N,07520.5986,W,2,9,0.92,149.5,M,-33.9,M,0000,0000*60
$GPRMC,164928.000,A,4026.6987,N,07520.5986,W,0.31,189.31,100612,,,D*7F
$GPGGA,164929.000,400,187.78,100612,,,D*76
$PMTK001,314,3*36
$PMTK001,220,3*30
$PMTK001,185,3*3C
$GPGGA,164928.000,4026.6987,N,07520.5986,W,2,9,0.92,149.5,M,-33.9,M,0000,0000*60
$GPRMC,164928.000,A,4026.6987,N,07520.5986,W,0.31,189.31,100612,,,D*7F
$GPGGA,164929.000,400,187.78,100612,,,D*76
$PMTK001,314,3*36
$PMTK001,220,3*30
$PMTK001,185,3*3C
$GPGGA,164928.000,4026.6987,N,07520.5986,W,2,9,0.92,149.5,M,-33.9,M,0000,0000*60
$GPRMC,164928.000,A,4026.6987,N,07520.5986,W,0.31,189.31,100612,,,D*7F
$GPGGA,164929.000,400,187.78,100612,,,D*76
$PMTK001,314,3*36
$PMTK001,220,3*30
$PMTK001,185,3*3C
$GPGGA,164928.000,4026.6987,N,07520.5986,W,2,9,0.92,149.5,M,-33.9,M,0000,0000*60
$GPRMC,164928.000,A,4026.6987,N,07520.5986,W,0.31,189.31,100612,,,D*7F
$GPGGA,164929.000,400,187.78,100612,,,D*76
$PMTK001,314,3*36
$PMTK001,220,3*30
$PMTK001,185,3*3C
$GPGGA,164928.000,4026.6987,N,07520.5986,W,2,9,0.92,149.5,M,-33.9,M,0000,0000*60
$GPRMC,164928.000,A,4026.6987,N,07520.5986,W,0.31,189.31,100612,,,D*7F
$GPGGA,164929.000,400,187.78,100612,,,D*76
$PMTK001,314,3*36
$PMTK001,220,3*30
$PMTK001,185,3*3C
$GPGGA,164928.000,4026.6987,N,07520.5986,W,2,9,0.92,149.5,M,-33.9,M,0000,0000*60
$GPRMC,164928.000,A,4026.6987,N,07520.5986,W,0.31,189.31,100612,,,D*7F
$GPGGA,164929.000,400,187.78,100612,,,D*76
$PMTK001,314,3*36
$PMTK001,220,3*30
$PMTK001,185,3*3C
$GPGGA,164928.000,4026.6987,N,07520.5986,W,2,9,0.92,149.5,M,-33.9,M,0000,0000*60
$GPRMC,164928.000,A,4026.6987,N,07520.5986,W,0.31,189.31,100612,,,D*7F
$GPGGA,164929.000,400,187.78,100612,,,D*76
$PMTK001,314,3*36
$PMTK001,220,3*30
$PMTK001,185,3*3C
$GPGGA,164928.000,4026.6987,N,07520.5986,W,2,9,0.92,149.5,M,-33.9,M,0000,0000*60
$GPRMC,164928.000,A,4026.6987,N,07520.5986,W,0.31,189.31,100612,,,D*7F
$GPGGA,164929.000,400,187.78,100612,,,D*76
$PMTK001,314,3*36
$PMTK001,220,3*30
$PMTK001,185,3*3C
$GPGGA,164928.000,4026.6987,N,07520.5986,W,2,9,0.92,149.5,M,-33.9,M,0000,0000*60
$GPRMC,164928.000,A,4026.6987,N,07520.5986,W,0.31,189.31,100612,,,D*7F
$GPGGA,164929.000,400,187.78,100612,,,D*76
$PMTK001,314,3*36
$PMTK001,220,3*30
$PMTK001,185,3*3C
$GPGGA,164928.000,4026.6987,N,07520.5986,W,2,9,0.92,149.5,M,-33.9,M,0000,0000*60
$GPRMC,164928.000,A,4026.6987,N,07520.5986,W,0.31,189.31,100612,,,D*7F
$GPGGA,164929.000,400,187.78,100612,,,D*76
$PMTK001,314,3*36
$PMTK001,220,3*30
$PMTK001,185,3*3C
$GPGGA,164928.000,4026.6987,N,07520.5986,W,2,9,0.92,149.5,M,-33.9,M,0000,0000*60
$GPRMC,164928.000,A,4026.6987,N,07520.5986,W,0.31,189.31,100612,,,D*7F
$GPGGA,164929.000,400,187.78,100612,,,D*76
$PMTK001,314,3*36
$PMTK001,220,3*30
$PMTK001,185,3*3C
$GPGGA,164928.000,4026.6987,N,07520.5986,W,2,9,0.92,149.5,M,-33.9,M,0000,0000*60
$GPRMC,164928.000,A,4026.6987,N,07520.5986,W,0.31,189.31,100612,,,D*7F
$GPGGA,164929.000,400,187.78,100612,,,D*76
$PMTK001,314,3*36
$PMTK001,220,3*30
$PMTK001,185,3*3C
$GPGGA,164928.000,4026.6987,N,07520.5986,W,2,9,0.92,149.5,M,-33.9,M,0000,0000*60
$GPRMC,164928.000,A,4026.6987,N,07520.5986,W,0.31,189.31,100612,,,D*7F
$GPGGA,164929.000,400,187.78,100612,,,D*76
$PMTK001,314,3*36
$PMTK001,220,3*30
$PMTK001,185,3*3C
$GPGGA,164928.000,4026.6987,N,07520.5986,W,2,9,0.92,149.5,M,-33.9,M,0000,0000*60
$GPRMC,164928.000,A,4026.6987,N,07520.5986,W,0.31,189.31,100612,,,D*7F
$GPGGA,164929.000,400,187.78,100612,,,D*76
$PMTK001,314,3*36
$PMTK001,220,3*30
$PMTK001,185,3*3C
$GPGGA,164928.000,4026.6987,N,07520.5986,W,2,9,0.92,149.5,M,-33.9,M,0000,0000*60
$GPRMC,164928.000,A,4026.6987,N,07520.5986,W,0.31,189.31,100612,,,D*7F
$GPGGA,164929.000,400,187.78,100612,,,D*76
$PMTK001,314,3*36
$PMTK001,220,3*30
$PMTK001,185,3*3C
$GPGGA,164928.000,4026.6987,N,07520.5986,W,2,9,0.92,149.5,M,-33.9,M,0000,0000*60
$GPRMC,164928.000,A,4026.6987,N,07520.5986,W,0.31,189.31,100612,,,D*7F
$GPGGA,164929.000,400,187.78,100612,,,D*76
$PMTK001,314,3*36
$PMTK001,220,3*30
$PMTK001,185,3*3C
$GPGGA,164928.000,4026.6987,N,07520.5986,W,2,9,0.92,149.5,M,-33.9,M,0000,0000*60
$GPRMC,164928.000,A,4026.6987,N,07520.5986,W,0.31,189.31,100612,,,D*7F
$GPGGA,164929.000,400,187.78,100612,,,D*76
$PMTK001,314,3*36
$PMTK001,220,3*30
$PMTK001,185,3*3C
$GPGGA,164928.000,4026.6987,N,07520.5986,W,2,9,0.92,149.5,M,-33.9,M,0000,0000*60
$GPRMC,164928.000,A,4026.6987,N,07520.5986,W,0.31,189.31,100612,,,D*7F
$GPGGA,164929.000,400,187.78,100612,,,D*76
$PMTK001,314,3*36
$PMTK001,220,3*30
$PMTK001,185,3*3C
$GPGGA,164928.000,4026.6987,N,07520.5986,W,2,9,0.92,149.5,M,-33.9,M,0000,0000*60
$GPRMC,164928.000,A,4026.6987,N,07520.5986,W,0.31,189.31,100612,,,D*7F
$GPGGA,164929.000,400,187.78,100612,,,D*76
$PMTK001,314,3*36
$PMTK001,220,3*30
$PMTK001,185,3*3C
$GPGGA,164928.000,4026.6987,N,07520.5986,W,2,9,0.92,149.5,M,-33.9,M,0000,0000*60
$GPRMC,164928.000,A,4026.6987,N,07520.5986,W,0.31,189.31,100612,,,D*7F
$GPGGA,164929.000,400,187.78,100612,,,D*76
$PMTK001,314,3*36
$PMTK001,220,3*30
$PMTK001,185,3*3C
$GPGGA,164928.000,4026.6987,N,07520.5986,W,2,9,0.92,149.5,M,-33.9,M,0000,0000*60
$GPRMC,164928.000,A,4026.6987,N,07520.5986,W,0.31,189.31,100612,,,D*7F
$GPGGA,164929.000,400,187.78,100612,,,D*76
$PMTK001,314,3*36
$PMTK001,220,3*30
$PMTK001,185,3*3C
$GPGGA,164928.000,4026.6987,N,07520.5986,W,2,9,0.92,149.5,M,-33.9,M,0000,0000*60
$GPRMC,164928.000,A,4026.6987,N,07520.5986,W,0.31,189.31,100612,,,D*7F
$GPGGA,164929.000,400,187.78,100612,,,D*76
$PMTK001,314,3*36
$PMTK001,220,3*30
$PMTK001,185,3*3C
$GPGGA,164928.000,4026.6987,N,07520.5986,W,2,9,0.92,149.5,M,-33.9,M,0000,0000*60
$GPRMC,164928.000,A,4026.6987,N,07520.5986,W,0.31,189.31,100612,,,D*7F
$GPGGA,164929.000,400,187.78,100612,,,D*76
$PMTK001,314,3*36
$PMTK001,220,3*30
$PMTK001,185,3*3C
$GPGGA,164928.000,4026.6987,N,07520.5986,W,2,9,0.92,149.5,M,-33.9,M,0000,0000*60
$GPRMC,164928.000,A,4026.6987,N,07520.5986,W,0.31,189.31,100612,,,D*7F
$GPGGA,164929.000,400,187.78,100612,,,D*76
$PMTK001,314,3*36
$PMTK001,220,3*30
$PMTK001,185,3*3C
$GPGGA,164928.000,4026.6987,N,07520.5986,W,2,9,0.92,149.5,M,-33.9,M,0000,0000*60
$GPRMC,164928.000,A,4026.6987,N,07520.5986,W,0.31,189.31,100612,,,D*7F
$GPGGA,164929.000,400,187.78,100612,,,D*76
$PMTK001,314,3*36
$PMTK001,220,3*30
$PMTK001,185,3*3C
$GPGGA,164928.000,4026.6987,N,07520.5986,W,2,9,0.92,149.5,M,-33.9,M,0000,0000*60
$GPRMC,164928.000,A,4026.6987,N,07520.5986,W,0.31,189.31,100612,,,D*7F
$GPGGA,164929.000,400,187.78,100612,,,D*76
$PMTK001,314,3*36
$PMTK001,220,3*30
$PMTK001,185,3*3C
$GPGGA,164928.000,4026.6987,N,07520.5986,W,2,9,0.92,149.5,M,-33.9,M,0000,0000*60
$GPRMC,164928.000,A,4026.6987,N,07520.5986,W,0.31,189.31,100612,,,D*7F
$GPGGA,164929.000,400,187.78,100612,,,D*76
$PMTK001,314,3*36
$PMTK001,220,3*30
$PMTK001,185,3*3C
$GPGGA,164928.000,4026.6987,N,07520.5986,W,2,9,0.92,149.5,M,-33.9,M,0000,0000*60
$GPRMC,164928.000,A,4026.6987,N,07520.5986,W,0.31,189.31,100612,,,D*7F
$GPGGA,164929.000,400,187.78,100612,,,D*76
$PMTK001,314,3*36
$PMTK001,220,3*30
$PMTK001,185,3*3C
$GPGGA,164928.000,4026.6987,N,07520.5986,W,2,9,0.92,149.5,M,-33.9,M,0000,0000*60
$GPRMC,164928.000,A,4026.6987,N,07520.5986,W,0.31,189.31,100612,,,D*7F
$GPGGA,164929.000,400,187.78,100612,,,D*76
$PMTK001,314,3*36
$PMTK001,220,3*30
$PMTK001,185,3*3C
$GPGGA,164928.000,4026.6987,N,07520.5986,W,2,9,0.92,149.5,M,-33.9,M,0000,0000*60
$GPRMC,164928.000,A,4026.6987,N,07520.5986,W,0.31,189.31,100612,,,D*7F
$GPGGA,164929.000,400,187.78,100612,,,D*76
$PMTK001,314,3*36
$PMTK001,220,3*30
$PMTK001,185,3*3C
$GPGGA,164928.000,4026.6987,N,07520.5986,W,2,9,0.92,149.5,M,-33.9,M,0000,0000*60
$GPRMC,164928.000,A,4026.6987,N,07520.5986,W,0.31,189.31,100612,,,D*7F
$GPGGA,164929.000,400,187.78,100612,,,D*76
$PMTK001,314,3*36
$PMTK001,220,3*30
$PMTK001,185,3*3C
$GPGGA,164928.000,4026.6987,N,07520.5986,W,2,9,0.92,149.5,M,-33.9,M,0000,0000*60
$GPRMC,164928.000,A,4026.6987,N,07520.5986,W,0.31,189.31,100612,,,D*7F
$GPGGA,164929.000,400,187.78,100612,,,D*76
$PMTK001,314,3*36
$PMTK001,220,3*30
$PMTK001,185,3*3C
$GPGGA,164928.000,4026.6987,N,07520.5986,W,2,9,0.92,149.5,M,-33.9,M,0000,0000*60
$GPRMC,164928.000,A,4026.6987,N,07520.5986,W,0.31,189.31,100612,,,D*7F
$GPGGA,164929.000,400,187.78,100612,,,D*76
$PMTK001,314,3*36
$PMTK001,220,3*30
$PMTK001,185,3*3C
$GPGGA,164928.000,4026.6987,N,07520.5986,W,2,9,0.92,149.5,M,-33.9,M,0000,0000*60
$GPRMC,164928.000,A,4026.6987,N,07520.5986,W,0.31,189.31,100612,,,D*7F
$GPGGA,164929.000,40