$PMTK001,314,3*36
$PMTK001,220,3*30
$PMTK001,185,3*3C
$GPGGA,185639.000,4005.6587,N,07503.3060,W,2,12,0.74,9924.6,M,-34.0,M,0000,0000*6E
$GPRMC,185639.000,A,4005.6587,N,07503.3060,W,28.10,130.72,100612,,,D*48
$GPGGA,185640.000,4005.6536,N,07503.2985,$PMTK001,314,3*36
$PMTK001,220,3*30
$PMTK001,185,3*3C
$GPGGA,185639.000,4005.6587,N,07503.3060,W,2,12,0.74,9924.6,M,-34.0,M,0000,0000*6E
$GPRMC,185639.000,A,4005.6587,N,07503.3060,W,28.10,130.72,100612,,,D*48
$GPGGA,185640.000,4005.6536,N,07503.2985,$PMTK001,314,3*36
$PMTK001,220,3*30
$PMTK001,185,3*3C
$GPGGA,185639.000,4005.6587,N,07503.3060,W,2,12,0.74,9924.6,M,-34.0,M,0000,0000*6E
$GPRMC,185639.000,A,4005.6587,N,07503.3060,W,28.10,130.72,100612,,,D*48
$GPGGA,185640.000,4005.6536,N,07503.2985,$PMTK001,314,3*36
$PMTK001,220,3*30
$PMTK001,185,3*3C
$GPGGA,185639.000,4005.6587,N,07503.3060,W,2,12,0.74,9924.6,M,-34.0,M,0000,0000*6E
$GPRMC,185639.000,A,4005.6587,N,07503.3060,W,28.10,130.72,100612,,,D*48
$GPGGA,185640.000,4005.6536,N,07503.2985,$PMTK001,314,3*36
$PMTK001,220,3*30
$PMTK001,185,3*3C
$GPGGA,185639.000,4005.6587,N,07503.3060,W,2,12,0.74,9924.6,M,-34.0,M,0000,0000*6E
$GPRMC,185639.000,A,4005.6587,N,07503.3060,W,28.10,130.72,100612,,,D*48
$GPGGA,185640.000,4005.6536,N,07503.2985,$PMTK001,314,3*36
$PMTK001,220,3*30
$PMTK001,185,3*3C
$GPGGA,185639.000,4005.6587,N,07503.3060,W,2,12,0.74,9924.6,M,-34.0,M,0000,0000*6E
$GPRMC,185639.000,A,4005.6587,N,07503.3060,W,28.10,130.72,100612,,,D*48
$GPGGA,185640.000,4005.6536,N,07503.2985,$PMTK001,314,3*36
$PMTK001,220,3*30
$PMTK001,185,3*3C
$GPGGA,185639.000,4005.6587,N,07503.3060,W,2,12,0.74,9924.6,M,-34.0,M,0000,0000*6E
$GPRMC,185639.000,A,4005.6587,N,07503.3060,W,28.10,130.72,100612,,,D*48
$GPGGA,185640.000,4005.6536,N,07503.2985,$PMTK001,314,3*36
$PMTK001,220,3*30
$PMTK001,185,3*3C
$GPGGA,185639.000,4005.6587,N,07503.3060,W,2,12,0.74,9924.6,M,-34.0,M,0000,0000*6E
$GPRMC,185639.000,A,4005.6587,N,07503.3060,W,28.10,130.72,100612,,,D*48
$GPGGA,185640.000,4005.6536,N,07503.2985,$PMTK001,314,3*36
$PMTK001,220,3*30
$PMTK001,185,3*3C
$GPGGA,185639.000,4005.6587,N,07503.3060,W,2,12,0.74,9924.6,M,-34.0,M,0000,0000*6E
$GPRMC,185639.000,A,4005.6587,N,07503.3060,W,28.10,130.72,100612,,,D*48
$GPGGA,185640.000,4005.6536,N,07503.2985,$PMTK001,314,3*36
$PMTK001,220,3*30
$PMTK001,185,3*3C
$GPGGA,185639.000,4005.6587,N,07503.3060,W,2,12,0.74,9924.6,M,-34.0,M,0000,0000*6E
$GPRMC,185639.000,A,4005.6587,N,07503.3060,W,28.10,130.72,100612,,,D*48
$GPGGA,185640.000,4005.6536,N,07503.2985,$PMTK001,314,3*36
$PMTK001,220,3*30
$PMTK001,185,3*3C
$GPGGA,185639.000,4005.6587,N,07503.3060,W,2,12,0.74,9924.6,M,-34.0,M,0000,0000*6E
$GPRMC,185639.000,A,4005.6587,N,07503.3060,W,28.10,130.72,100612,,,D*48
$GPGGA,185640.000,4005.6536,N,07503.2985,$PMTK001,314,3*36
$PMTK001,220,3*30
$PMTK001,185,3*3C
$GPGGA,185639.000,4005.6587,N,07503.3060,W,2,12,0.74,9924.6,M,-34.0,M,0000,0000*6E
$GPRMC,185639.000,A,4005.6587,N,07503.3060,W,28.10,130.72,100612,,,D*48
$GPGGA,185640.000,4005.6536,N,07503.2985,$PMTK001,314,3*36
$PMTK001,220,3*30
$PMTK001,185,3*3C
$GPGGA,185639.000,4005.6587,N,07503.3060,W,2,12,0.74,9924.6,M,-34.0,M,0000,0000*6E
$GPRMC,185639.000,A,4005.6587,N,07503.3060,W,28.10,130.72,100612,,,D*48
$GPGGA,185640.000,4005.6536,N,07503.2985,$PMTK001,314,3*36
$PMTK001,220,3*30
$PMTK001,185,3*3C
$GPGGA,185639.000,4005.6587,N,07503.3060,W,2,12,0.74,9924.6,M,-34.0,M,0000,0000*6E
$GPRMC,185639.000,A,4005.6587,N,07503.3060,W,28.10,130.72,100612,,,D*48
$GPGGA,185640.000,4005.6536,N,07503.2985,$PMTK001,314,3*36
$PMTK001,220,3*30
$PMTK001,185,3*3C
$GPGGA,185639.000,4005.6587,N,07503.3060,W,2,12,0.74,9924.6,M,-34.0,M,0000,0000*6E
$GPRMC,185639.000,A,4005.6587,N,07503.3060,W,28.10,130.72,100612,,,D*48
$GPGGA,185640.000,4005.6536,N,07503.2985,$PMTK001,314,3*36
$PMTK001,220,3*30
$PMTK001,185,3*3C
$GPGGA,185639.000,4005.6587,N,07503.3060,W,2,12,0.74,9924.6,M,-34.0,M,0000,0000*6E
$GPRMC,185639.000,A,4005.6587,N,07503.3060,W,28.10,130.72,100612,,,D*48
$GPGGA,185640.000,4005.6536,N,07503.2985,$PMTK001,314,3*36
$PMTK001,220,3*30
$PMTK001,185,3*3C
$GPGGA,185639.000,4005.6587,N,07503.3060,W,2,12,0.74,9924.6,M,-34.0,M,0000,0000*6E
$GPRMC,185639.000,A,4005.6587,N,07503.3060,W,28.10,130.72,100612,,,D*48
$GPGGA,185640.000,4005.6536,N,07503.2985,$PMTK001,314,3*36
$PMTK001,220,3*30
$PMTK001,185,3*3C
$GPGGA,185639.000,4005.6587,N,07503.3060,W,2,12,0.74,9924.6,M,-34.0,M,0000,0000*6E
$GPRMC,185639.000,A,4005.6587,N,07503.3060,W,28.10,130.72,100612,,,D*48
$GPGGA,185640.000,4005.6536,N,07503.2985,$PMTK001,314,3*36
$PMTK001,220,3*30
$PMTK001,185,3*3C
$GPGGA,185639.000,4005.6587,N,07503.3060,W,2,12,0.74,9924.6,M,-34.0,M,0000,0000*6E
$GPRMC,185639.000,A,4005.6587,N,07503.3060,W,28.10,130.72,100612,,,D*48
$GPGGA,185640.000,4005.6536,N,07503.2985,$PMTK001,314,3*36
$PMTK001,220,3*30
$PMTK001,185,3*3C
$GPGGA,185639.000,4005.6587,N,07503.3060,W,2,12,0.74,9924.6,M,-34.0,M,0000,0000*6E
$GPRMC,185639.000,A,4005.6587,N,07503.3060,W,28.10,130.72,100612,,,D*48
$GPGGA,185640.000,4005.6536,N,07503.2985,$PMTK001,314,3*36
$PMTK001,220,3*30
$PMTK001,185,3*3C
$GPGGA,185639.000,4005.6587,N,07503.3060,W,2,12,0.74,9924.6,M,-34.0,M,0000,0000*6E
$GPRMC,185639.000,A,4005.6587,N,07503.3060,W,28.10,130.72,100612,,,D*48
$GPGGA,185640.000,4005.6536,N,07503.2985,$PMTK001,314,3*36
$PMTK001,220,3*30
$PMTK001,185,3*3C
$GPGGA,185639.000,4005.6587,N,07503.3060,W,2,12,0.74,9924.6,M,-34.0,M,0000,0000*6E
$GPRMC,185639.000,A,4005.6587,N,07503.3060,W,28.10,130.72,100612,,,D*48
$GPGGA,185640.000,4005.6536,N,07503.2985,$PMTK001,314,3*36
$PMTK001,220,3*30
$PMTK001,185,3*3C
$GPGGA,185639.000,4005.6587,N,07503.3060,W,2,12,0.74,9924.6,M,-34.0,M,0000,0000*6E
$GPRMC,185639.000,A,4005.6587,N,07503.3060,W,28.10,130.72,100612,,,D*48
$GPGGA,185640.000,4005.6536,N,07503.2985,$PMTK001,314,3*36
$PMTK001,220,3*30
$PMTK001,185,3*3C
$GPGGA,185639.000,4005.6587,N,07503.3060,W,2,12,0.74,9924.6,M,-34.0,M,0000,0000*6E
$GPRMC,185639.000,A,4005.6587,N,07503.3060,W,28.10,130.72,100612,,,D*48
$GPGGA,185640.000,4005.6536,N,07503.2985,$PMTK001,314,3*36
$PMTK001,220,3*30
$PMTK001,185,3*3C
$GPGGA,185639.000,4005.6587,N,07503.3060,W,2,12,0.74,9924.6,M,-34.0,M,0000,0000*6E
$GPRMC,185639.000,A,4005.6587,N,07503.3060,W,28.10,130.72,100612,,,D*48
$GPGGA,185640.000,4005.6536,N,07503.2985,$PMTK001,314,3*36
$PMTK001,220,3*30
$PMTK001,185,3*3C
$GPGGA,185639.000,4005.6587,N,07503.3060,W,2,12,0.74,9924.6,M,-34.0,M,0000,0000*6E
$GPRMC,185639.000,A,4005.6587,N,07503.3060,W,28.10,130.72,100612,,,D*48
$GPGGA,185640.000,4005.6536,N,07503.2985,$PMTK001,314,3*36
$PMTK001,220,3*30
$PMTK001,185,3*3C
$GPGGA,185639.000,4005.6587,N,07503.3060,W,2,12,0.74,9924.6,M,-34.0,M,0000,0000*6E
$GPRMC,185639.000,A,4005.6587,N,07503.3060,W,28.10,130.72,100612,,,D*48
$GPGGA,185640.000,4005.6536,N,07503.2985,$PMTK001,314,3*36
$PMTK001,220,3*30
$PMTK001,185,3*3C
$GPGGA,185639.000,4005.6587,N,07503.3060,W,2,12,0.74,9924.6,M,-34.0,M,0000,0000*6E
$GPRMC,185639.000,A,4005.6587,N,07503.3060,W,28.10,130.72,100612,,,D*48
$GPGGA,185640.000,4005.6536,N,07503.2985,$PMTK001,314,3*36
$PMTK001,220,3*30
$PMTK001,185,3*3C
$GPGGA,185639.000,4005.6587,N,07503.3060,W,2,12,0.74,9924.6,M,-34.0,M,0000,0000*6E
$GPRMC,185639.000,A,4005.6587,N,07503.3060,W,28.10,130.72,100612,,,D*48
$GPGGA,185640.000,4005.6536,N,07503.2985,$PMTK001,314,3*36
$PMTK001,220,3*30
$PMTK001,185,3*3C
$GPGGA,185639.000,4005.6587,N,07503.3060,W,2,12,0.74,9924.6,M,-34.0,M,0000,0000*6E
$GPRMC,185639.000,A,4005.6587,N,07503.3060,W,28.10,130.72,100612,,,D*48
$GPGGA,185640.000,4005.6536,N,07503.2985,$PMTK001,314,3*36
$PMTK001,220,3*30
$PMTK001,185,3*3C
$GPGGA,185639.000,4005.6587,N,07503.3060,W,2,12,0.74,9924.6,M,-34.0,M,0000,0000*6E
$GPRMC,185639.000,A,4005.6587,N,07503.3060,W,28.10,130.72,100612,,,D*48
$GPGGA,185640.000,4005.6536,N,07503.2985,$PMTK001,314,3*36
$PMTK001,220,3*30
$PMTK001,185,3*3C
$GPGGA,185639.000,4005.6587,N,07503.3060,W,2,12,0.74,9924.6,M,-34.0,M,0000,0000*6E
$GPRMC,185639.000,A,4005.6587,N,07503.3060,W,28.10,130.72,100612,,,D*48
$GPGGA,185640.000,4005.6536,N,07503.2985,$PMTK001,314,3*36
$PMTK001,220,3*30
$PMTK001,185,3*3C
$GPGGA,185639.000,4005.6587,N,07503.3060,W,2,12,0.74,9924.6,M,-34.0,M,0000,0000*6E
$GPRMC,185639.000,A,4005.6587,N,07503.3060,W,28.10,130.72,100612,,,D*48
$GPGGA,185640.000,4005.6536,N,07503.2985,$PMTK001,314,3*36
$PMTK001,220,3*30
$PMTK001,185,3*3C
$GPGGA,185639.000,4005.6587,N,07503.3060,W,2,12,0.74,9924.6,M,-34.0,M,0000,0000*6E
$GPRMC,185639.000,A,4005.6587,N,07503.3060,W,28.10,130.72,100612,,,D*48
$GPGGA,185640.000,4005.6536,N,07503.2985,$PMTK001,314,3*36
$PMTK001,220,3*30
$PMTK001,185,3*3C
$GPGGA,185639.000,4005.6587,N,07503.3060,W,2,12,0.74,9924.6,M,-34.0,M,0000,0000*6E
$GPRMC,185639.000,A,4005.6587,N,07503.3060,W,28.10,130.72,100612,,,D*48
$GPGGA,185640.000,4005.6536,N,07503.2985,$PMTK001,314,3*36
$PMTK001,220,3*30
$PMTK001,185,3*3C
$GPGGA,185639.000,4005.6587,N,07503.3060,W,2,12,0.74,9924.6,M,-34.0,M,0000,0000*6E
$GPRMC,185639.000,A,4005.6587,N,07503.3060,W,28.10,130.72,100612,,,D*48
$GPGGA,185640.000,4005.6536,N,07503.2985,$PMTK001,314,3*36
$PMTK001,220,3*30
$PMTK001,185,3*3C
$GPGGA,185639.000,4005.6587,N,07503.3060,W,2,12,0.74,9924.6,M,-34.0,M,0000,0000*6E
$GPRMC,185639.000,A,4005.6587,N,07503.3060,W,28.10,130.72,100612,,,D*48
$GPGGA,185640.000,4005.6536,N,07503.2985,$PMTK001,314,3*36
$PMTK001,220,3*30
$PMTK001,185,3*3C
$GPGGA,185639.000,4005.6587,N,07503.3060,W,2,12,0.74,9924.6,M,-34.0,M,0000,0000*6E
$GPRMC,185639.000,A,4005.6587,N,07503.3060,W,28.10,130.72,100612,,,D*48
$GPGGA,185640.000,4005.6536,N,07503.2985,$PMTK001,314,3*36
$PMTK001,220,3*30
$PMTK001,185,3*3C
$GPGGA,185639.000,4005.6587,N,07503.3060,W,2,12,0.74,9924.6,M,-34.0,M,0000,0000*6E
$GPRMC,185639.000,A,4005.6587,N,07503.3060,W,28.10,130.72,100612,,,D*48
$GPGGA,185640.000,4005.6536,N,07503.2985,$PMTK001,314,3*36
$PMTK001,220,3*30
$PMTK001,185,3*3C
$GPGGA,185639.000,4005.6587,N,07503.3060,W,2,12,0.74,9924.6,M,-34.0,M,0000,0000*6E
$GPRMC,185639.000,A,4005.6587,N,07503.3060,W,28.10,130.72,100612,,,D*48
$GPGGA,185640.000,4005.6536,N,07503.2985,$PMTK001,314,3*36
$PMTK001,220,3*30
$PMTK001,185,3*3C
$GPGGA,185639.000,4005.6587,N,07503.3060,W,2,12,0.74,9924.6,M,-34.0,M,0000,0000*6E
$GPRMC,185639.000,A,4005.6587,N,07503.3060,W,28.10,130.72,100612,,,D*48
$GPGGA,185640.000,4005.6536,N,07503.2985,$PMTK001,314,3*36
$PMTK001,220,3*30
$PMTK001,185,3*3C
$GPGGA,185639.000,4005.6587,N,07503.3060,W,2,12,0.74,9924.6,M,-34.0,M,0000,0000*6E
$GPRMC,185639.000,A,4005.6587,N,07503.3060,W,28.10,130.72,100612,,,D*48
$GPGGA,185640.000,4005.6536,N,07503.2985,$PMTK001,314,3*36
$PMTK001,220,3*30
$PMTK001,185,3*3C
$GPGGA,185639.000,4005.6587,N,07503.3060,W,2,12,0.74,9924.6,M,-34.0,M,0000,0000*6E
$GPRMC,185639.000,A,4005.6587,N,07503.3060,W,28.10,130.72,100612,,,D*48
$GPGGA,185640.000,4005.6536,N,07503.2985,$PMTK001,314,3*36
$PMTK001,220,3*30
$PMTK001,185,3*3C
$GPGGA,185639.000,4005.6587,N,07503.3060,W,2,12,0.74,9924.6,M,-34.0,M,0000,0000*6E
$GPRMC,185639.000,A,4005.6587,N,07503.3060,W,28.10,130.72,100612,,,D*48
$GPGGA,185640.000,4005.6536,N,07503.2985,$PMTK001,314,3*36
$PMTK001,220,3*30
$PMTK001,185,3*3C
$GPGGA,185639.000,4005.6587,N,07503.3060,W,2,12,0.74,9924.6,M,-34.0,M,0000,0000*6E
$GPRMC,185639.000,A,4005.6587,N,07503.3060,W,28.10,130.72,100612,,,D*48
$GPGGA,185640.000,4005.6536,N,07503.2985,$PMTK001,314,3*36
$PMTK001,220,3*30
$PMTK001,185,3*3C
$GPGGA,185639.000,4005.6587,N,07503.3060,W,2,12,0.74,9924.6,M,-34.0,M,0000,0000*6E
$GPRMC,185639.000,A,4005.6587,N,07503.3060,W,28.10,130.72,100612,,,D*48
$GPGGA,185640.000,4005.6536,N,07503.2985,$PMTK001,314,3*36
$PMTK001,220,3*30
$PMTK001,185,3*3C
$GPGGA,185639.000,4005.6587,N,07503.3060,W,2,12,0.74,9924.6,M,-34.0,M,0000,0000*6E
$GPRMC,185639.000,A,4005.6587,N,07503.3060,W,28.10,130.72,100612,,,D*48
$GPGGA,185640.000,4005.6536,N,07503.2985,$PMTK001,314,3*36
$PMTK001,220,3*30
$PMTK001,185,3*3C
$GPGGA,185639.000,4005.6587,N,07503.3060,W,2,12,0.74,9924.6,M,-34.0,M,0000,0000*6E
$GPRMC,185639.000,A,4005.6587,N,07503.3060,W,28.10,130.72,100612,,,D*48
$GPGGA,185640.000,4005.6536,N,07503.2985,$PMTK001,314,3*36
$PMTK001,220,3*30
$PMTK001,185,3*3C
$GPGGA,185639.000,4005.6587,N,07503.3060,W,2,12,0.74,9924.6,M,-34.0,M,0000,0000*6E
$GPRMC,185639.000,A,4005.6587,N,07503.3060,W,28.10,130.72,100612,,,D*48
$GPGGA,185640.000,4005.6536,N,07503.2985,$PMTK001,314,3*36
$PMTK001,220,3*30
$PMTK001,185,3*3C
$GPGGA,185639.000,4005.6587,N,07503.3060,W,2,12,0.74,9924.6,M,-34.0,M,0000,0000*6E
$GPRMC,185639.000,A,4005.6587,N,07503.3060,W,28.10,130.72,100612,,,D*48
$GPGGA,185640.000,4005.6536,N,07503.2985,$PMTK001,314,3*36
$PMTK001,220,3*30
$PMTK001,185,3*3C
$GPGGA,185639.000,4005.6587,N,07503.3060,W,2,12,0.74,9924.6,M,-34.0,M,0000,0000*6E
$GPRMC,185639.000,A,4005.6587,N,07503.3060,W,28.10,130.72,100612,,,D*48
$GPGGA,185640.000,4005.6536,N,07503.2985,$PMTK001,314,3*36
$PMTK001,220,3*30
$PMTK001,185,3*3C
$GPGGA,185639.000,4005.6587,N,07503.3060,W,2,12,0.74,9924.6,M,-34.0,M,0000,0000*6E
$GPRMC,185639.000,A,4005.6587,N,07503.3060,W,28.10,130.72,100612,,,D*48
$GPGGA,185640.000,4005.6536,N,07503.2985,$PMTK001,314,3*36
$PMTK001,220,3*30
$PMTK001,185,3*3C
$GPGGA,185639.000,4005.6587,N,07503.3060,W,2,12,0.74,9924.6,M,-34.0,M,0000,0000*6E
$GPRMC,185639.000,A,4005.6587,N,07503.3060,W,28.10,130.72,100612,,,D*48
$GPGGA,185640.000,4005.6536,N,07503.2985,$PMTK001,314,3*36
$PMTK001,220,3*30
$PMTK001,185,3*3C
$GPGGA,185639.000,4005.6587,N,07503.3060,W,2,12,0.74,9924.6,M,-34.0,M,0000,0000*6E
$GPRMC,185639.000,A,4005.6587,N,07503.3060,W,28.10,130.72,100612,,,D*48
$GPGGA,185640.000,4005.6536,N,07503.2985,$PMTK001,314,3*36
$PMTK001,220,3*30
$PMTK001,185,3*3C
$GPGGA,185639.000,4005.6587,N,07503.3060,W,2,12,0.74,9924.6,M,-34.0,M,0000,0000*6E
$GPRMC,185639.000,A,4005.6587,N,07503.3060,W,28.10,130.72,100612,,,D*48
$GPGGA,185640.000,4005.6536,N,07503.2985,$PMTK001,314,3*36
$PMTK001,220,3*30
$PMTK001,185,3*3C
$GPGGA,185639.000,4005.6587,N,07503.3060,W,2,12,0.74,9924.6,M,-34.0,M,0000,0000*6E
$GPRMC,185639.000,A,4005.6587,N,07503.3060,W,28.10,130.72,100612,,,D*48
$GPGGA,185640.000,4005.6536,N,07503.2985,