$PMTK001,314,3*36
$PMTK001,220,3*30
$PMTK001,185,3*3C
$GPGGA,180439.000,4023.4121,N,07517.6711,W,2,10,0.82,3350.0,M,-33.9,M,0000,0000*66
$GPRMC,180439.000,A,4023.4121,N,07517.6711,W,22.84,152.14,100612,,,D*43
$GPGGA,180440.000,4023.4065,N,07517.6672,$PMTK001,314,3*36
$PMTK001,220,3*30
$PMTK001,185,3*3C
$GPGGA,180439.000,4023.4121,N,07517.6711,W,2,10,0.82,3350.0,M,-33.9,M,0000,0000*66
$GPRMC,180439.000,A,4023.4121,N,07517.6711,W,22.84,152.14,100612,,,D*43
$GPGGA,180440.000,4023.4065,N,07517.6672,$PMTK001,314,3*36
$PMTK001,220,3*30
$PMTK001,185,3*3C
$GPGGA,180439.000,4023.4121,N,07517.6711,W,2,10,0.82,3350.0,M,-33.9,M,0000,0000*66
$GPRMC,180439.000,A,4023.4121,N,07517.6711,W,22.84,152.14,100612,,,D*43
$GPGGA,180440.000,4023.4065,N,07517.6672,$PMTK001,314,3*36
$PMTK001,220,3*30
$PMTK001,185,3*3C
$GPGGA,180439.000,4023.4121,N,07517.6711,W,2,10,0.82,3350.0,M,-33.9,M,0000,0000*66
$GPRMC,180439.000,A,4023.4121,N,07517.6711,W,22.84,152.14,100612,,,D*43
$GPGGA,180440.000,4023.4065,N,07517.6672,$PMTK001,314,3*36
$PMTK001,220,3*30
$PMTK001,185,3*3C
$GPGGA,180439.000,4023.4121,N,07517.6711,W,2,10,0.82,3350.0,M,-33.9,M,0000,0000*66
$GPRMC,180439.000,A,4023.4121,N,07517.6711,W,22.84,152.14,100612,,,D*43
$GPGGA,180440.000,4023.4065,N,07517.6672,$PMTK001,314,3*36
$PMTK001,220,3*30
$PMTK001,185,3*3C
$GPGGA,180439.000,4023.4121,N,07517.6711,W,2,10,0.82,3350.0,M,-33.9,M,0000,0000*66
$GPRMC,180439.000,A,4023.4121,N,07517.6711,W,22.84,152.14,100612,,,D*43
$GPGGA,180440.000,4023.4065,N,07517.6672,$PMTK001,314,3*36
$PMTK001,220,3*30
$PMTK001,185,3*3C
$GPGGA,180439.000,4023.4121,N,07517.6711,W,2,10,0.82,3350.0,M,-33.9,M,0000,0000*66
$GPRMC,180439.000,A,4023.4121,N,07517.6711,W,22.84,152.14,100612,,,D*43
$GPGGA,180440.000,4023.4065,N,07517.6672,$PMTK001,314,3*36
$PMTK001,220,3*30
$PMTK001,185,3*3C
$GPGGA,180439.000,4023.4121,N,07517.6711,W,2,10,0.82,3350.0,M,-33.9,M,0000,0000*66
$GPRMC,180439.000,A,4023.4121,N,07517.6711,W,22.84,152.14,100612,,,D*43
$GPGGA,180440.000,4023.4065,N,07517.6672,$PMTK001,314,3*36
$PMTK001,220,3*30
$PMTK001,185,3*3C
$GPGGA,180439.000,4023.4121,N,07517.6711,W,2,10,0.82,3350.0,M,-33.9,M,0000,0000*66
$GPRMC,180439.000,A,4023.4121,N,07517.6711,W,22.84,152.14,100612,,,D*43
$GPGGA,180440.000,4023.4065,N,07517.6672,$PMTK001,314,3*36
$PMTK001,220,3*30
$PMTK001,185,3*3C
$GPGGA,180439.000,4023.4121,N,07517.6711,W,2,10,0.82,3350.0,M,-33.9,M,0000,0000*66
$GPRMC,180439.000,A,4023.4121,N,07517.6711,W,22.84,152.14,100612,,,D*43
$GPGGA,180440.000,4023.4065,N,07517.6672,$PMTK001,314,3*36
$PMTK001,220,3*30
$PMTK001,185,3*3C
$GPGGA,180439.000,4023.4121,N,07517.6711,W,2,10,0.82,3350.0,M,-33.9,M,0000,0000*66
$GPRMC,180439.000,A,4023.4121,N,07517.6711,W,22.84,152.14,100612,,,D*43
$GPGGA,180440.000,4023.4065,N,07517.6672,$PMTK001,314,3*36
$PMTK001,220,3*30
$PMTK001,185,3*3C
$GPGGA,180439.000,4023.4121,N,07517.6711,W,2,10,0.82,3350.0,M,-33.9,M,0000,0000*66
$GPRMC,180439.000,A,4023.4121,N,07517.6711,W,22.84,152.14,100612,,,D*43
$GPGGA,180440.000,4023.4065,N,07517.6672,$PMTK001,314,3*36
$PMTK001,220,3*30
$PMTK001,185,3*3C
$GPGGA,180439.000,4023.4121,N,07517.6711,W,2,10,0.82,3350.0,M,-33.9,M,0000,0000*66
$GPRMC,180439.000,A,4023.4121,N,07517.6711,W,22.84,152.14,100612,,,D*43
$GPGGA,180440.000,4023.4065,N,07517.6672,$PMTK001,314,3*36
$PMTK001,220,3*30
$PMTK001,185,3*3C
$GPGGA,180439.000,4023.4121,N,07517.6711,W,2,10,0.82,3350.0,M,-33.9,M,0000,0000*66
$GPRMC,180439.000,A,4023.4121,N,07517.6711,W,22.84,152.14,100612,,,D*43
$GPGGA,180440.000,4023.4065,N,07517.6672,$PMTK001,314,3*36
$PMTK001,220,3*30
$PMTK001,185,3*3C
$GPGGA,180439.000,4023.4121,N,07517.6711,W,2,10,0.82,3350.0,M,-33.9,M,0000,0000*66
$GPRMC,180439.000,A,4023.4121,N,07517.6711,W,22.84,152.14,100612,,,D*43
$GPGGA,180440.000,4023.4065,N,07517.6672,$PMTK001,314,3*36
$PMTK001,220,3*30
$PMTK001,185,3*3C
$GPGGA,180439.000,4023.4121,N,07517.6711,W,2,10,0.82,3350.0,M,-33.9,M,0000,0000*66
$GPRMC,180439.000,A,4023.4121,N,07517.6711,W,22.84,152.14,100612,,,D*43
$GPGGA,180440.000,4023.4065,N,07517.6672,$PMTK001,314,3*36
$PMTK001,220,3*30
$PMTK001,185,3*3C
$GPGGA,180439.000,4023.4121,N,07517.6711,W,2,10,0.82,3350.0,M,-33.9,M,0000,0000*66
$GPRMC,180439.000,A,4023.4121,N,07517.6711,W,22.84,152.14,100612,,,D*43
$GPGGA,180440.000,4023.4065,N,07517.6672,$PMTK001,314,3*36
$PMTK001,220,3*30
$PMTK001,185,3*3C
$GPGGA,180439.000,4023.4121,N,07517.6711,W,2,10,0.82,3350.0,M,-33.9,M,0000,0000*66
$GPRMC,180439.000,A,4023.4121,N,07517.6711,W,22.84,152.14,100612,,,D*43
$GPGGA,180440.000,4023.4065,N,07517.6672,$PMTK001,314,3*36
$PMTK001,220,3*30
$PMTK001,185,3*3C
$GPGGA,180439.000,4023.4121,N,07517.6711,W,2,10,0.82,3350.0,M,-33.9,M,0000,0000*66
$GPRMC,180439.000,A,4023.4121,N,07517.6711,W,22.84,152.14,100612,,,D*43
$GPGGA,180440.000,4023.4065,N,07517.6672,$PMTK001,314,3*36
$PMTK001,220,3*30
$PMTK001,185,3*3C
$GPGGA,180439.000,4023.4121,N,07517.6711,W,2,10,0.82,3350.0,M,-33.9,M,0000,0000*66
$GPRMC,180439.000,A,4023.4121,N,07517.6711,W,22.84,152.14,100612,,,D*43
$GPGGA,180440.000,4023.4065,N,07517.6672,$PMTK001,314,3*36
$PMTK001,220,3*30
$PMTK001,185,3*3C
$GPGGA,180439.000,4023.4121,N,07517.6711,W,2,10,0.82,3350.0,M,-33.9,M,0000,0000*66
$GPRMC,180439.000,A,4023.4121,N,07517.6711,W,22.84,152.14,100612,,,D*43
$GPGGA,180440.000,4023.4065,N,07517.6672,$PMTK001,314,3*36
$PMTK001,220,3*30
$PMTK001,185,3*3C
$GPGGA,180439.000,4023.4121,N,07517.6711,W,2,10,0.82,3350.0,M,-33.9,M,0000,0000*66
$GPRMC,180439.000,A,4023.4121,N,07517.6711,W,22.84,152.14,100612,,,D*43
$GPGGA,180440.000,4023.4065,N,07517.6672,$PMTK001,314,3*36
$PMTK001,220,3*30
$PMTK001,185,3*3C
$GPGGA,180439.000,4023.4121,N,07517.6711,W,2,10,0.82,3350.0,M,-33.9,M,0000,0000*66
$GPRMC,180439.000,A,4023.4121,N,07517.6711,W,22.84,152.14,100612,,,D*43
$GPGGA,180440.000,4023.4065,N,07517.6672,$PMTK001,314,3*36
$PMTK001,220,3*30
$PMTK001,185,3*3C
$GPGGA,180439.000,4023.4121,N,07517.6711,W,2,10,0.82,3350.0,M,-33.9,M,0000,0000*66
$GPRMC,180439.000,A,4023.4121,N,07517.6711,W,22.84,152.14,100612,,,D*43
$GPGGA,180440.000,4023.4065,N,07517.6672,$PMTK001,314,3*36
$PMTK001,220,3*30
$PMTK001,185,3*3C
$GPGGA,180439.000,4023.4121,N,07517.6711,W,2,10,0.82,3350.0,M,-33.9,M,0000,0000*66
$GPRMC,180439.000,A,4023.4121,N,07517.6711,W,22.84,152.14,100612,,,D*43
$GPGGA,180440.000,4023.4065,N,07517.6672,$PMTK001,314,3*36
$PMTK001,220,3*30
$PMTK001,185,3*3C
$GPGGA,180439.000,4023.4121,N,07517.6711,W,2,10,0.82,3350.0,M,-33.9,M,0000,0000*66
$GPRMC,180439.000,A,4023.4121,N,07517.6711,W,22.84,152.14,100612,,,D*43
$GPGGA,180440.000,4023.4065,N,07517.6672,$PMTK001,314,3*36
$PMTK001,220,3*30
$PMTK001,185,3*3C
$GPGGA,180439.000,4023.4121,N,07517.6711,W,2,10,0.82,3350.0,M,-33.9,M,0000,0000*66
$GPRMC,180439.000,A,4023.4121,N,07517.6711,W,22.84,152.14,100612,,,D*43
$GPGGA,180440.000,4023.4065,N,07517.6672,$PMTK001,314,3*36
$PMTK001,220,3*30
$PMTK001,185,3*3C
$GPGGA,180439.000,4023.4121,N,07517.6711,W,2,10,0.82,3350.0,M,-33.9,M,0000,0000*66
$GPRMC,180439.000,A,4023.4121,N,07517.6711,W,22.84,152.14,100612,,,D*43
$GPGGA,180440.000,4023.4065,N,07517.6672,$PMTK001,314,3*36
$PMTK001,220,3*30
$PMTK001,185,3*3C
$GPGGA,180439.000,4023.4121,N,07517.6711,W,2,10,0.82,3350.0,M,-33.9,M,0000,0000*66
$GPRMC,180439.000,A,4023.4121,N,07517.6711,W,22.84,152.14,100612,,,D*43
$GPGGA,180440.000,4023.4065,N,07517.6672,$PMTK001,314,3*36
$PMTK001,220,3*30
$PMTK001,185,3*3C
$GPGGA,180439.000,4023.4121,N,07517.6711,W,2,10,0.82,3350.0,M,-33.9,M,0000,0000*66
$GPRMC,180439.000,A,4023.4121,N,07517.6711,W,22.84,152.14,100612,,,D*43
$GPGGA,180440.000,4023.4065,N,07517.6672,$PMTK001,314,3*36
$PMTK001,220,3*30
$PMTK001,185,3*3C
$GPGGA,180439.000,4023.4121,N,07517.6711,W,2,10,0.82,3350.0,M,-33.9,M,0000,0000*66
$GPRMC,180439.000,A,4023.4121,N,07517.6711,W,22.84,152.14,100612,,,D*43
$GPGGA,180440.000,4023.4065,N,07517.6672,$PMTK001,314,3*36
$PMTK001,220,3*30
$PMTK001,185,3*3C
$GPGGA,180439.000,4023.4121,N,07517.6711,W,2,10,0.82,3350.0,M,-33.9,M,0000,0000*66
$GPRMC,180439.000,A,4023.4121,N,07517.6711,W,22.84,152.14,100612,,,D*43
$GPGGA,180440.000,4023.4065,N,07517.6672,$PMTK001,314,3*36
$PMTK001,220,3*30
$PMTK001,185,3*3C
$GPGGA,180439.000,4023.4121,N,07517.6711,W,2,10,0.82,3350.0,M,-33.9,M,0000,0000*66
$GPRMC,180439.000,A,4023.4121,N,07517.6711,W,22.84,152.14,100612,,,D*43
$GPGGA,180440.000,4023.4065,N,07517.6672,$PMTK001,314,3*36
$PMTK001,220,3*30
$PMTK001,185,3*3C
$GPGGA,180439.000,4023.4121,N,07517.6711,W,2,10,0.82,3350.0,M,-33.9,M,0000,0000*66
$GPRMC,180439.000,A,4023.4121,N,07517.6711,W,22.84,152.14,100612,,,D*43
$GPGGA,180440.000,4023.4065,N,07517.6672,$PMTK001,314,3*36
$PMTK001,220,3*30
$PMTK001,185,3*3C
$GPGGA,180439.000,4023.4121,N,07517.6711,W,2,10,0.82,3350.0,M,-33.9,M,0000,0000*66
$GPRMC,180439.000,A,4023.4121,N,07517.6711,W,22.84,152.14,100612,,,D*43
$GPGGA,180440.000,4023.4065,N,07517.6672,$PMTK001,314,3*36
$PMTK001,220,3*30
$PMTK001,185,3*3C
$GPGGA,180439.000,4023.4121,N,07517.6711,W,2,10,0.82,3350.0,M,-33.9,M,0000,0000*66
$GPRMC,180439.000,A,4023.4121,N,07517.6711,W,22.84,152.14,100612,,,D*43
$GPGGA,180440.000,4023.4065,N,07517.6672,$PMTK001,314,3*36
$PMTK001,220,3*30
$PMTK001,185,3*3C
$GPGGA,180439.000,4023.4121,N,07517.6711,W,2,10,0.82,3350.0,M,-33.9,M,0000,0000*66
$GPRMC,180439.000,A,4023.4121,N,07517.6711,W,22.84,152.14,100612,,,D*43
$GPGGA,180440.000,4023.4065,N,07517.6672,$PMTK001,314,3*36
$PMTK001,220,3*30
$PMTK001,185,3*3C
$GPGGA,180439.000,4023.4121,N,07517.6711,W,2,10,0.82,3350.0,M,-33.9,M,0000,0000*66
$GPRMC,180439.000,A,4023.4121,N,07517.6711,W,22.84,152.14,100612,,,D*43
$GPGGA,180440.000,4023.4065,N,07517.6672,$PMTK001,314,3*36
$PMTK001,220,3*30
$PMTK001,185,3*3C
$GPGGA,180439.000,4023.4121,N,07517.6711,W,2,10,0.82,3350.0,M,-33.9,M,0000,0000*66
$GPRMC,180439.000,A,4023.4121,N,07517.6711,W,22.84,152.14,100612,,,D*43
$GPGGA,180440.000,4023.4065,N,07517.6672,$PMTK001,314,3*36
$PMTK001,220,3*30
$PMTK001,185,3*3C
$GPGGA,180439.000,4023.4121,N,07517.6711,W,2,10,0.82,3350.0,M,-33.9,M,0000,0000*66
$GPRMC,180439.000,A,4023.4121,N,07517.6711,W,22.84,152.14,100612,,,D*43
$GPGGA,180440.000,4023.4065,N,07517.6672,$PMTK001,314,3*36
$PMTK001,220,3*30
$PMTK001,185,3*3C
$GPGGA,180439.000,4023.4121,N,07517.6711,W,2,10,0.82,3350.0,M,-33.9,M,0000,0000*66
$GPRMC,180439.000,A,4023.4121,N,07517.6711,W,22.84,152.14,100612,,,D*43
$GPGGA,180440.000,4023.4065,N,07517.6672,$PMTK001,314,3*36
$PMTK001,220,3*30
$PMTK001,185,3*3C
$GPGGA,180439.000,4023.4121,N,07517.6711,W,2,10,0.82,3350.0,M,-33.9,M,0000,0000*66
$GPRMC,180439.000,A,4023.4121,N,07517.6711,W,22.84,152.14,100612,,,D*43
$GPGGA,180440.000,4023.4065,N,07517.6672,$PMTK001,314,3*36
$PMTK001,220,3*30
$PMTK001,185,3*3C
$GPGGA,180439.000,4023.4121,N,07517.6711,W,2,10,0.82,3350.0,M,-33.9,M,0000,0000*66
$GPRMC,180439.000,A,4023.4121,N,07517.6711,W,22.84,152.14,100612,,,D*43
$GPGGA,180440.000,4023.4065,N,07517.6672,$PMTK001,314,3*36
$PMTK001,220,3*30
$PMTK001,185,3*3C
$GPGGA,180439.000,4023.4121,N,07517.6711,W,2,10,0.82,3350.0,M,-33.9,M,0000,0000*66
$GPRMC,180439.000,A,4023.4121,N,07517.6711,W,22.84,152.14,100612,,,D*43
$GPGGA,180440.000,4023.4065,N,07517.6672,$PMTK001,314,3*36
$PMTK001,220,3*30
$PMTK001,185,3*3C
$GPGGA,180439.000,4023.4121,N,07517.6711,W,2,10,0.82,3350.0,M,-33.9,M,0000,0000*66
$GPRMC,180439.000,A,4023.4121,N,07517.6711,W,22.84,152.14,100612,,,D*43
$GPGGA,180440.000,4023.4065,N,07517.6672,$PMTK001,314,3*36
$PMTK001,220,3*30
$PMTK001,185,3*3C
$GPGGA,180439.000,4023.4121,N,07517.6711,W,2,10,0.82,3350.0,M,-33.9,M,0000,0000*66
$GPRMC,180439.000,A,4023.4121,N,07517.6711,W,22.84,152.14,100612,,,D*43
$GPGGA,180440.000,4023.4065,N,07517.6672,$PMTK001,314,3*36
$PMTK001,220,3*30
$PMTK001,185,3*3C
$GPGGA,180439.000,4023.4121,N,07517.6711,W,2,10,0.82,3350.0,M,-33.9,M,0000,0000*66
$GPRMC,180439.000,A,4023.4121,N,07517.6711,W,22.84,152.14,100612,,,D*43
$GPGGA,180440.000,4023.4065,N,07517.6672,$PMTK001,314,3*36
$PMTK001,220,3*30
$PMTK001,185,3*3C
$GPGGA,180439.000,4023.4121,N,07517.6711,W,2,10,0.82,3350.0,M,-33.9,M,0000,0000*66
$GPRMC,180439.000,A,4023.4121,N,07517.6711,W,22.84,152.14,100612,,,D*43
$GPGGA,180440.000,4023.4065,N,07517.6672,$PMTK001,314,3*36
$PMTK001,220,3*30
$PMTK001,185,3*3C
$GPGGA,180439.000,4023.4121,N,07517.6711,W,2,10,0.82,3350.0,M,-33.9,M,0000,0000*66
$GPRMC,180439.000,A,4023.4121,N,07517.6711,W,22.84,152.14,100612,,,D*43
$GPGGA,180440.000,4023.4065,N,07517.6672,$PMTK001,314,3*36
$PMTK001,220,3*30
$PMTK001,185,3*3C
$GPGGA,180439.000,4023.4121,N,07517.6711,W,2,10,0.82,3350.0,M,-33.9,M,0000,0000*66
$GPRMC,180439.000,A,4023.4121,N,07517.6711,W,22.84,152.14,100612,,,D*43
$GPGGA,180440.000,4023.4065,N,07517.6672,$PMTK001,314,3*36
$PMTK001,220,3*30
$PMTK001,185,3*3C
$GPGGA,180439.000,4023.4121,N,07517.6711,W,2,10,0.82,3350.0,M,-33.9,M,0000,0000*66
$GPRMC,180439.000,A,4023.4121,N,07517.6711,W,22.84,152.14,100612,,,D*43
$GPGGA,180440.000,4023.4065,N,07517.6672,$PMTK001,314,3*36
$PMTK001,220,3*30
$PMTK001,185,3*3C
$GPGGA,180439.000,4023.4121,N,07517.6711,W,2,10,0.82,3350.0,M,-33.9,M,0000,0000*66
$GPRMC,180439.000,A,4023.4121,N,07517.6711,W,22.84,152.14,100612,,,D*43
$GPGGA,180440.000,4023.4065,N,07517.6672,$PMTK001,314,3*36
$PMTK001,220,3*30
$PMTK001,185,3*3C
$GPGGA,180439.000,4023.4121,N,07517.6711,W,2,10,0.82,3350.0,M,-33.9,M,0000,0000*66
$GPRMC,180439.000,A,4023.4121,N,07517.6711,W,22.84,152.14,100612,,,D*43
$GPGGA,180440.000,4023.4065,N,07517.6672,$PMTK001,314,3*36
$PMTK001,220,3*30
$PMTK001,185,3*3C
$GPGGA,180439.000,4023.4121,N,07517.6711,W,2,10,0.82,3350.0,M,-33.9,M,0000,0000*66
$GPRMC,180439.000,A,4023.4121,N,07517.6711,W,22.84,152.14,100612,,,D*43
$GPGGA,180440.000,4023.4065,N,07517.6672,$PMTK001,314,3*36
$PMTK001,220,3*30
$PMTK001,185,3*3C
$GPGGA,180439.000,4023.4121,N,07517.6711,W,2,10,0.82,3350.0,M,-33.9,M,0000,0000*66
$GPRMC,180439.000,A,4023.4121,N,07517.6711,W,22.84,152.14,100612,,,D*43
$GPGGA,180440.000,4023.4065,N,07517.6672,$PMTK001,314,3*36
$PMTK001,220,3*30
$PMTK001,185,3*3C
$GPGGA,180439.000,4023.4121,N,07517.6711,W,2,10,0.82,3350.0,M,-33.9,M,0000,0000*66
$GPRMC,180439.000,A,4023.4121,N,07517.6711,W,22.84,152.14,100612,,,D*43
$GPGGA,180440.000,4023.4065,N,07517.6672,$PMTK001,314,3*36
$PMTK001,220,3*30
$PMTK001,185,3*3C
$GPGGA,180439.000,4023.4121,N,07517.6711,W,2,10,0.82,3350.0,M,-33.9,M,0000,0000*66
$GPRMC,180439.000,A,4023.4121,N,07517.6711,W,22.84,152.14,100612,,,D*43
$GPGGA,180440.000,4023.4065,N,07517.6672,$PMTK001,314,3*36
$PMTK001,220,3*30
$PMTK001,185,3*3C
$GPGGA,180439.000,4023.4121,N,07517.6711,W,2,10,0.82,3350.0,M,-33.9,M,0000,0000*66
$GPRMC,180439.000,A,4023.4121,N,07517.6711,W,22.84,152.14,100612,,,D*43
$GPGGA,180440.000,4023.4065,N,07517.6672,