.9875,W,2,10,0.81,1759.4,M,-33.9,M,0000,0000*64
$GPRMC,175639.000,A,4025.5391,N,07519.9875,W,16.99,141.99,100612,,,D*45
$PMTK001,314,3*36
$PMTK001,220,3*30
$PMTK001,185,3*3C
$GPGGA,175640.000,4025.5354,N,07519.9838,W,2,10,0.81,1761.5,M,-33.9,M,0000,0.9875,W,2,10,0.81,1759.4,M,-33.9,M,0000,0000*64
$GPRMC,175639.000,A,4025.5391,N,07519.9875,W,16.99,141.99,100612,,,D*45
$PMTK001,314,3*36
$PMTK001,220,3*30
$PMTK001,185,3*3C
$GPGGA,175640.000,4025.5354,N,07519.9838,W,2,10,0.81,1761.5,M,-33.9,M,0000,0.9875,W,2,10,0.81,1759.4,M,-33.9,M,0000,0000*64
$GPRMC,175639.000,A,4025.5391,N,07519.9875,W,16.99,141.99,100612,,,D*45
$PMTK001,314,3*36
$PMTK001,220,3*30
$PMTK001,185,3*3C
$GPGGA,175640.000,4025.5354,N,07519.9838,W,2,10,0.81,1761.5,M,-33.9,M,0000,0.9875,W,2,10,0.81,1759.4,M,-33.9,M,0000,0000*64
$GPRMC,175639.000,A,4025.5391,N,07519.9875,W,16.99,141.99,100612,,,D*45
$PMTK001,314,3*36
$PMTK001,220,3*30
$PMTK001,185,3*3C
$GPGGA,175640.000,4025.5354,N,07519.9838,W,2,10,0.81,1761.5,M,-33.9,M,0000,0.9875,W,2,10,0.81,1759.4,M,-33.9,M,0000,0000*64
$GPRMC,175639.000,A,4025.5391,N,07519.9875,W,16.99,141.99,100612,,,D*45
$PMTK001,314,3*36
$PMTK001,220,3*30
$PMTK001,185,3*3C
$GPGGA,175640.000,4025.5354,N,07519.9838,W,2,10,0.81,1761.5,M,-33.9,M,0000,0.9875,W,2,10,0.81,1759.4,M,-33.9,M,0000,0000*64
$GPRMC,175639.000,A,4025.5391,N,07519.9875,W,16.99,141.99,100612,,,D*45
$PMTK001,314,3*36
$PMTK001,220,3*30
$PMTK001,185,3*3C
$GPGGA,175640.000,4025.5354,N,07519.9838,W,2,10,0.81,1761.5,M,-33.9,M,0000,0.9875,W,2,10,0.81,1759.4,M,-33.9,M,0000,0000*64
$GPRMC,175639.000,A,4025.5391,N,07519.9875,W,16.99,141.99,100612,,,D*45
$PMTK001,314,3*36
$PMTK001,220,3*30
$PMTK001,185,3*3C
$GPGGA,175640.000,4025.5354,N,07519.9838,W,2,10,0.81,1761.5,M,-33.9,M,0000,0.9875,W,2,10,0.81,1759.4,M,-33.9,M,0000,0000*64
$GPRMC,175639.000,A,4025.5391,N,07519.9875,W,16.99,141.99,100612,,,D*45
$PMTK001,314,3*36
$PMTK001,220,3*30
$PMTK001,185,3*3C
$GPGGA,175640.000,4025.5354,N,07519.9838,W,2,10,0.81,1761.5,M,-33.9,M,0000,0.9875,W,2,10,0.81,1759.4,M,-33.9,M,0000,0000*64
$GPRMC,175639.000,A,4025.5391,N,07519.9875,W,16.99,141.99,100612,,,D*45
$PMTK001,314,3*36
$PMTK001,220,3*30
$PMTK001,185,3*3C
$GPGGA,175640.000,4025.5354,N,07519.9838,W,2,10,0.81,1761.5,M,-33.9,M,0000,0.9875,W,2,10,0.81,1759.4,M,-33.9,M,0000,0000*64
$GPRMC,175639.000,A,4025.5391,N,07519.9875,W,16.99,141.99,100612,,,D*45
$PMTK001,314,3*36
$PMTK001,220,3*30
$PMTK001,185,3*3C
$GPGGA,175640.000,4025.5354,N,07519.9838,W,2,10,0.81,1761.5,M,-33.9,M,0000,0.9875,W,2,10,0.81,1759.4,M,-33.9,M,0000,0000*64
$GPRMC,175639.000,A,4025.5391,N,07519.9875,W,16.99,141.99,100612,,,D*45
$PMTK001,314,3*36
$PMTK001,220,3*30
$PMTK001,185,3*3C
$GPGGA,175640.000,4025.5354,N,07519.9838,W,2,10,0.81,1761.5,M,-33.9,M,0000,0.9875,W,2,10,0.81,1759.4,M,-33.9,M,0000,0000*64
$GPRMC,175639.000,A,4025.5391,N,07519.9875,W,16.99,141.99,100612,,,D*45
$PMTK001,314,3*36
$PMTK001,220,3*30
$PMTK001,185,3*3C
$GPGGA,175640.000,4025.5354,N,07519.9838,W,2,10,0.81,1761.5,M,-33.9,M,0000,0.9875,W,2,10,0.81,1759.4,M,-33.9,M,0000,0000*64
$GPRMC,175639.000,A,4025.5391,N,07519.9875,W,16.99,141.99,100612,,,D*45
$PMTK001,314,3*36
$PMTK001,220,3*30
$PMTK001,185,3*3C
$GPGGA,175640.000,4025.5354,N,07519.9838,W,2,10,0.81,1761.5,M,-33.9,M,0000,0.9875,W,2,10,0.81,1759.4,M,-33.9,M,0000,0000*64
$GPRMC,175639.000,A,4025.5391,N,07519.9875,W,16.99,141.99,100612,,,D*45
$PMTK001,314,3*36
$PMTK001,220,3*30
$PMTK001,185,3*3C
$GPGGA,175640.000,4025.5354,N,07519.9838,W,2,10,0.81,1761.5,M,-33.9,M,0000,0.9875,W,2,10,0.81,1759.4,M,-33.9,M,0000,0000*64
$GPRMC,175639.000,A,4025.5391,N,07519.9875,W,16.99,141.99,100612,,,D*45
$PMTK001,314,3*36
$PMTK001,220,3*30
$PMTK001,185,3*3C
$GPGGA,175640.000,4025.5354,N,07519.9838,W,2,10,0.81,1761.5,M,-33.9,M,0000,0.9875,W,2,10,0.81,1759.4,M,-33.9,M,0000,0000*64
$GPRMC,175639.000,A,4025.5391,N,07519.9875,W,16.99,141.99,100612,,,D*45
$PMTK001,314,3*36
$PMTK001,220,3*30
$PMTK001,185,3*3C
$GPGGA,175640.000,4025.5354,N,07519.9838,W,2,10,0.81,1761.5,M,-33.9,M,0000,0.9875,W,2,10,0.81,1759.4,M,-33.9,M,0000,0000*64
$GPRMC,175639.000,A,4025.5391,N,07519.9875,W,16.99,141.99,100612,,,D*45
$PMTK001,314,3*36
$PMTK001,220,3*30
$PMTK001,185,3*3C
$GPGGA,175640.000,4025.5354,N,07519.9838,W,2,10,0.81,1761.5,M,-33.9,M,0000,0.9875,W,2,10,0.81,1759.4,M,-33.9,M,0000,0000*64
$GPRMC,175639.000,A,4025.5391,N,07519.9875,W,16.99,141.99,100612,,,D*45
$PMTK001,314,3*36
$PMTK001,220,3*30
$PMTK001,185,3*3C
$GPGGA,175640.000,4025.5354,N,07519.9838,W,2,10,0.81,1761.5,M,-33.9,M,0000,0.9875,W,2,10,0.81,1759.4,M,-33.9,M,0000,0000*64
$GPRMC,175639.000,A,4025.5391,N,07519.9875,W,16.99,141.99,100612,,,D*45
$PMTK001,314,3*36
$PMTK001,220,3*30
$PMTK001,185,3*3C
$GPGGA,175640.000,4025.5354,N,07519.9838,W,2,10,0.81,1761.5,M,-33.9,M,0000,0.9875,W,2,10,0.81,1759.4,M,-33.9,M,0000,0000*64
$GPRMC,175639.000,A,4025.5391,N,07519.9875,W,16.99,141.99,100612,,,D*45
$PMTK001,314,3*36
$PMTK001,220,3*30
$PMTK001,185,3*3C
$GPGGA,175640.000,4025.5354,N,07519.9838,W,2,10,0.81,1761.5,M,-33.9,M,0000,0.9875,W,2,10,0.81,1759.4,M,-33.9,M,0000,0000*64
$GPRMC,175639.000,A,4025.5391,N,07519.9875,W,16.99,141.99,100612,,,D*45
$PMTK001,314,3*36
$PMTK001,220,3*30
$PMTK001,185,3*3C
$GPGGA,175640.000,4025.5354,N,07519.9838,W,2,10,0.81,1761.5,M,-33.9,M,0000,0.9875,W,2,10,0.81,1759.4,M,-33.9,M,0000,0000*64
$GPRMC,175639.000,A,4025.5391,N,07519.9875,W,16.99,141.99,100612,,,D*45
$PMTK001,314,3*36
$PMTK001,220,3*30
$PMTK001,185,3*3C
$GPGGA,175640.000,4025.5354,N,07519.9838,W,2,10,0.81,1761.5,M,-33.9,M,0000,0.9875,W,2,10,0.81,1759.4,M,-33.9,M,0000,0000*64
$GPRMC,175639.000,A,4025.5391,N,07519.9875,W,16.99,141.99,100612,,,D*45
$PMTK001,314,3*36
$PMTK001,220,3*30
$PMTK001,185,3*3C
$GPGGA,175640.000,4025.5354,N,07519.9838,W,2,10,0.81,1761.5,M,-33.9,M,0000,0.9875,W,2,10,0.81,1759.4,M,-33.9,M,0000,0000*64
$GPRMC,175639.000,A,4025.5391,N,07519.9875,W,16.99,141.99,100612,,,D*45
$PMTK001,314,3*36
$PMTK001,220,3*30
$PMTK001,185,3*3C
$GPGGA,175640.000,4025.5354,N,07519.9838,W,2,10,0.81,1761.5,M,-33.9,M,0000,0.9875,W,2,10,0.81,1759.4,M,-33.9,M,0000,0000*64
$GPRMC,175639.000,A,4025.5391,N,07519.9875,W,16.99,141.99,100612,,,D*45
$PMTK001,314,3*36
$PMTK001,220,3*30
$PMTK001,185,3*3C
$GPGGA,175640.000,4025.5354,N,07519.9838,W,2,10,0.81,1761.5,M,-33.9,M,0000,0.9875,W,2,10,0.81,1759.4,M,-33.9,M,0000,0000*64
$GPRMC,175639.000,A,4025.5391,N,07519.9875,W,16.99,141.99,100612,,,D*45
$PMTK001,314,3*36
$PMTK001,220,3*30
$PMTK001,185,3*3C
$GPGGA,175640.000,4025.5354,N,07519.9838,W,2,10,0.81,1761.5,M,-33.9,M,0000,0.9875,W,2,10,0.81,1759.4,M,-33.9,M,0000,0000*64
$GPRMC,175639.000,A,4025.5391,N,07519.9875,W,16.99,141.99,100612,,,D*45
$PMTK001,314,3*36
$PMTK001,220,3*30
$PMTK001,185,3*3C
$GPGGA,175640.000,4025.5354,N,07519.9838,W,2,10,0.81,1761.5,M,-33.9,M,0000,0.9875,W,2,10,0.81,1759.4,M,-33.9,M,0000,0000*64
$GPRMC,175639.000,A,4025.5391,N,07519.9875,W,16.99,141.99,100612,,,D*45
$PMTK001,314,3*36
$PMTK001,220,3*30
$PMTK001,185,3*3C
$GPGGA,175640.000,4025.5354,N,07519.9838,W,2,10,0.81,1761.5,M,-33.9,M,0000,0.9875,W,2,10,0.81,1759.4,M,-33.9,M,0000,0000*64
$GPRMC,175639.000,A,4025.5391,N,07519.9875,W,16.99,141.99,100612,,,D*45
$PMTK001,314,3*36
$PMTK001,220,3*30
$PMTK001,185,3*3C
$GPGGA,175640.000,4025.5354,N,07519.9838,W,2,10,0.81,1761.5,M,-33.9,M,0000,0.9875,W,2,10,0.81,1759.4,M,-33.9,M,0000,0000*64
$GPRMC,175639.000,A,4025.5391,N,07519.9875,W,16.99,141.99,100612,,,D*45
$PMTK001,314,3*36
$PMTK001,220,3*30
$PMTK001,185,3*3C
$GPGGA,175640.000,4025.5354,N,07519.9838,W,2,10,0.81,1761.5,M,-33.9,M,0000,0.9875,W,2,10,0.81,1759.4,M,-33.9,M,0000,0000*64
$GPRMC,175639.000,A,4025.5391,N,07519.9875,W,16.99,141.99,100612,,,D*45
$PMTK001,314,3*36
$PMTK001,220,3*30
$PMTK001,185,3*3C
$GPGGA,175640.000,4025.5354,N,07519.9838,W,2,10,0.81,1761.5,M,-33.9,M,0000,0.9875,W,2,10,0.81,1759.4,M,-33.9,M,0000,0000*64
$GPRMC,175639.000,A,4025.5391,N,07519.9875,W,16.99,141.99,100612,,,D*45
$PMTK001,314,3*36
$PMTK001,220,3*30
$PMTK001,185,3*3C
$GPGGA,175640.000,4025.5354,N,07519.9838,W,2,10,0.81,1761.5,M,-33.9,M,0000,0.9875,W,2,10,0.81,1759.4,M,-33.9,M,0000,0000*64
$GPRMC,175639.000,A,4025.5391,N,07519.9875,W,16.99,141.99,100612,,,D*45
$PMTK001,314,3*36
$PMTK001,220,3*30
$PMTK001,185,3*3C
$GPGGA,175640.000,4025.5354,N,07519.9838,W,2,10,0.81,1761.5,M,-33.9,M,0000,0.9875,W,2,10,0.81,1759.4,M,-33.9,M,0000,0000*64
$GPRMC,175639.000,A,4025.5391,N,07519.9875,W,16.99,141.99,100612,,,D*45
$PMTK001,314,3*36
$PMTK001,220,3*30
$PMTK001,185,3*3C
$GPGGA,175640.000,4025.5354,N,07519.9838,W,2,10,0.81,1761.5,M,-33.9,M,0000,0.9875,W,2,10,0.81,1759.4,M,-33.9,M,0000,0000*64
$GPRMC,175639.000,A,4025.5391,N,07519.9875,W,16.99,141.99,100612,,,D*45
$PMTK001,314,3*36
$PMTK001,220,3*30
$PMTK001,185,3*3C
$GPGGA,175640.000,4025.5354,N,07519.9838,W,2,10,0.81,1761.5,M,-33.9,M,0000,0.9875,W,2,10,0.81,1759.4,M,-33.9,M,0000,0000*64
$GPRMC,175639.000,A,4025.5391,N,07519.9875,W,16.99,141.99,100612,,,D*45
$PMTK001,314,3*36
$PMTK001,220,3*30
$PMTK001,185,3*3C
$GPGGA,175640.000,4025.5354,N,07519.9838,W,2,10,0.81,1761.5,M,-33.9,M,0000,0.9875,W,2,10,0.81,1759.4,M,-33.9,M,0000,0000*64
$GPRMC,175639.000,A,4025.5391,N,07519.9875,W,16.99,141.99,100612,,,D*45
$PMTK001,314,3*36
$PMTK001,220,3*30
$PMTK001,185,3*3C
$GPGGA,175640.000,4025.5354,N,07519.9838,W,2,10,0.81,1761.5,M,-33.9,M,0000,0.9875,W,2,10,0.81,1759.4,M,-33.9,M,0000,0000*64
$GPRMC,175639.000,A,4025.5391,N,07519.9875,W,16.99,141.99,100612,,,D*45
$PMTK001,314,3*36
$PMTK001,220,3*30
$PMTK001,185,3*3C
$GPGGA,175640.000,4025.5354,N,07519.9838,W,2,10,0.81,1761.5,M,-33.9,M,0000,0.9875,W,2,10,0.81,1759.4,M,-33.9,M,0000,0000*64
$GPRMC,175639.000,A,4025.5391,N,07519.9875,W,16.99,141.99,100612,,,D*45
$PMTK001,314,3*36
$PMTK001,220,3*30
$PMTK001,185,3*3C
$GPGGA,175640.000,4025.5354,N,07519.9838,W,2,10,0.81,1761.5,M,-33.9,M,0000,0.9875,W,2,10,0.81,1759.4,M,-33.9,M,0000,0000*64
$GPRMC,175639.000,A,4025.5391,N,07519.9875,W,16.99,141.99,100612,,,D*45
$PMTK001,314,3*36
$PMTK001,220,3*30
$PMTK001,185,3*3C
$GPGGA,175640.000,4025.5354,N,07519.9838,W,2,10,0.81,1761.5,M,-33.9,M,0000,0.9875,W,2,10,0.81,1759.4,M,-33.9,M,0000,0000*64
$GPRMC,175639.000,A,4025.5391,N,07519.9875,W,16.99,141.99,100612,,,D*45
$PMTK001,314,3*36
$PMTK001,220,3*30
$PMTK001,185,3*3C
$GPGGA,175640.000,4025.5354,N,07519.9838,W,2,10,0.81,1761.5,M,-33.9,M,0000,0.9875,W,2,10,0.81,1759.4,M,-33.9,M,0000,0000*64
$GPRMC,175639.000,A,4025.5391,N,07519.9875,W,16.99,141.99,100612,,,D*45
$PMTK001,314,3*36
$PMTK001,220,3*30
$PMTK001,185,3*3C
$GPGGA,175640.000,4025.5354,N,07519.9838,W,2,10,0.81,1761.5,M,-33.9,M,0000,0.9875,W,2,10,0.81,1759.4,M,-33.9,M,0000,0000*64
$GPRMC,175639.000,A,4025.5391,N,07519.9875,W,16.99,141.99,100612,,,D*45
$PMTK001,314,3*36
$PMTK001,220,3*30
$PMTK001,185,3*3C
$GPGGA,175640.000,4025.5354,N,07519.9838,W,2,10,0.81,1761.5,M,-33.9,M,0000,0.9875,W,2,10,0.81,1759.4,M,-33.9,M,0000,0000*64
$GPRMC,175639.000,A,4025.5391,N,07519.9875,W,16.99,141.99,100612,,,D*45
$PMTK001,314,3*36
$PMTK001,220,3*30
$PMTK001,185,3*3C
$GPGGA,175640.000,4025.5354,N,07519.9838,W,2,10,0.81,1761.5,M,-33.9,M,0000,0.9875,W,2,10,0.81,1759.4,M,-33.9,M,0000,0000*64
$GPRMC,175639.000,A,4025.5391,N,07519.9875,W,16.99,141.99,100612,,,D*45
$PMTK001,314,3*36
$PMTK001,220,3*30
$PMTK001,185,3*3C
$GPGGA,175640.000,4025.5354,N,07519.9838,W,2,10,0.81,1761.5,M,-33.9,M,0000,0.9875,W,2,10,0.81,1759.4,M,-33.9,M,0000,0000*64
$GPRMC,175639.000,A,4025.5391,N,07519.9875,W,16.99,141.99,100612,,,D*45
$PMTK001,314,3*36
$PMTK001,220,3*30
$PMTK001,185,3*3C
$GPGGA,175640.000,4025.5354,N,07519.9838,W,2,10,0.81,1761.5,M,-33.9,M,0000,0.9875,W,2,10,0.81,1759.4,M,-33.9,M,0000,0000*64
$GPRMC,175639.000,A,4025.5391,N,07519.9875,W,16.99,141.99,100612,,,D*45
$PMTK001,314,3*36
$PMTK001,220,3*30
$PMTK001,185,3*3C
$GPGGA,175640.000,4025.5354,N,07519.9838,W,2,10,0.81,1761.5,M,-33.9,M,0000,0.9875,W,2,10,0.81,1759.4,M,-33.9,M,0000,0000*64
$GPRMC,175639.000,A,4025.5391,N,07519.9875,W,16.99,141.99,100612,,,D*45
$PMTK001,314,3*36
$PMTK001,220,3*30
$PMTK001,185,3*3C
$GPGGA,175640.000,4025.5354,N,07519.9838,W,2,10,0.81,1761.5,M,-33.9,M,0000,0.9875,W,2,10,0.81,1759.4,M,-33.9,M,0000,0000*64
$GPRMC,175639.000,A,4025.5391,N,07519.9875,W,16.99,141.99,100612,,,D*45
$PMTK001,314,3*36
$PMTK001,220,3*30
$PMTK001,185,3*3C
$GPGGA,175640.000,4025.5354,N,07519.9838,W,2,10,0.81,1761.5,M,-33.9,M,0000,0.9875,W,2,10,0.81,1759.4,M,-33.9,M,0000,0000*64
$GPRMC,175639.000,A,4025.5391,N,07519.9875,W,16.99,141.99,100612,,,D*45
$PMTK001,314,3*36
$PMTK001,220,3*30
$PMTK001,185,3*3C
$GPGGA,175640.000,4025.5354,N,07519.9838,W,2,10,0.81,1761.5,M,-33.9,M,0000,0.9875,W,2,10,0.81,1759.4,M,-33.9,M,0000,0000*64
$GPRMC,175639.000,A,4025.5391,N,07519.9875,W,16.99,141.99,100612,,,D*45
$PMTK001,314,3*36
$PMTK001,220,3*30
$PMTK001,185,3*3C
$GPGGA,175640.000,4025.5354,N,07519.9838,W,2,10,0.81,1761.5,M,-33.9,M,0000,0.9875,W,2,10,0.81,1759.4,M,-33.9,M,0000,0000*64
$GPRMC,175639.000,A,4025.5391,N,07519.9875,W,16.99,141.99,100612,,,D*45
$PMTK001,314,3*36
$PMTK001,220,3*30
$PMTK001,185,3*3C
$GPGGA,175640.000,4025.5354,N,07519.9838,W,2,10,0.81,1761.5,M,-33.9,M,0000,0.9875,W,2,10,0.81,1759.4,M,-33.9,M,0000,0000*64
$GPRMC,175639.000,A,4025.5391,N,07519.9875,W,16.99,141.99,100612,,,D*45
$PMTK001,314,3*36
$PMTK001,220,3*30
$PMTK001,185,3*3C
$GPGGA,175640.000,4025.5354,N,07519.9838,W,2,10,0.81,1761.5,M,-33.9,M,0000,0.9875,W,2,10,0.81,1759.4,M,-33.9,M,0000,0000*64
$GPRMC,175639.000,A,4025.5391,N,07519.9875,W,16.99,141.99,100612,,,D*45
$PMTK001,314,3*36
$PMTK001,220,3*30
$PMTK001,185,3*3C
$GPGGA,175640.000,4025.5354,N,07519.9838,W,2,10,0.81,1761.5,M,-33.9,M,0000,0.9875,W,2,10,0.81,1759.4,M,-33.9,M,0000,0000*64
$GPRMC,175639.000,A,4025.5391,N,07519.9875,W,16.99,141.99,100612,,,D*45
$PMTK001,314,3*36
$PMTK001,220,3*30
$PMTK001,185,3*3C
$GPGGA,175640.000,4025.5354,N,07519.9838,W,2,10,0.81,1761.5,M,-33.9,M,0000,0.9875,W,2,10,0.81,1759.4,M,-33.9,M,0000,0000*64
$GPRMC,175639.000,A,4025.5391,N,07519.9875,W,16.99,141.99,100612,,,D*45
$PMTK001,314,3*36
$PMTK001,220,3*30
$PMTK001,185,3*3C
$GPGGA,175640.000,4025.5354,N,07519.9838,W,2,10,0.81,1761.5,M,-33.9,M,0000,0.9875,W,2,10,0.81,1759.4,M,-33.9,M,0000,0000*64
$GPRMC,175639.000,A,4025.5391,N,07519.9875,W,16.99,141.99,100612,,,D*45
$PMTK001,314,3*36
$PMTK001,220,3*30
$PMTK001,185,3*3C
$GPGGA,175640.000,4025.5354,N,07519.9838,W,2,10,0.81,1761.5,M,-33.9,M,0000,0.9875,W,2,10,0.81,1759.4,M,-33.9,M,0000,0000*64
$GPRMC,175639.000,A,4025.5391,N,07519.9875,W,16.99,141.99,100612,,,D*45
$PMTK001,314,3*36
$PMTK001,220,3*30
$PMTK001,185,3*3C
$GPGGA,175640.000,4025.5354,N,07519.9838,W,2,10,0.81,1761.5,M,-33.9,M,0000,0