$GPGGA,180640.000,4022.7221,N,07517.2837,W,2,10,0.82,3569.8,M,-33.9,M,0000,0000*60
$GPRMC,180640.000,A,4022.7221,N,07517.2837,W,21.15,160.55,100612,,,D*4E
$PMTK001,314,3*36
$PMTK001,220,3*30
$PMTK001,185,3*3C
$GPGGA,180641.000,4022.7165,N,07517.2808,$GPGGA,180640.000,4022.7221,N,07517.2837,W,2,10,0.82,3569.8,M,-33.9,M,0000,0000*60
$GPRMC,180640.000,A,4022.7221,N,07517.2837,W,21.15,160.55,100612,,,D*4E
$PMTK001,314,3*36
$PMTK001,220,3*30
$PMTK001,185,3*3C
$GPGGA,180641.000,4022.7165,N,07517.2808,$GPGGA,180640.000,4022.7221,N,07517.2837,W,2,10,0.82,3569.8,M,-33.9,M,0000,0000*60
$GPRMC,180640.000,A,4022.7221,N,07517.2837,W,21.15,160.55,100612,,,D*4E
$PMTK001,314,3*36
$PMTK001,220,3*30
$PMTK001,185,3*3C
$GPGGA,180641.000,4022.7165,N,07517.2808,$GPGGA,180640.000,4022.7221,N,07517.2837,W,2,10,0.82,3569.8,M,-33.9,M,0000,0000*60
$GPRMC,180640.000,A,4022.7221,N,07517.2837,W,21.15,160.55,100612,,,D*4E
$PMTK001,314,3*36
$PMTK001,220,3*30
$PMTK001,185,3*3C
$GPGGA,180641.000,4022.7165,N,07517.2808,$GPGGA,180640.000,4022.7221,N,07517.2837,W,2,10,0.82,3569.8,M,-33.9,M,0000,0000*60
$GPRMC,180640.000,A,4022.7221,N,07517.2837,W,21.15,160.55,100612,,,D*4E
$PMTK001,314,3*36
$PMTK001,220,3*30
$PMTK001,185,3*3C
$GPGGA,180641.000,4022.7165,N,07517.2808,$GPGGA,180640.000,4022.7221,N,07517.2837,W,2,10,0.82,3569.8,M,-33.9,M,0000,0000*60
$GPRMC,180640.000,A,4022.7221,N,07517.2837,W,21.15,160.55,100612,,,D*4E
$PMTK001,314,3*36
$PMTK001,220,3*30
$PMTK001,185,3*3C
$GPGGA,180641.000,4022.7165,N,07517.2808,$GPGGA,180640.000,4022.7221,N,07517.2837,W,2,10,0.82,3569.8,M,-33.9,M,0000,0000*60
$GPRMC,180640.000,A,4022.7221,N,07517.2837,W,21.15,160.55,100612,,,D*4E
$PMTK001,314,3*36
$PMTK001,220,3*30
$PMTK001,185,3*3C
$GPGGA,180641.000,4022.7165,N,07517.2808,$GPGGA,180640.000,4022.7221,N,07517.2837,W,2,10,0.82,3569.8,M,-33.9,M,0000,0000*60
$GPRMC,180640.000,A,4022.7221,N,07517.2837,W,21.15,160.55,100612,,,D*4E
$PMTK001,314,3*36
$PMTK001,220,3*30
$PMTK001,185,3*3C
$GPGGA,180641.000,4022.7165,N,07517.2808,$GPGGA,180640.000,4022.7221,N,07517.2837,W,2,10,0.82,3569.8,M,-33.9,M,0000,0000*60
$GPRMC,180640.000,A,4022.7221,N,07517.2837,W,21.15,160.55,100612,,,D*4E
$PMTK001,314,3*36
$PMTK001,220,3*30
$PMTK001,185,3*3C
$GPGGA,180641.000,4022.7165,N,07517.2808,$GPGGA,180640.000,4022.7221,N,07517.2837,W,2,10,0.82,3569.8,M,-33.9,M,0000,0000*60
$GPRMC,180640.000,A,4022.7221,N,07517.2837,W,21.15,160.55,100612,,,D*4E
$PMTK001,314,3*36
$PMTK001,220,3*30
$PMTK001,185,3*3C
$GPGGA,180641.000,4022.7165,N,07517.2808,$GPGGA,180640.000,4022.7221,N,07517.2837,W,2,10,0.82,3569.8,M,-33.9,M,0000,0000*60
$GPRMC,180640.000,A,4022.7221,N,07517.2837,W,21.15,160.55,100612,,,D*4E
$PMTK001,314,3*36
$PMTK001,220,3*30
$PMTK001,185,3*3C
$GPGGA,180641.000,4022.7165,N,07517.2808,$GPGGA,180640.000,4022.7221,N,07517.2837,W,2,10,0.82,3569.8,M,-33.9,M,0000,0000*60
$GPRMC,180640.000,A,4022.7221,N,07517.2837,W,21.15,160.55,100612,,,D*4E
$PMTK001,314,3*36
$PMTK001,220,3*30
$PMTK001,185,3*3C
$GPGGA,180641.000,4022.7165,N,07517.2808,$GPGGA,180640.000,4022.7221,N,07517.2837,W,2,10,0.82,3569.8,M,-33.9,M,0000,0000*60
$GPRMC,180640.000,A,4022.7221,N,07517.2837,W,21.15,160.55,100612,,,D*4E
$PMTK001,314,3*36
$PMTK001,220,3*30
$PMTK001,185,3*3C
$GPGGA,180641.000,4022.7165,N,07517.2808,$GPGGA,180640.000,4022.7221,N,07517.2837,W,2,10,0.82,3569.8,M,-33.9,M,0000,0000*60
$GPRMC,180640.000,A,4022.7221,N,07517.2837,W,21.15,160.55,100612,,,D*4E
$PMTK001,314,3*36
$PMTK001,220,3*30
$PMTK001,185,3*3C
$GPGGA,180641.000,4022.7165,N,07517.2808,$GPGGA,180640.000,4022.7221,N,07517.2837,W,2,10,0.82,3569.8,M,-33.9,M,0000,0000*60
$GPRMC,180640.000,A,4022.7221,N,07517.2837,W,21.15,160.55,100612,,,D*4E
$PMTK001,314,3*36
$PMTK001,220,3*30
$PMTK001,185,3*3C
$GPGGA,180641.000,4022.7165,N,07517.2808,$GPGGA,180640.000,4022.7221,N,07517.2837,W,2,10,0.82,3569.8,M,-33.9,M,0000,0000*60
$GPRMC,180640.000,A,4022.7221,N,07517.2837,W,21.15,160.55,100612,,,D*4E
$PMTK001,314,3*36
$PMTK001,220,3*30
$PMTK001,185,3*3C
$GPGGA,180641.000,4022.7165,N,07517.2808,$GPGGA,180640.000,4022.7221,N,07517.2837,W,2,10,0.82,3569.8,M,-33.9,M,0000,0000*60
$GPRMC,180640.000,A,4022.7221,N,07517.2837,W,21.15,160.55,100612,,,D*4E
$PMTK001,314,3*36
$PMTK001,220,3*30
$PMTK001,185,3*3C
$GPGGA,180641.000,4022.7165,N,07517.2808,$GPGGA,180640.000,4022.7221,N,07517.2837,W,2,10,0.82,3569.8,M,-33.9,M,0000,0000*60
$GPRMC,180640.000,A,4022.7221,N,07517.2837,W,21.15,160.55,100612,,,D*4E
$PMTK001,314,3*36
$PMTK001,220,3*30
$PMTK001,185,3*3C
$GPGGA,180641.000,4022.7165,N,07517.2808,$GPGGA,180640.000,4022.7221,N,07517.2837,W,2,10,0.82,3569.8,M,-33.9,M,0000,0000*60
$GPRMC,180640.000,A,4022.7221,N,07517.2837,W,21.15,160.55,100612,,,D*4E
$PMTK001,314,3*36
$PMTK001,220,3*30
$PMTK001,185,3*3C
$GPGGA,180641.000,4022.7165,N,07517.2808,$GPGGA,180640.000,4022.7221,N,07517.2837,W,2,10,0.82,3569.8,M,-33.9,M,0000,0000*60
$GPRMC,180640.000,A,4022.7221,N,07517.2837,W,21.15,160.55,100612,,,D*4E
$PMTK001,314,3*36
$PMTK001,220,3*30
$PMTK001,185,3*3C
$GPGGA,180641.000,4022.7165,N,07517.2808,$GPGGA,180640.000,4022.7221,N,07517.2837,W,2,10,0.82,3569.8,M,-33.9,M,0000,0000*60
$GPRMC,180640.000,A,4022.7221,N,07517.2837,W,21.15,160.55,100612,,,D*4E
$PMTK001,314,3*36
$PMTK001,220,3*30
$PMTK001,185,3*3C
$GPGGA,180641.000,4022.7165,N,07517.2808,$GPGGA,180640.000,4022.7221,N,07517.2837,W,2,10,0.82,3569.8,M,-33.9,M,0000,0000*60
$GPRMC,180640.000,A,4022.7221,N,07517.2837,W,21.15,160.55,100612,,,D*4E
$PMTK001,314,3*36
$PMTK001,220,3*30
$PMTK001,185,3*3C
$GPGGA,180641.000,4022.7165,N,07517.2808,$GPGGA,180640.000,4022.7221,N,07517.2837,W,2,10,0.82,3569.8,M,-33.9,M,0000,0000*60
$GPRMC,180640.000,A,4022.7221,N,07517.2837,W,21.15,160.55,100612,,,D*4E
$PMTK001,314,3*36
$PMTK001,220,3*30
$PMTK001,185,3*3C
$GPGGA,180641.000,4022.7165,N,07517.2808,$GPGGA,180640.000,4022.7221,N,07517.2837,W,2,10,0.82,3569.8,M,-33.9,M,0000,0000*60
$GPRMC,180640.000,A,4022.7221,N,07517.2837,W,21.15,160.55,100612,,,D*4E
$PMTK001,314,3*36
$PMTK001,220,3*30
$PMTK001,185,3*3C
$GPGGA,180641.000,4022.7165,N,07517.2808,$GPGGA,180640.000,4022.7221,N,07517.2837,W,2,10,0.82,3569.8,M,-33.9,M,0000,0000*60
$GPRMC,180640.000,A,4022.7221,N,07517.2837,W,21.15,160.55,100612,,,D*4E
$PMTK001,314,3*36
$PMTK001,220,3*30
$PMTK001,185,3*3C
$GPGGA,180641.000,4022.7165,N,07517.2808,$GPGGA,180640.000,4022.7221,N,07517.2837,W,2,10,0.82,3569.8,M,-33.9,M,0000,0000*60
$GPRMC,180640.000,A,4022.7221,N,07517.2837,W,21.15,160.55,100612,,,D*4E
$PMTK001,314,3*36
$PMTK001,220,3*30
$PMTK001,185,3*3C
$GPGGA,180641.000,4022.7165,N,07517.2808,$GPGGA,180640.000,4022.7221,N,07517.2837,W,2,10,0.82,3569.8,M,-33.9,M,0000,0000*60
$GPRMC,180640.000,A,4022.7221,N,07517.2837,W,21.15,160.55,100612,,,D*4E
$PMTK001,314,3*36
$PMTK001,220,3*30
$PMTK001,185,3*3C
$GPGGA,180641.000,4022.7165,N,07517.2808,$GPGGA,180640.000,4022.7221,N,07517.2837,W,2,10,0.82,3569.8,M,-33.9,M,0000,0000*60
$GPRMC,180640.000,A,4022.7221,N,07517.2837,W,21.15,160.55,100612,,,D*4E
$PMTK001,314,3*36
$PMTK001,220,3*30
$PMTK001,185,3*3C
$GPGGA,180641.000,4022.7165,N,07517.2808,$GPGGA,180640.000,4022.7221,N,07517.2837,W,2,10,0.82,3569.8,M,-33.9,M,0000,0000*60
$GPRMC,180640.000,A,4022.7221,N,07517.2837,W,21.15,160.55,100612,,,D*4E
$PMTK001,314,3*36
$PMTK001,220,3*30
$PMTK001,185,3*3C
$GPGGA,180641.000,4022.7165,N,07517.2808,$GPGGA,180640.000,4022.7221,N,07517.2837,W,2,10,0.82,3569.8,M,-33.9,M,0000,0000*60
$GPRMC,180640.000,A,4022.7221,N,07517.2837,W,21.15,160.55,100612,,,D*4E
$PMTK001,314,3*36
$PMTK001,220,3*30
$PMTK001,185,3*3C
$GPGGA,180641.000,4022.7165,N,07517.2808,$GPGGA,180640.000,4022.7221,N,07517.2837,W,2,10,0.82,3569.8,M,-33.9,M,0000,0000*60
$GPRMC,180640.000,A,4022.7221,N,07517.2837,W,21.15,160.55,100612,,,D*4E
$PMTK001,314,3*36
$PMTK001,220,3*30
$PMTK001,185,3*3C
$GPGGA,180641.000,4022.7165,N,07517.2808,$GPGGA,180640.000,4022.7221,N,07517.2837,W,2,10,0.82,3569.8,M,-33.9,M,0000,0000*60
$GPRMC,180640.000,A,4022.7221,N,07517.2837,W,21.15,160.55,100612,,,D*4E
$PMTK001,314,3*36
$PMTK001,220,3*30
$PMTK001,185,3*3C
$GPGGA,180641.000,4022.7165,N,07517.2808,$GPGGA,180640.000,4022.7221,N,07517.2837,W,2,10,0.82,3569.8,M,-33.9,M,0000,0000*60
$GPRMC,180640.000,A,4022.7221,N,07517.2837,W,21.15,160.55,100612,,,D*4E
$PMTK001,314,3*36
$PMTK001,220,3*30
$PMTK001,185,3*3C
$GPGGA,180641.000,4022.7165,N,07517.2808,$GPGGA,180640.000,4022.7221,N,07517.2837,W,2,10,0.82,3569.8,M,-33.9,M,0000,0000*60
$GPRMC,180640.000,A,4022.7221,N,07517.2837,W,21.15,160.55,100612,,,D*4E
$PMTK001,314,3*36
$PMTK001,220,3*30
$PMTK001,185,3*3C
$GPGGA,180641.000,4022.7165,N,07517.2808,$GPGGA,180640.000,4022.7221,N,07517.2837,W,2,10,0.82,3569.8,M,-33.9,M,0000,0000*60
$GPRMC,180640.000,A,4022.7221,N,07517.2837,W,21.15,160.55,100612,,,D*4E
$PMTK001,314,3*36
$PMTK001,220,3*30
$PMTK001,185,3*3C
$GPGGA,180641.000,4022.7165,N,07517.2808,$GPGGA,180640.000,4022.7221,N,07517.2837,W,2,10,0.82,3569.8,M,-33.9,M,0000,0000*60
$GPRMC,180640.000,A,4022.7221,N,07517.2837,W,21.15,160.55,100612,,,D*4E
$PMTK001,314,3*36
$PMTK001,220,3*30
$PMTK001,185,3*3C
$GPGGA,180641.000,4022.7165,N,07517.2808,$GPGGA,180640.000,4022.7221,N,07517.2837,W,2,10,0.82,3569.8,M,-33.9,M,0000,0000*60
$GPRMC,180640.000,A,4022.7221,N,07517.2837,W,21.15,160.55,100612,,,D*4E
$PMTK001,314,3*36
$PMTK001,220,3*30
$PMTK001,185,3*3C
$GPGGA,180641.000,4022.7165,N,07517.2808,$GPGGA,180640.000,4022.7221,N,07517.2837,W,2,10,0.82,3569.8,M,-33.9,M,0000,0000*60
$GPRMC,180640.000,A,4022.7221,N,07517.2837,W,21.15,160.55,100612,,,D*4E
$PMTK001,314,3*36
$PMTK001,220,3*30
$PMTK001,185,3*3C
$GPGGA,180641.000,4022.7165,N,07517.2808,$GPGGA,180640.000,4022.7221,N,07517.2837,W,2,10,0.82,3569.8,M,-33.9,M,0000,0000*60
$GPRMC,180640.000,A,4022.7221,N,07517.2837,W,21.15,160.55,100612,,,D*4E
$PMTK001,314,3*36
$PMTK001,220,3*30
$PMTK001,185,3*3C
$GPGGA,180641.000,4022.7165,N,07517.2808,$GPGGA,180640.000,4022.7221,N,07517.2837,W,2,10,0.82,3569.8,M,-33.9,M,0000,0000*60
$GPRMC,180640.000,A,4022.7221,N,07517.2837,W,21.15,160.55,100612,,,D*4E
$PMTK001,314,3*36
$PMTK001,220,3*30
$PMTK001,185,3*3C
$GPGGA,180641.000,4022.7165,N,07517.2808,$GPGGA,180640.000,4022.7221,N,07517.2837,W,2,10,0.82,3569.8,M,-33.9,M,0000,0000*60
$GPRMC,180640.000,A,4022.7221,N,07517.2837,W,21.15,160.55,100612,,,D*4E
$PMTK001,314,3*36
$PMTK001,220,3*30
$PMTK001,185,3*3C
$GPGGA,180641.000,4022.7165,N,07517.2808,$GPGGA,180640.000,4022.7221,N,07517.2837,W,2,10,0.82,3569.8,M,-33.9,M,0000,0000*60
$GPRMC,180640.000,A,4022.7221,N,07517.2837,W,21.15,160.55,100612,,,D*4E
$PMTK001,314,3*36
$PMTK001,220,3*30
$PMTK001,185,3*3C
$GPGGA,180641.000,4022.7165,N,07517.2808,$GPGGA,180640.000,4022.7221,N,07517.2837,W,2,10,0.82,3569.8,M,-33.9,M,0000,0000*60
$GPRMC,180640.000,A,4022.7221,N,07517.2837,W,21.15,160.55,100612,,,D*4E
$PMTK001,314,3*36
$PMTK001,220,3*30
$PMTK001,185,3*3C
$GPGGA,180641.000,4022.7165,N,07517.2808,$GPGGA,180640.000,4022.7221,N,07517.2837,W,2,10,0.82,3569.8,M,-33.9,M,0000,0000*60
$GPRMC,180640.000,A,4022.7221,N,07517.2837,W,21.15,160.55,100612,,,D*4E
$PMTK001,314,3*36
$PMTK001,220,3*30
$PMTK001,185,3*3C
$GPGGA,180641.000,4022.7165,N,07517.2808,$GPGGA,180640.000,4022.7221,N,07517.2837,W,2,10,0.82,3569.8,M,-33.9,M,0000,0000*60
$GPRMC,180640.000,A,4022.7221,N,07517.2837,W,21.15,160.55,100612,,,D*4E
$PMTK001,314,3*36
$PMTK001,220,3*30
$PMTK001,185,3*3C
$GPGGA,180641.000,4022.7165,N,07517.2808,$GPGGA,180640.000,4022.7221,N,07517.2837,W,2,10,0.82,3569.8,M,-33.9,M,0000,0000*60
$GPRMC,180640.000,A,4022.7221,N,07517.2837,W,21.15,160.55,100612,,,D*4E
$PMTK001,314,3*36
$PMTK001,220,3*30
$PMTK001,185,3*3C
$GPGGA,180641.000,4022.7165,N,07517.2808,$GPGGA,180640.000,4022.7221,N,07517.2837,W,2,10,0.82,3569.8,M,-33.9,M,0000,0000*60
$GPRMC,180640.000,A,4022.7221,N,07517.2837,W,21.15,160.55,100612,,,D*4E
$PMTK001,314,3*36
$PMTK001,220,3*30
$PMTK001,185,3*3C
$GPGGA,180641.000,4022.7165,N,07517.2808,$GPGGA,180640.000,4022.7221,N,07517.2837,W,2,10,0.82,3569.8,M,-33.9,M,0000,0000*60
$GPRMC,180640.000,A,4022.7221,N,07517.2837,W,21.15,160.55,100612,,,D*4E
$PMTK001,314,3*36
$PMTK001,220,3*30
$PMTK001,185,3*3C
$GPGGA,180641.000,4022.7165,N,07517.2808,$GPGGA,180640.000,4022.7221,N,07517.2837,W,2,10,0.82,3569.8,M,-33.9,M,0000,0000*60
$GPRMC,180640.000,A,4022.7221,N,07517.2837,W,21.15,160.55,100612,,,D*4E
$PMTK001,314,3*36
$PMTK001,220,3*30
$PMTK001,185,3*3C
$GPGGA,180641.000,4022.7165,N,07517.2808,$GPGGA,180640.000,4022.7221,N,07517.2837,W,2,10,0.82,3569.8,M,-33.9,M,0000,0000*60
$GPRMC,180640.000,A,4022.7221,N,07517.2837,W,21.15,160.55,100612,,,D*4E
$PMTK001,314,3*36
$PMTK001,220,3*30
$PMTK001,185,3*3C
$GPGGA,180641.000,4022.7165,N,07517.2808,$GPGGA,180640.000,4022.7221,N,07517.2837,W,2,10,0.82,3569.8,M,-33.9,M,0000,0000*60
$GPRMC,180640.000,A,4022.7221,N,07517.2837,W,21.15,160.55,100612,,,D*4E
$PMTK001,314,3*36
$PMTK001,220,3*30
$PMTK001,185,3*3C
$GPGGA,180641.000,4022.7165,N,07517.2808,$GPGGA,180640.000,4022.7221,N,07517.2837,W,2,10,0.82,3569.8,M,-33.9,M,0000,0000*60
$GPRMC,180640.000,A,4022.7221,N,07517.2837,W,21.15,160.55,100612,,,D*4E
$PMTK001,314,3*36
$PMTK001,220,3*30
$PMTK001,185,3*3C
$GPGGA,180641.000,4022.7165,N,07517.2808,$GPGGA,180640.000,4022.7221,N,07517.2837,W,2,10,0.82,3569.8,M,-33.9,M,0000,0000*60
$GPRMC,180640.000,A,4022.7221,N,07517.2837,W,21.15,160.55,100612,,,D*4E
$PMTK001,314,3*36
$PMTK001,220,3*30
$PMTK001,185,3*3C
$GPGGA,180641.000,4022.7165,N,07517.2808,$GPGGA,180640.000,4022.7221,N,07517.2837,W,2,10,0.82,3569.8,M,-33.9,M,0000,0000*60
$GPRMC,180640.000,A,4022.7221,N,07517.2837,W,21.15,160.55,100612,,,D*4E
$PMTK001,314,3*36
$PMTK001,220,3*30
$PMTK001,185,3*3C
$GPGGA,180641.000,4022.7165,N,07517.2808,$GPGGA,180640.000,4022.7221,N,07517.2837,W,2,10,0.82,3569.8,M,-33.9,M,0000,0000*60
$GPRMC,180640.000,A,4022.7221,N,07517.2837,W,21.15,160.55,100612,,,D*4E
$PMTK001,314,3*36
$PMTK001,220,3*30
$PMTK001,185,3*3C
$GPGGA,180641.000,4022.7165,N,07517.2808,$GPGGA,180640.000,4022.7221,N,07517.2837,W,2,10,0.82,3569.8,M,-33.9,M,0000,0000*60
$GPRMC,180640.000,A,4022.7221,N,07517.2837,W,21.15,160.55,100612,,,D*4E
$PMTK001,314,3*36
$PMTK001,220,3*30
$PMTK001,185,3*3C
$GPGGA,180641.000,4022.7165,N,07517.2808,$GPGGA,180640.000,4022.7221,N,07517.2837,W,2,10,0.82,3569.8,M,-33.9,M,0000,0000*60
$GPRMC,180640.000,A,4022.7221,N,07517.2837,W,21.15,160.55,100612,,,D*4E
$PMTK001,314,3*36
$PMTK001,220,3*30
$PMTK001,185,3*3C
$GPGGA,180641.000,4022.7165,N,07517.2808,$GPGGA,180640.000,4022.7221,N,07517.2837,W,2,10,0.82,3569.8,M,-33.9,M,0000,0000*60
$GPRMC,180640.000,A,4022.7221,N,07517.2837,W,21.15,160.55,100612,,,D*4E
$PMTK001,314,3*36
$PMTK001,220,3*30
$PMTK001,185,3*3C
$GPGGA,180641.000,4022.7165,N,07517.2808,