¹bj±0000,0000*6D
$GPRMC,160436.000,A,4026.7502,N,07520.5890,W,0.02,96.86,100612,,,D*4C
$PMTK001,314,3*36
$PMTK001,220,3*30
$PMTK001,185,3*3C
$GPGGA,160437.000,4026.7502,N,07520.5890,W,2,9,0.88,153.8,M,-33.9,M,0000,0000*6C
$GPRMC,160437.000,A,4026.75¹bj±0000,0000*6D
$GPRMC,160436.000,A,4026.7502,N,07520.5890,W,0.02,96.86,100612,,,D*4C
$PMTK001,314,3*36
$PMTK001,220,3*30
$PMTK001,185,3*3C
$GPGGA,160437.000,4026.7502,N,07520.5890,W,2,9,0.88,153.8,M,-33.9,M,0000,0000*6C
$GPRMC,160437.000,A,4026.75¹bj±0000,0000*6D
$GPRMC,160436.000,A,4026.7502,N,07520.5890,W,0.02,96.86,100612,,,D*4C
$PMTK001,314,3*36
$PMTK001,220,3*30
$PMTK001,185,3*3C
$GPGGA,160437.000,4026.7502,N,07520.5890,W,2,9,0.88,153.8,M,-33.9,M,0000,0000*6C
$GPRMC,160437.000,A,4026.75¹bj±0000,0000*6D
$GPRMC,160436.000,A,4026.7502,N,07520.5890,W,0.02,96.86,100612,,,D*4C
$PMTK001,314,3*36
$PMTK001,220,3*30
$PMTK001,185,3*3C
$GPGGA,160437.000,4026.7502,N,07520.5890,W,2,9,0.88,153.8,M,-33.9,M,0000,0000*6C
$GPRMC,160437.000,A,4026.75¹bj±0000,0000*6D
$GPRMC,160436.000,A,4026.7502,N,07520.5890,W,0.02,96.86,100612,,,D*4C
$PMTK001,314,3*36
$PMTK001,220,3*30
$PMTK001,185,3*3C
$GPGGA,160437.000,4026.7502,N,07520.5890,W,2,9,0.88,153.8,M,-33.9,M,0000,0000*6C
$GPRMC,160437.000,A,4026.75¹bj±0000,0000*6D
$GPRMC,160436.000,A,4026.7502,N,07520.5890,W,0.02,96.86,100612,,,D*4C
$PMTK001,314,3*36
$PMTK001,220,3*30
$PMTK001,185,3*3C
$GPGGA,160437.000,4026.7502,N,07520.5890,W,2,9,0.88,153.8,M,-33.9,M,0000,0000*6C
$GPRMC,160437.000,A,4026.75¹bj±0000,0000*6D
$GPRMC,160436.000,A,4026.7502,N,07520.5890,W,0.02,96.86,100612,,,D*4C
$PMTK001,314,3*36
$PMTK001,220,3*30
$PMTK001,185,3*3C
$GPGGA,160437.000,4026.7502,N,07520.5890,W,2,9,0.88,153.8,M,-33.9,M,0000,0000*6C
$GPRMC,160437.000,A,4026.75¹bj±0000,0000*6D
$GPRMC,160436.000,A,4026.7502,N,07520.5890,W,0.02,96.86,100612,,,D*4C
$PMTK001,314,3*36
$PMTK001,220,3*30
$PMTK001,185,3*3C
$GPGGA,160437.000,4026.7502,N,07520.5890,W,2,9,0.88,153.8,M,-33.9,M,0000,0000*6C
$GPRMC,160437.000,A,4026.75¹bj±0000,0000*6D
$GPRMC,160436.000,A,4026.7502,N,07520.5890,W,0.02,96.86,100612,,,D*4C
$PMTK001,314,3*36
$PMTK001,220,3*30
$PMTK001,185,3*3C
$GPGGA,160437.000,4026.7502,N,07520.5890,W,2,9,0.88,153.8,M,-33.9,M,0000,0000*6C
$GPRMC,160437.000,A,4026.75¹bj±0000,0000*6D
$GPRMC,160436.000,A,4026.7502,N,07520.5890,W,0.02,96.86,100612,,,D*4C
$PMTK001,314,3*36
$PMTK001,220,3*30
$PMTK001,185,3*3C
$GPGGA,160437.000,4026.7502,N,07520.5890,W,2,9,0.88,153.8,M,-33.9,M,0000,0000*6C
$GPRMC,160437.000,A,4026.75¹bj±0000,0000*6D
$GPRMC,160436.000,A,4026.7502,N,07520.5890,W,0.02,96.86,100612,,,D*4C
$PMTK001,314,3*36
$PMTK001,220,3*30
$PMTK001,185,3*3C
$GPGGA,160437.000,4026.7502,N,07520.5890,W,2,9,0.88,153.8,M,-33.9,M,0000,0000*6C
$GPRMC,160437.000,A,4026.75¹bj±0000,0000*6D
$GPRMC,160436.000,A,4026.7502,N,07520.5890,W,0.02,96.86,100612,,,D*4C
$PMTK001,314,3*36
$PMTK001,220,3*30
$PMTK001,185,3*3C
$GPGGA,160437.000,4026.7502,N,07520.5890,W,2,9,0.88,153.8,M,-33.9,M,0000,0000*6C
$GPRMC,160437.000,A,4026.75¹bj±0000,0000*6D
$GPRMC,160436.000,A,4026.7502,N,07520.5890,W,0.02,96.86,100612,,,D*4C
$PMTK001,314,3*36
$PMTK001,220,3*30
$PMTK001,185,3*3C
$GPGGA,160437.000,4026.7502,N,07520.5890,W,2,9,0.88,153.8,M,-33.9,M,0000,0000*6C
$GPRMC,160437.000,A,4026.75¹bj±0000,0000*6D
$GPRMC,160436.000,A,4026.7502,N,07520.5890,W,0.02,96.86,100612,,,D*4C
$PMTK001,314,3*36
$PMTK001,220,3*30
$PMTK001,185,3*3C
$GPGGA,160437.000,4026.7502,N,07520.5890,W,2,9,0.88,153.8,M,-33.9,M,0000,0000*6C
$GPRMC,160437.000,A,4026.75¹bj±0000,0000*6D
$GPRMC,160436.000,A,4026.7502,N,07520.5890,W,0.02,96.86,100612,,,D*4C
$PMTK001,314,3*36
$PMTK001,220,3*30
$PMTK001,185,3*3C
$GPGGA,160437.000,4026.7502,N,07520.5890,W,2,9,0.88,153.8,M,-33.9,M,0000,0000*6C
$GPRMC,160437.000,A,4026.75¹bj±0000,0000*6D
$GPRMC,160436.000,A,4026.7502,N,07520.5890,W,0.02,96.86,100612,,,D*4C
$PMTK001,314,3*36
$PMTK001,220,3*30
$PMTK001,185,3*3C
$GPGGA,160437.000,4026.7502,N,07520.5890,W,2,9,0.88,153.8,M,-33.9,M,0000,0000*6C
$GPRMC,160437.000,A,4026.75¹bj±0000,0000*6D
$GPRMC,160436.000,A,4026.7502,N,07520.5890,W,0.02,96.86,100612,,,D*4C
$PMTK001,314,3*36
$PMTK001,220,3*30
$PMTK001,185,3*3C
$GPGGA,160437.000,4026.7502,N,07520.5890,W,2,9,0.88,153.8,M,-33.9,M,0000,0000*6C
$GPRMC,160437.000,A,4026.75¹bj±0000,0000*6D
$GPRMC,160436.000,A,4026.7502,N,07520.5890,W,0.02,96.86,100612,,,D*4C
$PMTK001,314,3*36
$PMTK001,220,3*30
$PMTK001,185,3*3C
$GPGGA,160437.000,4026.7502,N,07520.5890,W,2,9,0.88,153.8,M,-33.9,M,0000,0000*6C
$GPRMC,160437.000,A,4026.75¹bj±0000,0000*6D
$GPRMC,160436.000,A,4026.7502,N,07520.5890,W,0.02,96.86,100612,,,D*4C
$PMTK001,314,3*36
$PMTK001,220,3*30
$PMTK001,185,3*3C
$GPGGA,160437.000,4026.7502,N,07520.5890,W,2,9,0.88,153.8,M,-33.9,M,0000,0000*6C
$GPRMC,160437.000,A,4026.75¹bj±0000,0000*6D
$GPRMC,160436.000,A,4026.7502,N,07520.5890,W,0.02,96.86,100612,,,D*4C
$PMTK001,314,3*36
$PMTK001,220,3*30
$PMTK001,185,3*3C
$GPGGA,160437.000,4026.7502,N,07520.5890,W,2,9,0.88,153.8,M,-33.9,M,0000,0000*6C
$GPRMC,160437.000,A,4026.75¹bj±0000,0000*6D
$GPRMC,160436.000,A,4026.7502,N,07520.5890,W,0.02,96.86,100612,,,D*4C
$PMTK001,314,3*36
$PMTK001,220,3*30
$PMTK001,185,3*3C
$GPGGA,160437.000,4026.7502,N,07520.5890,W,2,9,0.88,153.8,M,-33.9,M,0000,0000*6C
$GPRMC,160437.000,A,4026.75¹bj±0000,0000*6D
$GPRMC,160436.000,A,4026.7502,N,07520.5890,W,0.02,96.86,100612,,,D*4C
$PMTK001,314,3*36
$PMTK001,220,3*30
$PMTK001,185,3*3C
$GPGGA,160437.000,4026.7502,N,07520.5890,W,2,9,0.88,153.8,M,-33.9,M,0000,0000*6C
$GPRMC,160437.000,A,4026.75¹bj±0000,0000*6D
$GPRMC,160436.000,A,4026.7502,N,07520.5890,W,0.02,96.86,100612,,,D*4C
$PMTK001,314,3*36
$PMTK001,220,3*30
$PMTK001,185,3*3C
$GPGGA,160437.000,4026.7502,N,07520.5890,W,2,9,0.88,153.8,M,-33.9,M,0000,0000*6C
$GPRMC,160437.000,A,4026.75¹bj±0000,0000*6D
$GPRMC,160436.000,A,4026.7502,N,07520.5890,W,0.02,96.86,100612,,,D*4C
$PMTK001,314,3*36
$PMTK001,220,3*30
$PMTK001,185,3*3C
$GPGGA,160437.000,4026.7502,N,07520.5890,W,2,9,0.88,153.8,M,-33.9,M,0000,0000*6C
$GPRMC,160437.000,A,4026.75¹bj±0000,0000*6D
$GPRMC,160436.000,A,4026.7502,N,07520.5890,W,0.02,96.86,100612,,,D*4C
$PMTK001,314,3*36
$PMTK001,220,3*30
$PMTK001,185,3*3C
$GPGGA,160437.000,4026.7502,N,07520.5890,W,2,9,0.88,153.8,M,-33.9,M,0000,0000*6C
$GPRMC,160437.000,A,4026.75¹bj±0000,0000*6D
$GPRMC,160436.000,A,4026.7502,N,07520.5890,W,0.02,96.86,100612,,,D*4C
$PMTK001,314,3*36
$PMTK001,220,3*30
$PMTK001,185,3*3C
$GPGGA,160437.000,4026.7502,N,07520.5890,W,2,9,0.88,153.8,M,-33.9,M,0000,0000*6C
$GPRMC,160437.000,A,4026.75¹bj±0000,0000*6D
$GPRMC,160436.000,A,4026.7502,N,07520.5890,W,0.02,96.86,100612,,,D*4C
$PMTK001,314,3*36
$PMTK001,220,3*30
$PMTK001,185,3*3C
$GPGGA,160437.000,4026.7502,N,07520.5890,W,2,9,0.88,153.8,M,-33.9,M,0000,0000*6C
$GPRMC,160437.000,A,4026.75¹bj±0000,0000*6D
$GPRMC,160436.000,A,4026.7502,N,07520.5890,W,0.02,96.86,100612,,,D*4C
$PMTK001,314,3*36
$PMTK001,220,3*30
$PMTK001,185,3*3C
$GPGGA,160437.000,4026.7502,N,07520.5890,W,2,9,0.88,153.8,M,-33.9,M,0000,0000*6C
$GPRMC,160437.000,A,4026.75¹bj±0000,0000*6D
$GPRMC,160436.000,A,4026.7502,N,07520.5890,W,0.02,96.86,100612,,,D*4C
$PMTK001,314,3*36
$PMTK001,220,3*30
$PMTK001,185,3*3C
$GPGGA,160437.000,4026.7502,N,07520.5890,W,2,9,0.88,153.8,M,-33.9,M,0000,0000*6C
$GPRMC,160437.000,A,4026.75¹bj±0000,0000*6D
$GPRMC,160436.000,A,4026.7502,N,07520.5890,W,0.02,96.86,100612,,,D*4C
$PMTK001,314,3*36
$PMTK001,220,3*30
$PMTK001,185,3*3C
$GPGGA,160437.000,4026.7502,N,07520.5890,W,2,9,0.88,153.8,M,-33.9,M,0000,0000*6C
$GPRMC,160437.000,A,4026.75¹bj±0000,0000*6D
$GPRMC,160436.000,A,4026.7502,N,07520.5890,W,0.02,96.86,100612,,,D*4C
$PMTK001,314,3*36
$PMTK001,220,3*30
$PMTK001,185,3*3C
$GPGGA,160437.000,4026.7502,N,07520.5890,W,2,9,0.88,153.8,M,-33.9,M,0000,0000*6C
$GPRMC,160437.000,A,4026.75¹bj±0000,0000*6D
$GPRMC,160436.000,A,4026.7502,N,07520.5890,W,0.02,96.86,100612,,,D*4C
$PMTK001,314,3*36
$PMTK001,220,3*30
$PMTK001,185,3*3C
$GPGGA,160437.000,4026.7502,N,07520.5890,W,2,9,0.88,153.8,M,-33.9,M,0000,0000*6C
$GPRMC,160437.000,A,4026.75¹bj±0000,0000*6D
$GPRMC,160436.000,A,4026.7502,N,07520.5890,W,0.02,96.86,100612,,,D*4C
$PMTK001,314,3*36
$PMTK001,220,3*30
$PMTK001,185,3*3C
$GPGGA,160437.000,4026.7502,N,07520.5890,W,2,9,0.88,153.8,M,-33.9,M,0000,0000*6C
$GPRMC,160437.000,A,4026.75¹bj±0000,0000*6D
$GPRMC,160436.000,A,4026.7502,N,07520.5890,W,0.02,96.86,100612,,,D*4C
$PMTK001,314,3*36
$PMTK001,220,3*30
$PMTK001,185,3*3C
$GPGGA,160437.000,4026.7502,N,07520.5890,W,2,9,0.88,153.8,M,-33.9,M,0000,0000*6C
$GPRMC,160437.000,A,4026.75¹bj±0000,0000*6D
$GPRMC,160436.000,A,4026.7502,N,07520.5890,W,0.02,96.86,100612,,,D*4C
$PMTK001,314,3*36
$PMTK001,220,3*30
$PMTK001,185,3*3C
$GPGGA,160437.000,4026.7502,N,07520.5890,W,2,9,0.88,153.8,M,-33.9,M,0000,0000*6C
$GPRMC,160437.000,A,4026.75¹bj±0000,0000*6D
$GPRMC,160436.000,A,4026.7502,N,07520.5890,W,0.02,96.86,100612,,,D*4C
$PMTK001,314,3*36
$PMTK001,220,3*30
$PMTK001,185,3*3C
$GPGGA,160437.000,4026.7502,N,07520.5890,W,2,9,0.88,153.8,M,-33.9,M,0000,0000*6C
$GPRMC,160437.000,A,4026.75¹bj±0000,0000*6D
$GPRMC,160436.000,A,4026.7502,N,07520.5890,W,0.02,96.86,100612,,,D*4C
$PMTK001,314,3*36
$PMTK001,220,3*30
$PMTK001,185,3*3C
$GPGGA,160437.000,4026.7502,N,07520.5890,W,2,9,0.88,153.8,M,-33.9,M,0000,0000*6C
$GPRMC,160437.000,A,4026.75¹bj±0000,0000*6D
$GPRMC,160436.000,A,4026.7502,N,07520.5890,W,0.02,96.86,100612,,,D*4C
$PMTK001,314,3*36
$PMTK001,220,3*30
$PMTK001,185,3*3C
$GPGGA,160437.000,4026.7502,N,07520.5890,W,2,9,0.88,153.8,M,-33.9,M,0000,0000*6C
$GPRMC,160437.000,A,4026.75¹bj±0000,0000*6D
$GPRMC,160436.000,A,4026.7502,N,07520.5890,W,0.02,96.86,100612,,,D*4C
$PMTK001,314,3*36
$PMTK001,220,3*30
$PMTK001,185,3*3C
$GPGGA,160437.000,4026.7502,N,07520.5890,W,2,9,0.88,153.8,M,-33.9,M,0000,0000*6C
$GPRMC,160437.000,A,4026.75¹bj±0000,0000*6D
$GPRMC,160436.000,A,4026.7502,N,07520.5890,W,0.02,96.86,100612,,,D*4C
$PMTK001,314,3*36
$PMTK001,220,3*30
$PMTK001,185,3*3C
$GPGGA,160437.000,4026.7502,N,07520.5890,W,2,9,0.88,153.8,M,-33.9,M,0000,0000*6C
$GPRMC,160437.000,A,4026.75¹bj±0000,0000*6D
$GPRMC,160436.000,A,4026.7502,N,07520.5890,W,0.02,96.86,100612,,,D*4C
$PMTK001,314,3*36
$PMTK001,220,3*30
$PMTK001,185,3*3C
$GPGGA,160437.000,4026.7502,N,07520.5890,W,2,9,0.88,153.8,M,-33.9,M,0000,0000*6C
$GPRMC,160437.000,A,4026.75¹bj±0000,0000*6D
$GPRMC,160436.000,A,4026.7502,N,07520.5890,W,0.02,96.86,100612,,,D*4C
$PMTK001,314,3*36
$PMTK001,220,3*30
$PMTK001,185,3*3C
$GPGGA,160437.000,4026.7502,N,07520.5890,W,2,9,0.88,153.8,M,-33.9,M,0000,0000*6C
$GPRMC,160437.000,A,4026.75¹bj±0000,0000*6D
$GPRMC,160436.000,A,4026.7502,N,07520.5890,W,0.02,96.86,100612,,,D*4C
$PMTK001,314,3*36
$PMTK001,220,3*30
$PMTK001,185,3*3C
$GPGGA,160437.000,4026.7502,N,07520.5890,W,2,9,0.88,153.8,M,-33.9,M,0000,0000*6C
$GPRMC,160437.000,A,4026.75¹bj±0000,0000*6D
$GPRMC,160436.000,A,4026.7502,N,07520.5890,W,0.02,96.86,100612,,,D*4C
$PMTK001,314,3*36
$PMTK001,220,3*30
$PMTK001,185,3*3C
$GPGGA,160437.000,4026.7502,N,07520.5890,W,2,9,0.88,153.8,M,-33.9,M,0000,0000*6C
$GPRMC,160437.000,A,4026.75¹bj±0000,0000*6D
$GPRMC,160436.000,A,4026.7502,N,07520.5890,W,0.02,96.86,100612,,,D*4C
$PMTK001,314,3*36
$PMTK001,220,3*30
$PMTK001,185,3*3C
$GPGGA,160437.000,4026.7502,N,07520.5890,W,2,9,0.88,153.8,M,-33.9,M,0000,0000*6C
$GPRMC,160437.000,A,4026.75¹bj±0000,0000*6D
$GPRMC,160436.000,A,4026.7502,N,07520.5890,W,0.02,96.86,100612,,,D*4C
$PMTK001,314,3*36
$PMTK001,220,3*30
$PMTK001,185,3*3C
$GPGGA,160437.000,4026.7502,N,07520.5890,W,2,9,0.88,153.8,M,-33.9,M,0000,0000*6C
$GPRMC,160437.000,A,4026.75¹bj±0000,0000*6D
$GPRMC,160436.000,A,4026.7502,N,07520.5890,W,0.02,96.86,100612,,,D*4C
$PMTK001,314,3*36
$PMTK001,220,3*30
$PMTK001,185,3*3C
$GPGGA,160437.000,4026.7502,N,07520.5890,W,2,9,0.88,153.8,M,-33.9,M,0000,0000*6C
$GPRMC,160437.000,A,4026.75¹bj±0000,0000*6D
$GPRMC,160436.000,A,4026.7502,N,07520.5890,W,0.02,96.86,100612,,,D*4C
$PMTK001,314,3*36
$PMTK001,220,3*30
$PMTK001,185,3*3C
$GPGGA,160437.000,4026.7502,N,07520.5890,W,2,9,0.88,153.8,M,-33.9,M,0000,0000*6C
$GPRMC,160437.000,A,4026.75¹bj±0000,0000*6D
$GPRMC,160436.000,A,4026.7502,N,07520.5890,W,0.02,96.86,100612,,,D*4C
$PMTK001,314,3*36
$PMTK001,220,3*30
$PMTK001,185,3*3C
$GPGGA,160437.000,4026.7502,N,07520.5890,W,2,9,0.88,153.8,M,-33.9,M,0000,0000*6C
$GPRMC,160437.000,A,4026.75¹bj±0000,0000*6D
$GPRMC,160436.000,A,4026.7502,N,07520.5890,W,0.02,96.86,100612,,,D*4C
$PMTK001,314,3*36
$PMTK001,220,3*30
$PMTK001,185,3*3C
$GPGGA,160437.000,4026.7502,N,07520.5890,W,2,9,0.88,153.8,M,-33.9,M,0000,0000*6C
$GPRMC,160437.000,A,4026.75¹bj±0000,0000*6D
$GPRMC,160436.000,A,4026.7502,N,07520.5890,W,0.02,96.86,100612,,,D*4C
$PMTK001,314,3*36
$PMTK001,220,3*30
$PMTK001,185,3*3C
$GPGGA,160437.000,4026.7502,N,07520.5890,W,2,9,0.88,153.8,M,-33.9,M,0000,0000*6C
$GPRMC,160437.000,A,4026.75¹bj±0000,0000*6D
$GPRMC,160436.000,A,4026.7502,N,07520.5890,W,0.02,96.86,100612,,,D*4C
$PMTK001,314,3*36
$PMTK001,220,3*30
$PMTK001,185,3*3C
$GPGGA,160437.000,4026.7502,N,07520.5890,W,2,9,0.88,153.8,M,-33.9,M,0000,0000*6C
$GPRMC,160437.000,A,4026.75¹bj±0000,0000*6D
$GPRMC,160436.000,A,4026.7502,N,07520.5890,W,0.02,96.86,100612,,,D*4C
$PMTK001,314,3*36
$PMTK001,220,3*30
$PMTK001,185,3*3C
$GPGGA,160437.000,4026.7502,N,07520.5890,W,2,9,0.88,153.8,M,-33.9,M,0000,0000*6C
$GPRMC,160437.000,A,4026.75¹bj±0000,0000*6D
$GPRMC,160436.000,A,4026.7502,N,07520.5890,W,0.02,96.86,100612,,,D*4C
$PMTK001,314,3*36
$PMTK001,220,3*30
$PMTK001,185,3*3C
$GPGGA,160437.000,4026.7502,N,07520.5890,W,2,9,0.88,153.8,M,-33.9,M,0000,0000*6C
$GPRMC,160437.000,A,4026.75¹bj±0000,0000*6D
$GPRMC,160436.000,A,4026.7502,N,07520.5890,W,0.02,96.86,100612,,,D*4C
$PMTK001,314,3*36
$PMTK001,220,3*30
$PMTK001,185,3*3C
$GPGGA,160437.000,4026.7502,N,07520.5890,W,2,9,0.88,153.8,M,-33.9,M,0000,0000*6C
$GPRMC,160437.000,A,4026.75¹bj±0000,0000*6D
$GPRMC,160436.000,A,4026.7502,N,07520.5890,W,0.02,96.86,100612,,,D*4C
$PMTK001,314,3*36
$PMTK001,220,3*30
$PMTK001,185,3*3C
$GPGGA,160437.000,4026.7502,N,07520.5890,W,2,9,0.88,153.8,M,-33.9,M,0000,0000*6C
$GPRMC,160437.000,A,4026.75¹bj±0000,0000*6D
$GPRMC,160436.000,A,4026.7502,N,07520.5890,W,0.02,96.86,100612,,,D*4C
$PMTK001,314,3*36
$PMTK001,220,3*30
$PMTK001,185,3*3C
$GPGGA,160437.000,4026.7502,N,07520.5890,W,2,9,0.88,153.8,M,-33.9,M,0000,0000*6C
$GPRMC,160437.000,A,4026.75¹bj±0000,0000*6D
$GPRMC,160436.000,A,4026.7502,N,07520.5890,W,0.02,96.86,100612,,,D*4C
$PMTK001,314,3*36
$PMTK001,220,3*30
$PMTK001,185,3*3C
$GPGGA,160437.000,4026.7502,N,07520.5890,W,2,9,0.88,153.8,M,-33.9,M,0000,0000*6C
$GPRMC,160437.000,A,4026.75