$GPGGA,175038.000,4026.4447,N,07520.3947,W,2,10,0.81,733.8,M,-33.9,M,0000,0000*5C
$GPRMC,175038.000,A,4026.4447,N,07520.3947,W,6.58,171.56,100612,,,D*70
$PMTK001,314,3*36
$PMTK001,220,3*30
$PMTK001,185,3*3C
$GPGGA,175039.000,4026.4439,N,07520.3944,W,$GPGGA,175038.000,4026.4447,N,07520.3947,W,2,10,0.81,733.8,M,-33.9,M,0000,0000*5C
$GPRMC,175038.000,A,4026.4447,N,07520.3947,W,6.58,171.56,100612,,,D*70
$PMTK001,314,3*36
$PMTK001,220,3*30
$PMTK001,185,3*3C
$GPGGA,175039.000,4026.4439,N,07520.3944,W,$GPGGA,175038.000,4026.4447,N,07520.3947,W,2,10,0.81,733.8,M,-33.9,M,0000,0000*5C
$GPRMC,175038.000,A,4026.4447,N,07520.3947,W,6.58,171.56,100612,,,D*70
$PMTK001,314,3*36
$PMTK001,220,3*30
$PMTK001,185,3*3C
$GPGGA,175039.000,4026.4439,N,07520.3944,W,$GPGGA,175038.000,4026.4447,N,07520.3947,W,2,10,0.81,733.8,M,-33.9,M,0000,0000*5C
$GPRMC,175038.000,A,4026.4447,N,07520.3947,W,6.58,171.56,100612,,,D*70
$PMTK001,314,3*36
$PMTK001,220,3*30
$PMTK001,185,3*3C
$GPGGA,175039.000,4026.4439,N,07520.3944,W,$GPGGA,175038.000,4026.4447,N,07520.3947,W,2,10,0.81,733.8,M,-33.9,M,0000,0000*5C
$GPRMC,175038.000,A,4026.4447,N,07520.3947,W,6.58,171.56,100612,,,D*70
$PMTK001,314,3*36
$PMTK001,220,3*30
$PMTK001,185,3*3C
$GPGGA,175039.000,4026.4439,N,07520.3944,W,$GPGGA,175038.000,4026.4447,N,07520.3947,W,2,10,0.81,733.8,M,-33.9,M,0000,0000*5C
$GPRMC,175038.000,A,4026.4447,N,07520.3947,W,6.58,171.56,100612,,,D*70
$PMTK001,314,3*36
$PMTK001,220,3*30
$PMTK001,185,3*3C
$GPGGA,175039.000,4026.4439,N,07520.3944,W,$GPGGA,175038.000,4026.4447,N,07520.3947,W,2,10,0.81,733.8,M,-33.9,M,0000,0000*5C
$GPRMC,175038.000,A,4026.4447,N,07520.3947,W,6.58,171.56,100612,,,D*70
$PMTK001,314,3*36
$PMTK001,220,3*30
$PMTK001,185,3*3C
$GPGGA,175039.000,4026.4439,N,07520.3944,W,$GPGGA,175038.000,4026.4447,N,07520.3947,W,2,10,0.81,733.8,M,-33.9,M,0000,0000*5C
$GPRMC,175038.000,A,4026.4447,N,07520.3947,W,6.58,171.56,100612,,,D*70
$PMTK001,314,3*36
$PMTK001,220,3*30
$PMTK001,185,3*3C
$GPGGA,175039.000,4026.4439,N,07520.3944,W,$GPGGA,175038.000,4026.4447,N,07520.3947,W,2,10,0.81,733.8,M,-33.9,M,0000,0000*5C
$GPRMC,175038.000,A,4026.4447,N,07520.3947,W,6.58,171.56,100612,,,D*70
$PMTK001,314,3*36
$PMTK001,220,3*30
$PMTK001,185,3*3C
$GPGGA,175039.000,4026.4439,N,07520.3944,W,$GPGGA,175038.000,4026.4447,N,07520.3947,W,2,10,0.81,733.8,M,-33.9,M,0000,0000*5C
$GPRMC,175038.000,A,4026.4447,N,07520.3947,W,6.58,171.56,100612,,,D*70
$PMTK001,314,3*36
$PMTK001,220,3*30
$PMTK001,185,3*3C
$GPGGA,175039.000,4026.4439,N,07520.3944,W,$GPGGA,175038.000,4026.4447,N,07520.3947,W,2,10,0.81,733.8,M,-33.9,M,0000,0000*5C
$GPRMC,175038.000,A,4026.4447,N,07520.3947,W,6.58,171.56,100612,,,D*70
$PMTK001,314,3*36
$PMTK001,220,3*30
$PMTK001,185,3*3C
$GPGGA,175039.000,4026.4439,N,07520.3944,W,$GPGGA,175038.000,4026.4447,N,07520.3947,W,2,10,0.81,733.8,M,-33.9,M,0000,0000*5C
$GPRMC,175038.000,A,4026.4447,N,07520.3947,W,6.58,171.56,100612,,,D*70
$PMTK001,314,3*36
$PMTK001,220,3*30
$PMTK001,185,3*3C
$GPGGA,175039.000,4026.4439,N,07520.3944,W,$GPGGA,175038.000,4026.4447,N,07520.3947,W,2,10,0.81,733.8,M,-33.9,M,0000,0000*5C
$GPRMC,175038.000,A,4026.4447,N,07520.3947,W,6.58,171.56,100612,,,D*70
$PMTK001,314,3*36
$PMTK001,220,3*30
$PMTK001,185,3*3C
$GPGGA,175039.000,4026.4439,N,07520.3944,W,$GPGGA,175038.000,4026.4447,N,07520.3947,W,2,10,0.81,733.8,M,-33.9,M,0000,0000*5C
$GPRMC,175038.000,A,4026.4447,N,07520.3947,W,6.58,171.56,100612,,,D*70
$PMTK001,314,3*36
$PMTK001,220,3*30
$PMTK001,185,3*3C
$GPGGA,175039.000,4026.4439,N,07520.3944,W,$GPGGA,175038.000,4026.4447,N,07520.3947,W,2,10,0.81,733.8,M,-33.9,M,0000,0000*5C
$GPRMC,175038.000,A,4026.4447,N,07520.3947,W,6.58,171.56,100612,,,D*70
$PMTK001,314,3*36
$PMTK001,220,3*30
$PMTK001,185,3*3C
$GPGGA,175039.000,4026.4439,N,07520.3944,W,$GPGGA,175038.000,4026.4447,N,07520.3947,W,2,10,0.81,733.8,M,-33.9,M,0000,0000*5C
$GPRMC,175038.000,A,4026.4447,N,07520.3947,W,6.58,171.56,100612,,,D*70
$PMTK001,314,3*36
$PMTK001,220,3*30
$PMTK001,185,3*3C
$GPGGA,175039.000,4026.4439,N,07520.3944,W,$GPGGA,175038.000,4026.4447,N,07520.3947,W,2,10,0.81,733.8,M,-33.9,M,0000,0000*5C
$GPRMC,175038.000,A,4026.4447,N,07520.3947,W,6.58,171.56,100612,,,D*70
$PMTK001,314,3*36
$PMTK001,220,3*30
$PMTK001,185,3*3C
$GPGGA,175039.000,4026.4439,N,07520.3944,W,$GPGGA,175038.000,4026.4447,N,07520.3947,W,2,10,0.81,733.8,M,-33.9,M,0000,0000*5C
$GPRMC,175038.000,A,4026.4447,N,07520.3947,W,6.58,171.56,100612,,,D*70
$PMTK001,314,3*36
$PMTK001,220,3*30
$PMTK001,185,3*3C
$GPGGA,175039.000,4026.4439,N,07520.3944,W,$GPGGA,175038.000,4026.4447,N,07520.3947,W,2,10,0.81,733.8,M,-33.9,M,0000,0000*5C
$GPRMC,175038.000,A,4026.4447,N,07520.3947,W,6.58,171.56,100612,,,D*70
$PMTK001,314,3*36
$PMTK001,220,3*30
$PMTK001,185,3*3C
$GPGGA,175039.000,4026.4439,N,07520.3944,W,$GPGGA,175038.000,4026.4447,N,07520.3947,W,2,10,0.81,733.8,M,-33.9,M,0000,0000*5C
$GPRMC,175038.000,A,4026.4447,N,07520.3947,W,6.58,171.56,100612,,,D*70
$PMTK001,314,3*36
$PMTK001,220,3*30
$PMTK001,185,3*3C
$GPGGA,175039.000,4026.4439,N,07520.3944,W,$GPGGA,175038.000,4026.4447,N,07520.3947,W,2,10,0.81,733.8,M,-33.9,M,0000,0000*5C
$GPRMC,175038.000,A,4026.4447,N,07520.3947,W,6.58,171.56,100612,,,D*70
$PMTK001,314,3*36
$PMTK001,220,3*30
$PMTK001,185,3*3C
$GPGGA,175039.000,4026.4439,N,07520.3944,W,$GPGGA,175038.000,4026.4447,N,07520.3947,W,2,10,0.81,733.8,M,-33.9,M,0000,0000*5C
$GPRMC,175038.000,A,4026.4447,N,07520.3947,W,6.58,171.56,100612,,,D*70
$PMTK001,314,3*36
$PMTK001,220,3*30
$PMTK001,185,3*3C
$GPGGA,175039.000,4026.4439,N,07520.3944,W,$GPGGA,175038.000,4026.4447,N,07520.3947,W,2,10,0.81,733.8,M,-33.9,M,0000,0000*5C
$GPRMC,175038.000,A,4026.4447,N,07520.3947,W,6.58,171.56,100612,,,D*70
$PMTK001,314,3*36
$PMTK001,220,3*30
$PMTK001,185,3*3C
$GPGGA,175039.000,4026.4439,N,07520.3944,W,$GPGGA,175038.000,4026.4447,N,07520.3947,W,2,10,0.81,733.8,M,-33.9,M,0000,0000*5C
$GPRMC,175038.000,A,4026.4447,N,07520.3947,W,6.58,171.56,100612,,,D*70
$PMTK001,314,3*36
$PMTK001,220,3*30
$PMTK001,185,3*3C
$GPGGA,175039.000,4026.4439,N,07520.3944,W,$GPGGA,175038.000,4026.4447,N,07520.3947,W,2,10,0.81,733.8,M,-33.9,M,0000,0000*5C
$GPRMC,175038.000,A,4026.4447,N,07520.3947,W,6.58,171.56,100612,,,D*70
$PMTK001,314,3*36
$PMTK001,220,3*30
$PMTK001,185,3*3C
$GPGGA,175039.000,4026.4439,N,07520.3944,W,$GPGGA,175038.000,4026.4447,N,07520.3947,W,2,10,0.81,733.8,M,-33.9,M,0000,0000*5C
$GPRMC,175038.000,A,4026.4447,N,07520.3947,W,6.58,171.56,100612,,,D*70
$PMTK001,314,3*36
$PMTK001,220,3*30
$PMTK001,185,3*3C
$GPGGA,175039.000,4026.4439,N,07520.3944,W,$GPGGA,175038.000,4026.4447,N,07520.3947,W,2,10,0.81,733.8,M,-33.9,M,0000,0000*5C
$GPRMC,175038.000,A,4026.4447,N,07520.3947,W,6.58,171.56,100612,,,D*70
$PMTK001,314,3*36
$PMTK001,220,3*30
$PMTK001,185,3*3C
$GPGGA,175039.000,4026.4439,N,07520.3944,W,$GPGGA,175038.000,4026.4447,N,07520.3947,W,2,10,0.81,733.8,M,-33.9,M,0000,0000*5C
$GPRMC,175038.000,A,4026.4447,N,07520.3947,W,6.58,171.56,100612,,,D*70
$PMTK001,314,3*36
$PMTK001,220,3*30
$PMTK001,185,3*3C
$GPGGA,175039.000,4026.4439,N,07520.3944,W,$GPGGA,175038.000,4026.4447,N,07520.3947,W,2,10,0.81,733.8,M,-33.9,M,0000,0000*5C
$GPRMC,175038.000,A,4026.4447,N,07520.3947,W,6.58,171.56,100612,,,D*70
$PMTK001,314,3*36
$PMTK001,220,3*30
$PMTK001,185,3*3C
$GPGGA,175039.000,4026.4439,N,07520.3944,W,$GPGGA,175038.000,4026.4447,N,07520.3947,W,2,10,0.81,733.8,M,-33.9,M,0000,0000*5C
$GPRMC,175038.000,A,4026.4447,N,07520.3947,W,6.58,171.56,100612,,,D*70
$PMTK001,314,3*36
$PMTK001,220,3*30
$PMTK001,185,3*3C
$GPGGA,175039.000,4026.4439,N,07520.3944,W,$GPGGA,175038.000,4026.4447,N,07520.3947,W,2,10,0.81,733.8,M,-33.9,M,0000,0000*5C
$GPRMC,175038.000,A,4026.4447,N,07520.3947,W,6.58,171.56,100612,,,D*70
$PMTK001,314,3*36
$PMTK001,220,3*30
$PMTK001,185,3*3C
$GPGGA,175039.000,4026.4439,N,07520.3944,W,$GPGGA,175038.000,4026.4447,N,07520.3947,W,2,10,0.81,733.8,M,-33.9,M,0000,0000*5C
$GPRMC,175038.000,A,4026.4447,N,07520.3947,W,6.58,171.56,100612,,,D*70
$PMTK001,314,3*36
$PMTK001,220,3*30
$PMTK001,185,3*3C
$GPGGA,175039.000,4026.4439,N,07520.3944,W,$GPGGA,175038.000,4026.4447,N,07520.3947,W,2,10,0.81,733.8,M,-33.9,M,0000,0000*5C
$GPRMC,175038.000,A,4026.4447,N,07520.3947,W,6.58,171.56,100612,,,D*70
$PMTK001,314,3*36
$PMTK001,220,3*30
$PMTK001,185,3*3C
$GPGGA,175039.000,4026.4439,N,07520.3944,W,$GPGGA,175038.000,4026.4447,N,07520.3947,W,2,10,0.81,733.8,M,-33.9,M,0000,0000*5C
$GPRMC,175038.000,A,4026.4447,N,07520.3947,W,6.58,171.56,100612,,,D*70
$PMTK001,314,3*36
$PMTK001,220,3*30
$PMTK001,185,3*3C
$GPGGA,175039.000,4026.4439,N,07520.3944,W,$GPGGA,175038.000,4026.4447,N,07520.3947,W,2,10,0.81,733.8,M,-33.9,M,0000,0000*5C
$GPRMC,175038.000,A,4026.4447,N,07520.3947,W,6.58,171.56,100612,,,D*70
$PMTK001,314,3*36
$PMTK001,220,3*30
$PMTK001,185,3*3C
$GPGGA,175039.000,4026.4439,N,07520.3944,W,$GPGGA,175038.000,4026.4447,N,07520.3947,W,2,10,0.81,733.8,M,-33.9,M,0000,0000*5C
$GPRMC,175038.000,A,4026.4447,N,07520.3947,W,6.58,171.56,100612,,,D*70
$PMTK001,314,3*36
$PMTK001,220,3*30
$PMTK001,185,3*3C
$GPGGA,175039.000,4026.4439,N,07520.3944,W,$GPGGA,175038.000,4026.4447,N,07520.3947,W,2,10,0.81,733.8,M,-33.9,M,0000,0000*5C
$GPRMC,175038.000,A,4026.4447,N,07520.3947,W,6.58,171.56,100612,,,D*70
$PMTK001,314,3*36
$PMTK001,220,3*30
$PMTK001,185,3*3C
$GPGGA,175039.000,4026.4439,N,07520.3944,W,$GPGGA,175038.000,4026.4447,N,07520.3947,W,2,10,0.81,733.8,M,-33.9,M,0000,0000*5C
$GPRMC,175038.000,A,4026.4447,N,07520.3947,W,6.58,171.56,100612,,,D*70
$PMTK001,314,3*36
$PMTK001,220,3*30
$PMTK001,185,3*3C
$GPGGA,175039.000,4026.4439,N,07520.3944,W,$GPGGA,175038.000,4026.4447,N,07520.3947,W,2,10,0.81,733.8,M,-33.9,M,0000,0000*5C
$GPRMC,175038.000,A,4026.4447,N,07520.3947,W,6.58,171.56,100612,,,D*70
$PMTK001,314,3*36
$PMTK001,220,3*30
$PMTK001,185,3*3C
$GPGGA,175039.000,4026.4439,N,07520.3944,W,$GPGGA,175038.000,4026.4447,N,07520.3947,W,2,10,0.81,733.8,M,-33.9,M,0000,0000*5C
$GPRMC,175038.000,A,4026.4447,N,07520.3947,W,6.58,171.56,100612,,,D*70
$PMTK001,314,3*36
$PMTK001,220,3*30
$PMTK001,185,3*3C
$GPGGA,175039.000,4026.4439,N,07520.3944,W,$GPGGA,175038.000,4026.4447,N,07520.3947,W,2,10,0.81,733.8,M,-33.9,M,0000,0000*5C
$GPRMC,175038.000,A,4026.4447,N,07520.3947,W,6.58,171.56,100612,,,D*70
$PMTK001,314,3*36
$PMTK001,220,3*30
$PMTK001,185,3*3C
$GPGGA,175039.000,4026.4439,N,07520.3944,W,$GPGGA,175038.000,4026.4447,N,07520.3947,W,2,10,0.81,733.8,M,-33.9,M,0000,0000*5C
$GPRMC,175038.000,A,4026.4447,N,07520.3947,W,6.58,171.56,100612,,,D*70
$PMTK001,314,3*36
$PMTK001,220,3*30
$PMTK001,185,3*3C
$GPGGA,175039.000,4026.4439,N,07520.3944,W,$GPGGA,175038.000,4026.4447,N,07520.3947,W,2,10,0.81,733.8,M,-33.9,M,0000,0000*5C
$GPRMC,175038.000,A,4026.4447,N,07520.3947,W,6.58,171.56,100612,,,D*70
$PMTK001,314,3*36
$PMTK001,220,3*30
$PMTK001,185,3*3C
$GPGGA,175039.000,4026.4439,N,07520.3944,W,$GPGGA,175038.000,4026.4447,N,07520.3947,W,2,10,0.81,733.8,M,-33.9,M,0000,0000*5C
$GPRMC,175038.000,A,4026.4447,N,07520.3947,W,6.58,171.56,100612,,,D*70
$PMTK001,314,3*36
$PMTK001,220,3*30
$PMTK001,185,3*3C
$GPGGA,175039.000,4026.4439,N,07520.3944,W,$GPGGA,175038.000,4026.4447,N,07520.3947,W,2,10,0.81,733.8,M,-33.9,M,0000,0000*5C
$GPRMC,175038.000,A,4026.4447,N,07520.3947,W,6.58,171.56,100612,,,D*70
$PMTK001,314,3*36
$PMTK001,220,3*30
$PMTK001,185,3*3C
$GPGGA,175039.000,4026.4439,N,07520.3944,W,$GPGGA,175038.000,4026.4447,N,07520.3947,W,2,10,0.81,733.8,M,-33.9,M,0000,0000*5C
$GPRMC,175038.000,A,4026.4447,N,07520.3947,W,6.58,171.56,100612,,,D*70
$PMTK001,314,3*36
$PMTK001,220,3*30
$PMTK001,185,3*3C
$GPGGA,175039.000,4026.4439,N,07520.3944,W,$GPGGA,175038.000,4026.4447,N,07520.3947,W,2,10,0.81,733.8,M,-33.9,M,0000,0000*5C
$GPRMC,175038.000,A,4026.4447,N,07520.3947,W,6.58,171.56,100612,,,D*70
$PMTK001,314,3*36
$PMTK001,220,3*30
$PMTK001,185,3*3C
$GPGGA,175039.000,4026.4439,N,07520.3944,W,$GPGGA,175038.000,4026.4447,N,07520.3947,W,2,10,0.81,733.8,M,-33.9,M,0000,0000*5C
$GPRMC,175038.000,A,4026.4447,N,07520.3947,W,6.58,171.56,100612,,,D*70
$PMTK001,314,3*36
$PMTK001,220,3*30
$PMTK001,185,3*3C
$GPGGA,175039.000,4026.4439,N,07520.3944,W,$GPGGA,175038.000,4026.4447,N,07520.3947,W,2,10,0.81,733.8,M,-33.9,M,0000,0000*5C
$GPRMC,175038.000,A,4026.4447,N,07520.3947,W,6.58,171.56,100612,,,D*70
$PMTK001,314,3*36
$PMTK001,220,3*30
$PMTK001,185,3*3C
$GPGGA,175039.000,4026.4439,N,07520.3944,W,$GPGGA,175038.000,4026.4447,N,07520.3947,W,2,10,0.81,733.8,M,-33.9,M,0000,0000*5C
$GPRMC,175038.000,A,4026.4447,N,07520.3947,W,6.58,171.56,100612,,,D*70
$PMTK001,314,3*36
$PMTK001,220,3*30
$PMTK001,185,3*3C
$GPGGA,175039.000,4026.4439,N,07520.3944,W,$GPGGA,175038.000,4026.4447,N,07520.3947,W,2,10,0.81,733.8,M,-33.9,M,0000,0000*5C
$GPRMC,175038.000,A,4026.4447,N,07520.3947,W,6.58,171.56,100612,,,D*70
$PMTK001,314,3*36
$PMTK001,220,3*30
$PMTK001,185,3*3C
$GPGGA,175039.000,4026.4439,N,07520.3944,W,$GPGGA,175038.000,4026.4447,N,07520.3947,W,2,10,0.81,733.8,M,-33.9,M,0000,0000*5C
$GPRMC,175038.000,A,4026.4447,N,07520.3947,W,6.58,171.56,100612,,,D*70
$PMTK001,314,3*36
$PMTK001,220,3*30
$PMTK001,185,3*3C
$GPGGA,175039.000,4026.4439,N,07520.3944,W,$GPGGA,175038.000,4026.4447,N,07520.3947,W,2,10,0.81,733.8,M,-33.9,M,0000,0000*5C
$GPRMC,175038.000,A,4026.4447,N,07520.3947,W,6.58,171.56,100612,,,D*70
$PMTK001,314,3*36
$PMTK001,220,3*30
$PMTK001,185,3*3C
$GPGGA,175039.000,4026.4439,N,07520.3944,W,$GPGGA,175038.000,4026.4447,N,07520.3947,W,2,10,0.81,733.8,M,-33.9,M,0000,0000*5C
$GPRMC,175038.000,A,4026.4447,N,07520.3947,W,6.58,171.56,100612,,,D*70
$PMTK001,314,3*36
$PMTK001,220,3*30
$PMTK001,185,3*3C
$GPGGA,175039.000,4026.4439,N,07520.3944,W,$GPGGA,175038.000,4026.4447,N,07520.3947,W,2,10,0.81,733.8,M,-33.9,M,0000,0000*5C
$GPRMC,175038.000,A,4026.4447,N,07520.3947,W,6.58,171.56,100612,,,D*70
$PMTK001,314,3*36
$PMTK001,220,3*30
$PMTK001,185,3*3C
$GPGGA,175039.000,4026.4439,N,07520.3944,W,$GPGGA,175038.000,4026.4447,N,07520.3947,W,2,10,0.81,733.8,M,-33.9,M,0000,0000*5C
$GPRMC,175038.000,A,4026.4447,N,07520.3947,W,6.58,171.56,100612,,,D*70
$PMTK001,314,3*36
$PMTK001,220,3*30
$PMTK001,185,3*3C
$GPGGA,175039.000,4026.4439,N,07520.3944,W,$GPGGA,175038.000,4026.4447,N,07520.3947,W,2,10,0.81,733.8,M,-33.9,M,0000,0000*5C
$GPRMC,175038.000,A,4026.4447,N,07520.3947,W,6.58,171.56,100612,,,D*70
$PMTK001,314,3*36
$PMTK001,220,3*30
$PMTK001,185,3*3C
$GPGGA,175039.000,4026.4439,N,07520.3944,W,$GPGGA,175038.000,4026.4447,N,07520.3947,W,2,10,0.81,733.8,M,-33.9,M,0000,0000*5C
$GPRMC,175038.000,A,4026.4447,N,07520.3947,W,6.58,171.56,100612,,,D*70
$PMTK001,314,3*36
$PMTK001,220,3*30
$PMTK001,185,3*3C
$GPGGA,175039.000,4026.4439,N,07520.3944,W,