$GPGGA,183439.000,4012.9313,N,07510.7200,W,2,12,0.83,7017.6,M,-33.9,M,0000,0000*6B
$GPRMC,183439.000,A,4012.9313,N,07510.7200,W,29.16,139.41,100612,,,D*42
$PMTK001,314,3*36
$PMTK001,220,3*30
$PMTK001,185,3*3C
$GPGGA,183440.000,4012.9252,N,07510.7132,$GPGGA,183439.000,4012.9313,N,07510.7200,W,2,12,0.83,7017.6,M,-33.9,M,0000,0000*6B
$GPRMC,183439.000,A,4012.9313,N,07510.7200,W,29.16,139.41,100612,,,D*42
$PMTK001,314,3*36
$PMTK001,220,3*30
$PMTK001,185,3*3C
$GPGGA,183440.000,4012.9252,N,07510.7132,$GPGGA,183439.000,4012.9313,N,07510.7200,W,2,12,0.83,7017.6,M,-33.9,M,0000,0000*6B
$GPRMC,183439.000,A,4012.9313,N,07510.7200,W,29.16,139.41,100612,,,D*42
$PMTK001,314,3*36
$PMTK001,220,3*30
$PMTK001,185,3*3C
$GPGGA,183440.000,4012.9252,N,07510.7132,$GPGGA,183439.000,4012.9313,N,07510.7200,W,2,12,0.83,7017.6,M,-33.9,M,0000,0000*6B
$GPRMC,183439.000,A,4012.9313,N,07510.7200,W,29.16,139.41,100612,,,D*42
$PMTK001,314,3*36
$PMTK001,220,3*30
$PMTK001,185,3*3C
$GPGGA,183440.000,4012.9252,N,07510.7132,$GPGGA,183439.000,4012.9313,N,07510.7200,W,2,12,0.83,7017.6,M,-33.9,M,0000,0000*6B
$GPRMC,183439.000,A,4012.9313,N,07510.7200,W,29.16,139.41,100612,,,D*42
$PMTK001,314,3*36
$PMTK001,220,3*30
$PMTK001,185,3*3C
$GPGGA,183440.000,4012.9252,N,07510.7132,$GPGGA,183439.000,4012.9313,N,07510.7200,W,2,12,0.83,7017.6,M,-33.9,M,0000,0000*6B
$GPRMC,183439.000,A,4012.9313,N,07510.7200,W,29.16,139.41,100612,,,D*42
$PMTK001,314,3*36
$PMTK001,220,3*30
$PMTK001,185,3*3C
$GPGGA,183440.000,4012.9252,N,07510.7132,$GPGGA,183439.000,4012.9313,N,07510.7200,W,2,12,0.83,7017.6,M,-33.9,M,0000,0000*6B
$GPRMC,183439.000,A,4012.9313,N,07510.7200,W,29.16,139.41,100612,,,D*42
$PMTK001,314,3*36
$PMTK001,220,3*30
$PMTK001,185,3*3C
$GPGGA,183440.000,4012.9252,N,07510.7132,$GPGGA,183439.000,4012.9313,N,07510.7200,W,2,12,0.83,7017.6,M,-33.9,M,0000,0000*6B
$GPRMC,183439.000,A,4012.9313,N,07510.7200,W,29.16,139.41,100612,,,D*42
$PMTK001,314,3*36
$PMTK001,220,3*30
$PMTK001,185,3*3C
$GPGGA,183440.000,4012.9252,N,07510.7132,$GPGGA,183439.000,4012.9313,N,07510.7200,W,2,12,0.83,7017.6,M,-33.9,M,0000,0000*6B
$GPRMC,183439.000,A,4012.9313,N,07510.7200,W,29.16,139.41,100612,,,D*42
$PMTK001,314,3*36
$PMTK001,220,3*30
$PMTK001,185,3*3C
$GPGGA,183440.000,4012.9252,N,07510.7132,$GPGGA,183439.000,4012.9313,N,07510.7200,W,2,12,0.83,7017.6,M,-33.9,M,0000,0000*6B
$GPRMC,183439.000,A,4012.9313,N,07510.7200,W,29.16,139.41,100612,,,D*42
$PMTK001,314,3*36
$PMTK001,220,3*30
$PMTK001,185,3*3C
$GPGGA,183440.000,4012.9252,N,07510.7132,$GPGGA,183439.000,4012.9313,N,07510.7200,W,2,12,0.83,7017.6,M,-33.9,M,0000,0000*6B
$GPRMC,183439.000,A,4012.9313,N,07510.7200,W,29.16,139.41,100612,,,D*42
$PMTK001,314,3*36
$PMTK001,220,3*30
$PMTK001,185,3*3C
$GPGGA,183440.000,4012.9252,N,07510.7132,$GPGGA,183439.000,4012.9313,N,07510.7200,W,2,12,0.83,7017.6,M,-33.9,M,0000,0000*6B
$GPRMC,183439.000,A,4012.9313,N,07510.7200,W,29.16,139.41,100612,,,D*42
$PMTK001,314,3*36
$PMTK001,220,3*30
$PMTK001,185,3*3C
$GPGGA,183440.000,4012.9252,N,07510.7132,$GPGGA,183439.000,4012.9313,N,07510.7200,W,2,12,0.83,7017.6,M,-33.9,M,0000,0000*6B
$GPRMC,183439.000,A,4012.9313,N,07510.7200,W,29.16,139.41,100612,,,D*42
$PMTK001,314,3*36
$PMTK001,220,3*30
$PMTK001,185,3*3C
$GPGGA,183440.000,4012.9252,N,07510.7132,$GPGGA,183439.000,4012.9313,N,07510.7200,W,2,12,0.83,7017.6,M,-33.9,M,0000,0000*6B
$GPRMC,183439.000,A,4012.9313,N,07510.7200,W,29.16,139.41,100612,,,D*42
$PMTK001,314,3*36
$PMTK001,220,3*30
$PMTK001,185,3*3C
$GPGGA,183440.000,4012.9252,N,07510.7132,$GPGGA,183439.000,4012.9313,N,07510.7200,W,2,12,0.83,7017.6,M,-33.9,M,0000,0000*6B
$GPRMC,183439.000,A,4012.9313,N,07510.7200,W,29.16,139.41,100612,,,D*42
$PMTK001,314,3*36
$PMTK001,220,3*30
$PMTK001,185,3*3C
$GPGGA,183440.000,4012.9252,N,07510.7132,$GPGGA,183439.000,4012.9313,N,07510.7200,W,2,12,0.83,7017.6,M,-33.9,M,0000,0000*6B
$GPRMC,183439.000,A,4012.9313,N,07510.7200,W,29.16,139.41,100612,,,D*42
$PMTK001,314,3*36
$PMTK001,220,3*30
$PMTK001,185,3*3C
$GPGGA,183440.000,4012.9252,N,07510.7132,$GPGGA,183439.000,4012.9313,N,07510.7200,W,2,12,0.83,7017.6,M,-33.9,M,0000,0000*6B
$GPRMC,183439.000,A,4012.9313,N,07510.7200,W,29.16,139.41,100612,,,D*42
$PMTK001,314,3*36
$PMTK001,220,3*30
$PMTK001,185,3*3C
$GPGGA,183440.000,4012.9252,N,07510.7132,$GPGGA,183439.000,4012.9313,N,07510.7200,W,2,12,0.83,7017.6,M,-33.9,M,0000,0000*6B
$GPRMC,183439.000,A,4012.9313,N,07510.7200,W,29.16,139.41,100612,,,D*42
$PMTK001,314,3*36
$PMTK001,220,3*30
$PMTK001,185,3*3C
$GPGGA,183440.000,4012.9252,N,07510.7132,$GPGGA,183439.000,4012.9313,N,07510.7200,W,2,12,0.83,7017.6,M,-33.9,M,0000,0000*6B
$GPRMC,183439.000,A,4012.9313,N,07510.7200,W,29.16,139.41,100612,,,D*42
$PMTK001,314,3*36
$PMTK001,220,3*30
$PMTK001,185,3*3C
$GPGGA,183440.000,4012.9252,N,07510.7132,$GPGGA,183439.000,4012.9313,N,07510.7200,W,2,12,0.83,7017.6,M,-33.9,M,0000,0000*6B
$GPRMC,183439.000,A,4012.9313,N,07510.7200,W,29.16,139.41,100612,,,D*42
$PMTK001,314,3*36
$PMTK001,220,3*30
$PMTK001,185,3*3C
$GPGGA,183440.000,4012.9252,N,07510.7132,$GPGGA,183439.000,4012.9313,N,07510.7200,W,2,12,0.83,7017.6,M,-33.9,M,0000,0000*6B
$GPRMC,183439.000,A,4012.9313,N,07510.7200,W,29.16,139.41,100612,,,D*42
$PMTK001,314,3*36
$PMTK001,220,3*30
$PMTK001,185,3*3C
$GPGGA,183440.000,4012.9252,N,07510.7132,$GPGGA,183439.000,4012.9313,N,07510.7200,W,2,12,0.83,7017.6,M,-33.9,M,0000,0000*6B
$GPRMC,183439.000,A,4012.9313,N,07510.7200,W,29.16,139.41,100612,,,D*42
$PMTK001,314,3*36
$PMTK001,220,3*30
$PMTK001,185,3*3C
$GPGGA,183440.000,4012.9252,N,07510.7132,$GPGGA,183439.000,4012.9313,N,07510.7200,W,2,12,0.83,7017.6,M,-33.9,M,0000,0000*6B
$GPRMC,183439.000,A,4012.9313,N,07510.7200,W,29.16,139.41,100612,,,D*42
$PMTK001,314,3*36
$PMTK001,220,3*30
$PMTK001,185,3*3C
$GPGGA,183440.000,4012.9252,N,07510.7132,$GPGGA,183439.000,4012.9313,N,07510.7200,W,2,12,0.83,7017.6,M,-33.9,M,0000,0000*6B
$GPRMC,183439.000,A,4012.9313,N,07510.7200,W,29.16,139.41,100612,,,D*42
$PMTK001,314,3*36
$PMTK001,220,3*30
$PMTK001,185,3*3C
$GPGGA,183440.000,4012.9252,N,07510.7132,$GPGGA,183439.000,4012.9313,N,07510.7200,W,2,12,0.83,7017.6,M,-33.9,M,0000,0000*6B
$GPRMC,183439.000,A,4012.9313,N,07510.7200,W,29.16,139.41,100612,,,D*42
$PMTK001,314,3*36
$PMTK001,220,3*30
$PMTK001,185,3*3C
$GPGGA,183440.000,4012.9252,N,07510.7132,$GPGGA,183439.000,4012.9313,N,07510.7200,W,2,12,0.83,7017.6,M,-33.9,M,0000,0000*6B
$GPRMC,183439.000,A,4012.9313,N,07510.7200,W,29.16,139.41,100612,,,D*42
$PMTK001,314,3*36
$PMTK001,220,3*30
$PMTK001,185,3*3C
$GPGGA,183440.000,4012.9252,N,07510.7132,$GPGGA,183439.000,4012.9313,N,07510.7200,W,2,12,0.83,7017.6,M,-33.9,M,0000,0000*6B
$GPRMC,183439.000,A,4012.9313,N,07510.7200,W,29.16,139.41,100612,,,D*42
$PMTK001,314,3*36
$PMTK001,220,3*30
$PMTK001,185,3*3C
$GPGGA,183440.000,4012.9252,N,07510.7132,$GPGGA,183439.000,4012.9313,N,07510.7200,W,2,12,0.83,7017.6,M,-33.9,M,0000,0000*6B
$GPRMC,183439.000,A,4012.9313,N,07510.7200,W,29.16,139.41,100612,,,D*42
$PMTK001,314,3*36
$PMTK001,220,3*30
$PMTK001,185,3*3C
$GPGGA,183440.000,4012.9252,N,07510.7132,$GPGGA,183439.000,4012.9313,N,07510.7200,W,2,12,0.83,7017.6,M,-33.9,M,0000,0000*6B
$GPRMC,183439.000,A,4012.9313,N,07510.7200,W,29.16,139.41,100612,,,D*42
$PMTK001,314,3*36
$PMTK001,220,3*30
$PMTK001,185,3*3C
$GPGGA,183440.000,4012.9252,N,07510.7132,$GPGGA,183439.000,4012.9313,N,07510.7200,W,2,12,0.83,7017.6,M,-33.9,M,0000,0000*6B
$GPRMC,183439.000,A,4012.9313,N,07510.7200,W,29.16,139.41,100612,,,D*42
$PMTK001,314,3*36
$PMTK001,220,3*30
$PMTK001,185,3*3C
$GPGGA,183440.000,4012.9252,N,07510.7132,$GPGGA,183439.000,4012.9313,N,07510.7200,W,2,12,0.83,7017.6,M,-33.9,M,0000,0000*6B
$GPRMC,183439.000,A,4012.9313,N,07510.7200,W,29.16,139.41,100612,,,D*42
$PMTK001,314,3*36
$PMTK001,220,3*30
$PMTK001,185,3*3C
$GPGGA,183440.000,4012.9252,N,07510.7132,$GPGGA,183439.000,4012.9313,N,07510.7200,W,2,12,0.83,7017.6,M,-33.9,M,0000,0000*6B
$GPRMC,183439.000,A,4012.9313,N,07510.7200,W,29.16,139.41,100612,,,D*42
$PMTK001,314,3*36
$PMTK001,220,3*30
$PMTK001,185,3*3C
$GPGGA,183440.000,4012.9252,N,07510.7132,$GPGGA,183439.000,4012.9313,N,07510.7200,W,2,12,0.83,7017.6,M,-33.9,M,0000,0000*6B
$GPRMC,183439.000,A,4012.9313,N,07510.7200,W,29.16,139.41,100612,,,D*42
$PMTK001,314,3*36
$PMTK001,220,3*30
$PMTK001,185,3*3C
$GPGGA,183440.000,4012.9252,N,07510.7132,$GPGGA,183439.000,4012.9313,N,07510.7200,W,2,12,0.83,7017.6,M,-33.9,M,0000,0000*6B
$GPRMC,183439.000,A,4012.9313,N,07510.7200,W,29.16,139.41,100612,,,D*42
$PMTK001,314,3*36
$PMTK001,220,3*30
$PMTK001,185,3*3C
$GPGGA,183440.000,4012.9252,N,07510.7132,$GPGGA,183439.000,4012.9313,N,07510.7200,W,2,12,0.83,7017.6,M,-33.9,M,0000,0000*6B
$GPRMC,183439.000,A,4012.9313,N,07510.7200,W,29.16,139.41,100612,,,D*42
$PMTK001,314,3*36
$PMTK001,220,3*30
$PMTK001,185,3*3C
$GPGGA,183440.000,4012.9252,N,07510.7132,$GPGGA,183439.000,4012.9313,N,07510.7200,W,2,12,0.83,7017.6,M,-33.9,M,0000,0000*6B
$GPRMC,183439.000,A,4012.9313,N,07510.7200,W,29.16,139.41,100612,,,D*42
$PMTK001,314,3*36
$PMTK001,220,3*30
$PMTK001,185,3*3C
$GPGGA,183440.000,4012.9252,N,07510.7132,$GPGGA,183439.000,4012.9313,N,07510.7200,W,2,12,0.83,7017.6,M,-33.9,M,0000,0000*6B
$GPRMC,183439.000,A,4012.9313,N,07510.7200,W,29.16,139.41,100612,,,D*42
$PMTK001,314,3*36
$PMTK001,220,3*30
$PMTK001,185,3*3C
$GPGGA,183440.000,4012.9252,N,07510.7132,$GPGGA,183439.000,4012.9313,N,07510.7200,W,2,12,0.83,7017.6,M,-33.9,M,0000,0000*6B
$GPRMC,183439.000,A,4012.9313,N,07510.7200,W,29.16,139.41,100612,,,D*42
$PMTK001,314,3*36
$PMTK001,220,3*30
$PMTK001,185,3*3C
$GPGGA,183440.000,4012.9252,N,07510.7132,$GPGGA,183439.000,4012.9313,N,07510.7200,W,2,12,0.83,7017.6,M,-33.9,M,0000,0000*6B
$GPRMC,183439.000,A,4012.9313,N,07510.7200,W,29.16,139.41,100612,,,D*42
$PMTK001,314,3*36
$PMTK001,220,3*30
$PMTK001,185,3*3C
$GPGGA,183440.000,4012.9252,N,07510.7132,$GPGGA,183439.000,4012.9313,N,07510.7200,W,2,12,0.83,7017.6,M,-33.9,M,0000,0000*6B
$GPRMC,183439.000,A,4012.9313,N,07510.7200,W,29.16,139.41,100612,,,D*42
$PMTK001,314,3*36
$PMTK001,220,3*30
$PMTK001,185,3*3C
$GPGGA,183440.000,4012.9252,N,07510.7132,$GPGGA,183439.000,4012.9313,N,07510.7200,W,2,12,0.83,7017.6,M,-33.9,M,0000,0000*6B
$GPRMC,183439.000,A,4012.9313,N,07510.7200,W,29.16,139.41,100612,,,D*42
$PMTK001,314,3*36
$PMTK001,220,3*30
$PMTK001,185,3*3C
$GPGGA,183440.000,4012.9252,N,07510.7132,$GPGGA,183439.000,4012.9313,N,07510.7200,W,2,12,0.83,7017.6,M,-33.9,M,0000,0000*6B
$GPRMC,183439.000,A,4012.9313,N,07510.7200,W,29.16,139.41,100612,,,D*42
$PMTK001,314,3*36
$PMTK001,220,3*30
$PMTK001,185,3*3C
$GPGGA,183440.000,4012.9252,N,07510.7132,$GPGGA,183439.000,4012.9313,N,07510.7200,W,2,12,0.83,7017.6,M,-33.9,M,0000,0000*6B
$GPRMC,183439.000,A,4012.9313,N,07510.7200,W,29.16,139.41,100612,,,D*42
$PMTK001,314,3*36
$PMTK001,220,3*30
$PMTK001,185,3*3C
$GPGGA,183440.000,4012.9252,N,07510.7132,$GPGGA,183439.000,4012.9313,N,07510.7200,W,2,12,0.83,7017.6,M,-33.9,M,0000,0000*6B
$GPRMC,183439.000,A,4012.9313,N,07510.7200,W,29.16,139.41,100612,,,D*42
$PMTK001,314,3*36
$PMTK001,220,3*30
$PMTK001,185,3*3C
$GPGGA,183440.000,4012.9252,N,07510.7132,$GPGGA,183439.000,4012.9313,N,07510.7200,W,2,12,0.83,7017.6,M,-33.9,M,0000,0000*6B
$GPRMC,183439.000,A,4012.9313,N,07510.7200,W,29.16,139.41,100612,,,D*42
$PMTK001,314,3*36
$PMTK001,220,3*30
$PMTK001,185,3*3C
$GPGGA,183440.000,4012.9252,N,07510.7132,$GPGGA,183439.000,4012.9313,N,07510.7200,W,2,12,0.83,7017.6,M,-33.9,M,0000,0000*6B
$GPRMC,183439.000,A,4012.9313,N,07510.7200,W,29.16,139.41,100612,,,D*42
$PMTK001,314,3*36
$PMTK001,220,3*30
$PMTK001,185,3*3C
$GPGGA,183440.000,4012.9252,N,07510.7132,$GPGGA,183439.000,4012.9313,N,07510.7200,W,2,12,0.83,7017.6,M,-33.9,M,0000,0000*6B
$GPRMC,183439.000,A,4012.9313,N,07510.7200,W,29.16,139.41,100612,,,D*42
$PMTK001,314,3*36
$PMTK001,220,3*30
$PMTK001,185,3*3C
$GPGGA,183440.000,4012.9252,N,07510.7132,$GPGGA,183439.000,4012.9313,N,07510.7200,W,2,12,0.83,7017.6,M,-33.9,M,0000,0000*6B
$GPRMC,183439.000,A,4012.9313,N,07510.7200,W,29.16,139.41,100612,,,D*42
$PMTK001,314,3*36
$PMTK001,220,3*30
$PMTK001,185,3*3C
$GPGGA,183440.000,4012.9252,N,07510.7132,$GPGGA,183439.000,4012.9313,N,07510.7200,W,2,12,0.83,7017.6,M,-33.9,M,0000,0000*6B
$GPRMC,183439.000,A,4012.9313,N,07510.7200,W,29.16,139.41,100612,,,D*42
$PMTK001,314,3*36
$PMTK001,220,3*30
$PMTK001,185,3*3C
$GPGGA,183440.000,4012.9252,N,07510.7132,$GPGGA,183439.000,4012.9313,N,07510.7200,W,2,12,0.83,7017.6,M,-33.9,M,0000,0000*6B
$GPRMC,183439.000,A,4012.9313,N,07510.7200,W,29.16,139.41,100612,,,D*42
$PMTK001,314,3*36
$PMTK001,220,3*30
$PMTK001,185,3*3C
$GPGGA,183440.000,4012.9252,N,07510.7132,$GPGGA,183439.000,4012.9313,N,07510.7200,W,2,12,0.83,7017.6,M,-33.9,M,0000,0000*6B
$GPRMC,183439.000,A,4012.9313,N,07510.7200,W,29.16,139.41,100612,,,D*42
$PMTK001,314,3*36
$PMTK001,220,3*30
$PMTK001,185,3*3C
$GPGGA,183440.000,4012.9252,N,07510.7132,$GPGGA,183439.000,4012.9313,N,07510.7200,W,2,12,0.83,7017.6,M,-33.9,M,0000,0000*6B
$GPRMC,183439.000,A,4012.9313,N,07510.7200,W,29.16,139.41,100612,,,D*42
$PMTK001,314,3*36
$PMTK001,220,3*30
$PMTK001,185,3*3C
$GPGGA,183440.000,4012.9252,N,07510.7132,$GPGGA,183439.000,4012.9313,N,07510.7200,W,2,12,0.83,7017.6,M,-33.9,M,0000,0000*6B
$GPRMC,183439.000,A,4012.9313,N,07510.7200,W,29.16,139.41,100612,,,D*42
$PMTK001,314,3*36
$PMTK001,220,3*30
$PMTK001,185,3*3C
$GPGGA,183440.000,4012.9252,N,07510.7132,$GPGGA,183439.000,4012.9313,N,07510.7200,W,2,12,0.83,7017.6,M,-33.9,M,0000,0000*6B
$GPRMC,183439.000,A,4012.9313,N,07510.7200,W,29.16,139.41,100612,,,D*42
$PMTK001,314,3*36
$PMTK001,220,3*30
$PMTK001,185,3*3C
$GPGGA,183440.000,4012.9252,N,07510.7132,$GPGGA,183439.000,4012.9313,N,07510.7200,W,2,12,0.83,7017.6,M,-33.9,M,0000,0000*6B
$GPRMC,183439.000,A,4012.9313,N,07510.7200,W,29.16,139.41,100612,,,D*42
$PMTK001,314,3*36
$PMTK001,220,3*30
$PMTK001,185,3*3C
$GPGGA,183440.000,4012.9252,N,07510.7132,$GPGGA,183439.000,4012.9313,N,07510.7200,W,2,12,0.83,7017.6,M,-33.9,M,0000,0000*6B
$GPRMC,183439.000,A,4012.9313,N,07510.7200,W,29.16,139.41,100612,,,D*42
$PMTK001,314,3*36
$PMTK001,220,3*30
$PMTK001,185,3*3C
$GPGGA,183440.000,4012.9252,N,07510.7132,$GPGGA,183439.000,4012.9313,N,07510.7200,W,2,12,0.83,7017.6,M,-33.9,M,0000,0000*6B
$GPRMC,183439.000,A,4012.9313,N,07510.7200,W,29.16,139.41,100612,,,D*42
$PMTK001,314,3*36
$PMTK001,220,3*30
$PMTK001,185,3*3C
$GPGGA,183440.000,4012.9252,N,07510.7132,