&éIšr¢’bŠ¢Ârš²bŠ‚²Š’bbb"©42
$PMTK001,314,3*36
$PMTK001,220,3*30
$PMTK001,185,3*3C
$GPGGA,184040.000,4010.9377,N,07508.1676,W,2,12,0.82,7676.4,M,-34.0,M,0000,0000*60
$GPRMC,184040.000,A,4010.9377,N,07508.1676,W,23.06,146.67,100612,,,D*42
$GPGGA,184&éIšr¢’bŠ¢Ârš²bŠ‚²Š’bbb"©42
$PMTK001,314,3*36
$PMTK001,220,3*30
$PMTK001,185,3*3C
$GPGGA,184040.000,4010.9377,N,07508.1676,W,2,12,0.82,7676.4,M,-34.0,M,0000,0000*60
$GPRMC,184040.000,A,4010.9377,N,07508.1676,W,23.06,146.67,100612,,,D*42
$GPGGA,184&éIšr¢’bŠ¢Ârš²bŠ‚²Š’bbb"©42
$PMTK001,314,3*36
$PMTK001,220,3*30
$PMTK001,185,3*3C
$GPGGA,184040.000,4010.9377,N,07508.1676,W,2,12,0.82,7676.4,M,-34.0,M,0000,0000*60
$GPRMC,184040.000,A,4010.9377,N,07508.1676,W,23.06,146.67,100612,,,D*42
$GPGGA,184&éIšr¢’bŠ¢Ârš²bŠ‚²Š’bbb"©42
$PMTK001,314,3*36
$PMTK001,220,3*30
$PMTK001,185,3*3C
$GPGGA,184040.000,4010.9377,N,07508.1676,W,2,12,0.82,7676.4,M,-34.0,M,0000,0000*60
$GPRMC,184040.000,A,4010.9377,N,07508.1676,W,23.06,146.67,100612,,,D*42
$GPGGA,184&éIšr¢’bŠ¢Ârš²bŠ‚²Š’bbb"©42
$PMTK001,314,3*36
$PMTK001,220,3*30
$PMTK001,185,3*3C
$GPGGA,184040.000,4010.9377,N,07508.1676,W,2,12,0.82,7676.4,M,-34.0,M,0000,0000*60
$GPRMC,184040.000,A,4010.9377,N,07508.1676,W,23.06,146.67,100612,,,D*42
$GPGGA,184&éIšr¢’bŠ¢Ârš²bŠ‚²Š’bbb"©42
$PMTK001,314,3*36
$PMTK001,220,3*30
$PMTK001,185,3*3C
$GPGGA,184040.000,4010.9377,N,07508.1676,W,2,12,0.82,7676.4,M,-34.0,M,0000,0000*60
$GPRMC,184040.000,A,4010.9377,N,07508.1676,W,23.06,146.67,100612,,,D*42
$GPGGA,184&éIšr¢’bŠ¢Ârš²bŠ‚²Š’bbb"©42
$PMTK001,314,3*36
$PMTK001,220,3*30
$PMTK001,185,3*3C
$GPGGA,184040.000,4010.9377,N,07508.1676,W,2,12,0.82,7676.4,M,-34.0,M,0000,0000*60
$GPRMC,184040.000,A,4010.9377,N,07508.1676,W,23.06,146.67,100612,,,D*42
$GPGGA,184&éIšr¢’bŠ¢Ârš²bŠ‚²Š’bbb"©42
$PMTK001,314,3*36
$PMTK001,220,3*30
$PMTK001,185,3*3C
$GPGGA,184040.000,4010.9377,N,07508.1676,W,2,12,0.82,7676.4,M,-34.0,M,0000,0000*60
$GPRMC,184040.000,A,4010.9377,N,07508.1676,W,23.06,146.67,100612,,,D*42
$GPGGA,184&éIšr¢’bŠ¢Ârš²bŠ‚²Š’bbb"©42
$PMTK001,314,3*36
$PMTK001,220,3*30
$PMTK001,185,3*3C
$GPGGA,184040.000,4010.9377,N,07508.1676,W,2,12,0.82,7676.4,M,-34.0,M,0000,0000*60
$GPRMC,184040.000,A,4010.9377,N,07508.1676,W,23.06,146.67,100612,,,D*42
$GPGGA,184&éIšr¢’bŠ¢Ârš²bŠ‚²Š’bbb"©42
$PMTK001,314,3*36
$PMTK001,220,3*30
$PMTK001,185,3*3C
$GPGGA,184040.000,4010.9377,N,07508.1676,W,2,12,0.82,7676.4,M,-34.0,M,0000,0000*60
$GPRMC,184040.000,A,4010.9377,N,07508.1676,W,23.06,146.67,100612,,,D*42
$GPGGA,184&éIšr¢’bŠ¢Ârš²bŠ‚²Š’bbb"©42
$PMTK001,314,3*36
$PMTK001,220,3*30
$PMTK001,185,3*3C
$GPGGA,184040.000,4010.9377,N,07508.1676,W,2,12,0.82,7676.4,M,-34.0,M,0000,0000*60
$GPRMC,184040.000,A,4010.9377,N,07508.1676,W,23.06,146.67,100612,,,D*42
$GPGGA,184&éIšr¢’bŠ¢Ârš²bŠ‚²Š’bbb"©42
$PMTK001,314,3*36
$PMTK001,220,3*30
$PMTK001,185,3*3C
$GPGGA,184040.000,4010.9377,N,07508.1676,W,2,12,0.82,7676.4,M,-34.0,M,0000,0000*60
$GPRMC,184040.000,A,4010.9377,N,07508.1676,W,23.06,146.67,100612,,,D*42
$GPGGA,184&éIšr¢’bŠ¢Ârš²bŠ‚²Š’bbb"©42
$PMTK001,314,3*36
$PMTK001,220,3*30
$PMTK001,185,3*3C
$GPGGA,184040.000,4010.9377,N,07508.1676,W,2,12,0.82,7676.4,M,-34.0,M,0000,0000*60
$GPRMC,184040.000,A,4010.9377,N,07508.1676,W,23.06,146.67,100612,,,D*42
$GPGGA,184&éIšr¢’bŠ¢Ârš²bŠ‚²Š’bbb"©42
$PMTK001,314,3*36
$PMTK001,220,3*30
$PMTK001,185,3*3C
$GPGGA,184040.000,4010.9377,N,07508.1676,W,2,12,0.82,7676.4,M,-34.0,M,0000,0000*60
$GPRMC,184040.000,A,4010.9377,N,07508.1676,W,23.06,146.67,100612,,,D*42
$GPGGA,184&éIšr¢’bŠ¢Ârš²bŠ‚²Š’bbb"©42
$PMTK001,314,3*36
$PMTK001,220,3*30
$PMTK001,185,3*3C
$GPGGA,184040.000,4010.9377,N,07508.1676,W,2,12,0.82,7676.4,M,-34.0,M,0000,0000*60
$GPRMC,184040.000,A,4010.9377,N,07508.1676,W,23.06,146.67,100612,,,D*42
$GPGGA,184&éIšr¢’bŠ¢Ârš²bŠ‚²Š’bbb"©42
$PMTK001,314,3*36
$PMTK001,220,3*30
$PMTK001,185,3*3C
$GPGGA,184040.000,4010.9377,N,07508.1676,W,2,12,0.82,7676.4,M,-34.0,M,0000,0000*60
$GPRMC,184040.000,A,4010.9377,N,07508.1676,W,23.06,146.67,100612,,,D*42
$GPGGA,184&éIšr¢’bŠ¢Ârš²bŠ‚²Š’bbb"©42
$PMTK001,314,3*36
$PMTK001,220,3*30
$PMTK001,185,3*3C
$GPGGA,184040.000,4010.9377,N,07508.1676,W,2,12,0.82,7676.4,M,-34.0,M,0000,0000*60
$GPRMC,184040.000,A,4010.9377,N,07508.1676,W,23.06,146.67,100612,,,D*42
$GPGGA,184&éIšr¢’bŠ¢Ârš²bŠ‚²Š’bbb"©42
$PMTK001,314,3*36
$PMTK001,220,3*30
$PMTK001,185,3*3C
$GPGGA,184040.000,4010.9377,N,07508.1676,W,2,12,0.82,7676.4,M,-34.0,M,0000,0000*60
$GPRMC,184040.000,A,4010.9377,N,07508.1676,W,23.06,146.67,100612,,,D*42
$GPGGA,184&éIšr¢’bŠ¢Ârš²bŠ‚²Š’bbb"©42
$PMTK001,314,3*36
$PMTK001,220,3*30
$PMTK001,185,3*3C
$GPGGA,184040.000,4010.9377,N,07508.1676,W,2,12,0.82,7676.4,M,-34.0,M,0000,0000*60
$GPRMC,184040.000,A,4010.9377,N,07508.1676,W,23.06,146.67,100612,,,D*42
$GPGGA,184&éIšr¢’bŠ¢Ârš²bŠ‚²Š’bbb"©42
$PMTK001,314,3*36
$PMTK001,220,3*30
$PMTK001,185,3*3C
$GPGGA,184040.000,4010.9377,N,07508.1676,W,2,12,0.82,7676.4,M,-34.0,M,0000,0000*60
$GPRMC,184040.000,A,4010.9377,N,07508.1676,W,23.06,146.67,100612,,,D*42
$GPGGA,184&éIšr¢’bŠ¢Ârš²bŠ‚²Š’bbb"©42
$PMTK001,314,3*36
$PMTK001,220,3*30
$PMTK001,185,3*3C
$GPGGA,184040.000,4010.9377,N,07508.1676,W,2,12,0.82,7676.4,M,-34.0,M,0000,0000*60
$GPRMC,184040.000,A,4010.9377,N,07508.1676,W,23.06,146.67,100612,,,D*42
$GPGGA,184&éIšr¢’bŠ¢Ârš²bŠ‚²Š’bbb"©42
$PMTK001,314,3*36
$PMTK001,220,3*30
$PMTK001,185,3*3C
$GPGGA,184040.000,4010.9377,N,07508.1676,W,2,12,0.82,7676.4,M,-34.0,M,0000,0000*60
$GPRMC,184040.000,A,4010.9377,N,07508.1676,W,23.06,146.67,100612,,,D*42
$GPGGA,184&éIšr¢’bŠ¢Ârš²bŠ‚²Š’bbb"©42
$PMTK001,314,3*36
$PMTK001,220,3*30
$PMTK001,185,3*3C
$GPGGA,184040.000,4010.9377,N,07508.1676,W,2,12,0.82,7676.4,M,-34.0,M,0000,0000*60
$GPRMC,184040.000,A,4010.9377,N,07508.1676,W,23.06,146.67,100612,,,D*42
$GPGGA,184&éIšr¢’bŠ¢Ârš²bŠ‚²Š’bbb"©42
$PMTK001,314,3*36
$PMTK001,220,3*30
$PMTK001,185,3*3C
$GPGGA,184040.000,4010.9377,N,07508.1676,W,2,12,0.82,7676.4,M,-34.0,M,0000,0000*60
$GPRMC,184040.000,A,4010.9377,N,07508.1676,W,23.06,146.67,100612,,,D*42
$GPGGA,184&éIšr¢’bŠ¢Ârš²bŠ‚²Š’bbb"©42
$PMTK001,314,3*36
$PMTK001,220,3*30
$PMTK001,185,3*3C
$GPGGA,184040.000,4010.9377,N,07508.1676,W,2,12,0.82,7676.4,M,-34.0,M,0000,0000*60
$GPRMC,184040.000,A,4010.9377,N,07508.1676,W,23.06,146.67,100612,,,D*42
$GPGGA,184&éIšr¢’bŠ¢Ârš²bŠ‚²Š’bbb"©42
$PMTK001,314,3*36
$PMTK001,220,3*30
$PMTK001,185,3*3C
$GPGGA,184040.000,4010.9377,N,07508.1676,W,2,12,0.82,7676.4,M,-34.0,M,0000,0000*60
$GPRMC,184040.000,A,4010.9377,N,07508.1676,W,23.06,146.67,100612,,,D*42
$GPGGA,184&éIšr¢’bŠ¢Ârš²bŠ‚²Š’bbb"©42
$PMTK001,314,3*36
$PMTK001,220,3*30
$PMTK001,185,3*3C
$GPGGA,184040.000,4010.9377,N,07508.1676,W,2,12,0.82,7676.4,M,-34.0,M,0000,0000*60
$GPRMC,184040.000,A,4010.9377,N,07508.1676,W,23.06,146.67,100612,,,D*42
$GPGGA,184&éIšr¢’bŠ¢Ârš²bŠ‚²Š’bbb"©42
$PMTK001,314,3*36
$PMTK001,220,3*30
$PMTK001,185,3*3C
$GPGGA,184040.000,4010.9377,N,07508.1676,W,2,12,0.82,7676.4,M,-34.0,M,0000,0000*60
$GPRMC,184040.000,A,4010.9377,N,07508.1676,W,23.06,146.67,100612,,,D*42
$GPGGA,184&éIšr¢’bŠ¢Ârš²bŠ‚²Š’bbb"©42
$PMTK001,314,3*36
$PMTK001,220,3*30
$PMTK001,185,3*3C
$GPGGA,184040.000,4010.9377,N,07508.1676,W,2,12,0.82,7676.4,M,-34.0,M,0000,0000*60
$GPRMC,184040.000,A,4010.9377,N,07508.1676,W,23.06,146.67,100612,,,D*42
$GPGGA,184&éIšr¢’bŠ¢Ârš²bŠ‚²Š’bbb"©42
$PMTK001,314,3*36
$PMTK001,220,3*30
$PMTK001,185,3*3C
$GPGGA,184040.000,4010.9377,N,07508.1676,W,2,12,0.82,7676.4,M,-34.0,M,0000,0000*60
$GPRMC,184040.000,A,4010.9377,N,07508.1676,W,23.06,146.67,100612,,,D*42
$GPGGA,184&éIšr¢’bŠ¢Ârš²bŠ‚²Š’bbb"©42
$PMTK001,314,3*36
$PMTK001,220,3*30
$PMTK001,185,3*3C
$GPGGA,184040.000,4010.9377,N,07508.1676,W,2,12,0.82,7676.4,M,-34.0,M,0000,0000*60
$GPRMC,184040.000,A,4010.9377,N,07508.1676,W,23.06,146.67,100612,,,D*42
$GPGGA,184&éIšr¢’bŠ¢Ârš²bŠ‚²Š’bbb"©42
$PMTK001,314,3*36
$PMTK001,220,3*30
$PMTK001,185,3*3C
$GPGGA,184040.000,4010.9377,N,07508.1676,W,2,12,0.82,7676.4,M,-34.0,M,0000,0000*60
$GPRMC,184040.000,A,4010.9377,N,07508.1676,W,23.06,146.67,100612,,,D*42
$GPGGA,184&éIšr¢’bŠ¢Ârš²bŠ‚²Š’bbb"©42
$PMTK001,314,3*36
$PMTK001,220,3*30
$PMTK001,185,3*3C
$GPGGA,184040.000,4010.9377,N,07508.1676,W,2,12,0.82,7676.4,M,-34.0,M,0000,0000*60
$GPRMC,184040.000,A,4010.9377,N,07508.1676,W,23.06,146.67,100612,,,D*42
$GPGGA,184&éIšr¢’bŠ¢Ârš²bŠ‚²Š’bbb"©42
$PMTK001,314,3*36
$PMTK001,220,3*30
$PMTK001,185,3*3C
$GPGGA,184040.000,4010.9377,N,07508.1676,W,2,12,0.82,7676.4,M,-34.0,M,0000,0000*60
$GPRMC,184040.000,A,4010.9377,N,07508.1676,W,23.06,146.67,100612,,,D*42
$GPGGA,184&éIšr¢’bŠ¢Ârš²bŠ‚²Š’bbb"©42
$PMTK001,314,3*36
$PMTK001,220,3*30
$PMTK001,185,3*3C
$GPGGA,184040.000,4010.9377,N,07508.1676,W,2,12,0.82,7676.4,M,-34.0,M,0000,0000*60
$GPRMC,184040.000,A,4010.9377,N,07508.1676,W,23.06,146.67,100612,,,D*42
$GPGGA,184&éIšr¢’bŠ¢Ârš²bŠ‚²Š’bbb"©42
$PMTK001,314,3*36
$PMTK001,220,3*30
$PMTK001,185,3*3C
$GPGGA,184040.000,4010.9377,N,07508.1676,W,2,12,0.82,7676.4,M,-34.0,M,0000,0000*60
$GPRMC,184040.000,A,4010.9377,N,07508.1676,W,23.06,146.67,100612,,,D*42
$GPGGA,184&éIšr¢’bŠ¢Ârš²bŠ‚²Š’bbb"©42
$PMTK001,314,3*36
$PMTK001,220,3*30
$PMTK001,185,3*3C
$GPGGA,184040.000,4010.9377,N,07508.1676,W,2,12,0.82,7676.4,M,-34.0,M,0000,0000*60
$GPRMC,184040.000,A,4010.9377,N,07508.1676,W,23.06,146.67,100612,,,D*42
$GPGGA,184&éIšr¢’bŠ¢Ârš²bŠ‚²Š’bbb"©42
$PMTK001,314,3*36
$PMTK001,220,3*30
$PMTK001,185,3*3C
$GPGGA,184040.000,4010.9377,N,07508.1676,W,2,12,0.82,7676.4,M,-34.0,M,0000,0000*60
$GPRMC,184040.000,A,4010.9377,N,07508.1676,W,23.06,146.67,100612,,,D*42
$GPGGA,184&éIšr¢’bŠ¢Ârš²bŠ‚²Š’bbb"©42
$PMTK001,314,3*36
$PMTK001,220,3*30
$PMTK001,185,3*3C
$GPGGA,184040.000,4010.9377,N,07508.1676,W,2,12,0.82,7676.4,M,-34.0,M,0000,0000*60
$GPRMC,184040.000,A,4010.9377,N,07508.1676,W,23.06,146.67,100612,,,D*42
$GPGGA,184&éIšr¢’bŠ¢Ârš²bŠ‚²Š’bbb"©42
$PMTK001,314,3*36
$PMTK001,220,3*30
$PMTK001,185,3*3C
$GPGGA,184040.000,4010.9377,N,07508.1676,W,2,12,0.82,7676.4,M,-34.0,M,0000,0000*60
$GPRMC,184040.000,A,4010.9377,N,07508.1676,W,23.06,146.67,100612,,,D*42
$GPGGA,184&éIšr¢’bŠ¢Ârš²bŠ‚²Š’bbb"©42
$PMTK001,314,3*36
$PMTK001,220,3*30
$PMTK001,185,3*3C
$GPGGA,184040.000,4010.9377,N,07508.1676,W,2,12,0.82,7676.4,M,-34.0,M,0000,0000*60
$GPRMC,184040.000,A,4010.9377,N,07508.1676,W,23.06,146.67,100612,,,D*42
$GPGGA,184&éIšr¢’bŠ¢Ârš²bŠ‚²Š’bbb"©42
$PMTK001,314,3*36
$PMTK001,220,3*30
$PMTK001,185,3*3C
$GPGGA,184040.000,4010.9377,N,07508.1676,W,2,12,0.82,7676.4,M,-34.0,M,0000,0000*60
$GPRMC,184040.000,A,4010.9377,N,07508.1676,W,23.06,146.67,100612,,,D*42
$GPGGA,184&éIšr¢’bŠ¢Ârš²bŠ‚²Š’bbb"©42
$PMTK001,314,3*36
$PMTK001,220,3*30
$PMTK001,185,3*3C
$GPGGA,184040.000,4010.9377,N,07508.1676,W,2,12,0.82,7676.4,M,-34.0,M,0000,0000*60
$GPRMC,184040.000,A,4010.9377,N,07508.1676,W,23.06,146.67,100612,,,D*42
$GPGGA,184&éIšr¢’bŠ¢Ârš²bŠ‚²Š’bbb"©42
$PMTK001,314,3*36
$PMTK001,220,3*30
$PMTK001,185,3*3C
$GPGGA,184040.000,4010.9377,N,07508.1676,W,2,12,0.82,7676.4,M,-34.0,M,0000,0000*60
$GPRMC,184040.000,A,4010.9377,N,07508.1676,W,23.06,146.67,100612,,,D*42
$GPGGA,184&éIšr¢’bŠ¢Ârš²bŠ‚²Š’bbb"©42
$PMTK001,314,3*36
$PMTK001,220,3*30
$PMTK001,185,3*3C
$GPGGA,184040.000,4010.9377,N,07508.1676,W,2,12,0.82,7676.4,M,-34.0,M,0000,0000*60
$GPRMC,184040.000,A,4010.9377,N,07508.1676,W,23.06,146.67,100612,,,D*42
$GPGGA,184&éIšr¢’bŠ¢Ârš²bŠ‚²Š’bbb"©42
$PMTK001,314,3*36
$PMTK001,220,3*30
$PMTK001,185,3*3C
$GPGGA,184040.000,4010.9377,N,07508.1676,W,2,12,0.82,7676.4,M,-34.0,M,0000,0000*60
$GPRMC,184040.000,A,4010.9377,N,07508.1676,W,23.06,146.67,100612,,,D*42
$GPGGA,184&éIšr¢’bŠ¢Ârš²bŠ‚²Š’bbb"©42
$PMTK001,314,3*36
$PMTK001,220,3*30
$PMTK001,185,3*3C
$GPGGA,184040.000,4010.9377,N,07508.1676,W,2,12,0.82,7676.4,M,-34.0,M,0000,0000*60
$GPRMC,184040.000,A,4010.9377,N,07508.1676,W,23.06,146.67,100612,,,D*42
$GPGGA,184&éIšr¢’bŠ¢Ârš²bŠ‚²Š’bbb"©42
$PMTK001,314,3*36
$PMTK001,220,3*30
$PMTK001,185,3*3C
$GPGGA,184040.000,4010.9377,N,07508.1676,W,2,12,0.82,7676.4,M,-34.0,M,0000,0000*60
$GPRMC,184040.000,A,4010.9377,N,07508.1676,W,23.06,146.67,100612,,,D*42
$GPGGA,184&éIšr¢’bŠ¢Ârš²bŠ‚²Š’bbb"©42
$PMTK001,314,3*36
$PMTK001,220,3*30
$PMTK001,185,3*3C
$GPGGA,184040.000,4010.9377,N,07508.1676,W,2,12,0.82,7676.4,M,-34.0,M,0000,0000*60
$GPRMC,184040.000,A,4010.9377,N,07508.1676,W,23.06,146.67,100612,,,D*42
$GPGGA,184&éIšr¢’bŠ¢Ârš²bŠ‚²Š’bbb"©42
$PMTK001,314,3*36
$PMTK001,220,3*30
$PMTK001,185,3*3C
$GPGGA,184040.000,4010.9377,N,07508.1676,W,2,12,0.82,7676.4,M,-34.0,M,0000,0000*60
$GPRMC,184040.000,A,4010.9377,N,07508.1676,W,23.06,146.67,100612,,,D*42
$GPGGA,184&éIšr¢’bŠ¢Ârš²bŠ‚²Š’bbb"©42
$PMTK001,314,3*36
$PMTK001,220,3*30
$PMTK001,185,3*3C
$GPGGA,184040.000,4010.9377,N,07508.1676,W,2,12,0.82,7676.4,M,-34.0,M,0000,0000*60
$GPRMC,184040.000,A,4010.9377,N,07508.1676,W,23.06,146.67,100612,,,D*42
$GPGGA,184&éIšr¢’bŠ¢Ârš²bŠ‚²Š’bbb"©42
$PMTK001,314,3*36
$PMTK001,220,3*30
$PMTK001,185,3*3C
$GPGGA,184040.000,4010.9377,N,07508.1676,W,2,12,0.82,7676.4,M,-34.0,M,0000,0000*60
$GPRMC,184040.000,A,4010.9377,N,07508.1676,W,23.06,146.67,100612,,,D*42
$GPGGA,184&éIšr¢’bŠ¢Ârš²bŠ‚²Š’bbb"©42
$PMTK001,314,3*36
$PMTK001,220,3*30
$PMTK001,185,3*3C
$GPGGA,184040.000,4010.9377,N,07508.1676,W,2,12,0.82,7676.4,M,-34.0,M,0000,0000*60
$GPRMC,184040.000,A,4010.9377,N,07508.1676,W,23.06,146.67,100612,,,D*42
$GPGGA,184&éIšr¢’bŠ¢Ârš²bŠ‚²Š’bbb"©42
$PMTK001,314,3*36
$PMTK001,220,3*30
$PMTK001,185,3*3C
$GPGGA,184040.000,4010.9377,N,07508.1676,W,2,12,0.82,7676.4,M,-34.0,M,0000,0000*60
$GPRMC,184040.000,A,4010.9377,N,07508.1676,W,23.06,146.67,100612,,,D*42
$GPGGA,184&éIšr¢’bŠ¢Ârš²bŠ‚²Š’bbb"©42
$PMTK001,314,3*36
$PMTK001,220,3*30
$PMTK001,185,3*3C
$GPGGA,184040.000,4010.9377,N,07508.1676,W,2,12,0.82,7676.4,M,-34.0,M,0000,0000*60
$GPRMC,184040.000,A,4010.9377,N,07508.1676,W,23.06,146.67,100612,,,D*42
$GPGGA,184&éIšr¢’bŠ¢Ârš²bŠ‚²Š’bbb"©42
$PMTK001,314,3*36
$PMTK001,220,3*30
$PMTK001,185,3*3C
$GPGGA,184040.000,4010.9377,N,07508.1676,W,2,12,0.82,7676.4,M,-34.0,M,0000,0000*60
$GPRMC,184040.000,A,4010.9377,N,07508.1676,W,23.06,146.67,100612,,,D*42
$GPGGA,184&éIšr¢’bŠ¢Ârš²bŠ‚²Š’bbb"©42
$PMTK001,314,3*36
$PMTK001,220,3*30
$PMTK001,185,3*3C
$GPGGA,184040.000,4010.9377,N,07508.1676,W,2,12,0.82,7676.4,M,-34.0,M,0000,0000*60
$GPRMC,184040.000,A,4010.9377,N,07508.1676,W,23.06,146.67,100612,,,D*42
$GPGGA,184