r‚‚‚b
±4014.8908,N,07512.7492,W,19.95,138.19,100612,,,D*4D
$PMTK001,314,3*36
$PMTK001,220,3*30
$PMTK001,185,3*3C
$GPGGA,182841.000,4014.8866,N,07512.7442,W,2,12,0.83,6238.3,M,-33.9,M,0000,0000*6E
$GPRMC,182841.000,A,4014.8866,N,07512.7442,W,20.55,138r‚‚‚b
±4014.8908,N,07512.7492,W,19.95,138.19,100612,,,D*4D
$PMTK001,314,3*36
$PMTK001,220,3*30
$PMTK001,185,3*3C
$GPGGA,182841.000,4014.8866,N,07512.7442,W,2,12,0.83,6238.3,M,-33.9,M,0000,0000*6E
$GPRMC,182841.000,A,4014.8866,N,07512.7442,W,20.55,138r‚‚‚b
±4014.8908,N,07512.7492,W,19.95,138.19,100612,,,D*4D
$PMTK001,314,3*36
$PMTK001,220,3*30
$PMTK001,185,3*3C
$GPGGA,182841.000,4014.8866,N,07512.7442,W,2,12,0.83,6238.3,M,-33.9,M,0000,0000*6E
$GPRMC,182841.000,A,4014.8866,N,07512.7442,W,20.55,138r‚‚‚b
±4014.8908,N,07512.7492,W,19.95,138.19,100612,,,D*4D
$PMTK001,314,3*36
$PMTK001,220,3*30
$PMTK001,185,3*3C
$GPGGA,182841.000,4014.8866,N,07512.7442,W,2,12,0.83,6238.3,M,-33.9,M,0000,0000*6E
$GPRMC,182841.000,A,4014.8866,N,07512.7442,W,20.55,138r‚‚‚b
±4014.8908,N,07512.7492,W,19.95,138.19,100612,,,D*4D
$PMTK001,314,3*36
$PMTK001,220,3*30
$PMTK001,185,3*3C
$GPGGA,182841.000,4014.8866,N,07512.7442,W,2,12,0.83,6238.3,M,-33.9,M,0000,0000*6E
$GPRMC,182841.000,A,4014.8866,N,07512.7442,W,20.55,138r‚‚‚b
±4014.8908,N,07512.7492,W,19.95,138.19,100612,,,D*4D
$PMTK001,314,3*36
$PMTK001,220,3*30
$PMTK001,185,3*3C
$GPGGA,182841.000,4014.8866,N,07512.7442,W,2,12,0.83,6238.3,M,-33.9,M,0000,0000*6E
$GPRMC,182841.000,A,4014.8866,N,07512.7442,W,20.55,138r‚‚‚b
±4014.8908,N,07512.7492,W,19.95,138.19,100612,,,D*4D
$PMTK001,314,3*36
$PMTK001,220,3*30
$PMTK001,185,3*3C
$GPGGA,182841.000,4014.8866,N,07512.7442,W,2,12,0.83,6238.3,M,-33.9,M,0000,0000*6E
$GPRMC,182841.000,A,4014.8866,N,07512.7442,W,20.55,138r‚‚‚b
±4014.8908,N,07512.7492,W,19.95,138.19,100612,,,D*4D
$PMTK001,314,3*36
$PMTK001,220,3*30
$PMTK001,185,3*3C
$GPGGA,182841.000,4014.8866,N,07512.7442,W,2,12,0.83,6238.3,M,-33.9,M,0000,0000*6E
$GPRMC,182841.000,A,4014.8866,N,07512.7442,W,20.55,138r‚‚‚b
±4014.8908,N,07512.7492,W,19.95,138.19,100612,,,D*4D
$PMTK001,314,3*36
$PMTK001,220,3*30
$PMTK001,185,3*3C
$GPGGA,182841.000,4014.8866,N,07512.7442,W,2,12,0.83,6238.3,M,-33.9,M,0000,0000*6E
$GPRMC,182841.000,A,4014.8866,N,07512.7442,W,20.55,138r‚‚‚b
±4014.8908,N,07512.7492,W,19.95,138.19,100612,,,D*4D
$PMTK001,314,3*36
$PMTK001,220,3*30
$PMTK001,185,3*3C
$GPGGA,182841.000,4014.8866,N,07512.7442,W,2,12,0.83,6238.3,M,-33.9,M,0000,0000*6E
$GPRMC,182841.000,A,4014.8866,N,07512.7442,W,20.55,138r‚‚‚b
±4014.8908,N,07512.7492,W,19.95,138.19,100612,,,D*4D
$PMTK001,314,3*36
$PMTK001,220,3*30
$PMTK001,185,3*3C
$GPGGA,182841.000,4014.8866,N,07512.7442,W,2,12,0.83,6238.3,M,-33.9,M,0000,0000*6E
$GPRMC,182841.000,A,4014.8866,N,07512.7442,W,20.55,138r‚‚‚b
±4014.8908,N,07512.7492,W,19.95,138.19,100612,,,D*4D
$PMTK001,314,3*36
$PMTK001,220,3*30
$PMTK001,185,3*3C
$GPGGA,182841.000,4014.8866,N,07512.7442,W,2,12,0.83,6238.3,M,-33.9,M,0000,0000*6E
$GPRMC,182841.000,A,4014.8866,N,07512.7442,W,20.55,138r‚‚‚b
±4014.8908,N,07512.7492,W,19.95,138.19,100612,,,D*4D
$PMTK001,314,3*36
$PMTK001,220,3*30
$PMTK001,185,3*3C
$GPGGA,182841.000,4014.8866,N,07512.7442,W,2,12,0.83,6238.3,M,-33.9,M,0000,0000*6E
$GPRMC,182841.000,A,4014.8866,N,07512.7442,W,20.55,138r‚‚‚b
±4014.8908,N,07512.7492,W,19.95,138.19,100612,,,D*4D
$PMTK001,314,3*36
$PMTK001,220,3*30
$PMTK001,185,3*3C
$GPGGA,182841.000,4014.8866,N,07512.7442,W,2,12,0.83,6238.3,M,-33.9,M,0000,0000*6E
$GPRMC,182841.000,A,4014.8866,N,07512.7442,W,20.55,138r‚‚‚b
±4014.8908,N,07512.7492,W,19.95,138.19,100612,,,D*4D
$PMTK001,314,3*36
$PMTK001,220,3*30
$PMTK001,185,3*3C
$GPGGA,182841.000,4014.8866,N,07512.7442,W,2,12,0.83,6238.3,M,-33.9,M,0000,0000*6E
$GPRMC,182841.000,A,4014.8866,N,07512.7442,W,20.55,138r‚‚‚b
±4014.8908,N,07512.7492,W,19.95,138.19,100612,,,D*4D
$PMTK001,314,3*36
$PMTK001,220,3*30
$PMTK001,185,3*3C
$GPGGA,182841.000,4014.8866,N,07512.7442,W,2,12,0.83,6238.3,M,-33.9,M,0000,0000*6E
$GPRMC,182841.000,A,4014.8866,N,07512.7442,W,20.55,138r‚‚‚b
±4014.8908,N,07512.7492,W,19.95,138.19,100612,,,D*4D
$PMTK001,314,3*36
$PMTK001,220,3*30
$PMTK001,185,3*3C
$GPGGA,182841.000,4014.8866,N,07512.7442,W,2,12,0.83,6238.3,M,-33.9,M,0000,0000*6E
$GPRMC,182841.000,A,4014.8866,N,07512.7442,W,20.55,138r‚‚‚b
±4014.8908,N,07512.7492,W,19.95,138.19,100612,,,D*4D
$PMTK001,314,3*36
$PMTK001,220,3*30
$PMTK001,185,3*3C
$GPGGA,182841.000,4014.8866,N,07512.7442,W,2,12,0.83,6238.3,M,-33.9,M,0000,0000*6E
$GPRMC,182841.000,A,4014.8866,N,07512.7442,W,20.55,138r‚‚‚b
±4014.8908,N,07512.7492,W,19.95,138.19,100612,,,D*4D
$PMTK001,314,3*36
$PMTK001,220,3*30
$PMTK001,185,3*3C
$GPGGA,182841.000,4014.8866,N,07512.7442,W,2,12,0.83,6238.3,M,-33.9,M,0000,0000*6E
$GPRMC,182841.000,A,4014.8866,N,07512.7442,W,20.55,138r‚‚‚b
±4014.8908,N,07512.7492,W,19.95,138.19,100612,,,D*4D
$PMTK001,314,3*36
$PMTK001,220,3*30
$PMTK001,185,3*3C
$GPGGA,182841.000,4014.8866,N,07512.7442,W,2,12,0.83,6238.3,M,-33.9,M,0000,0000*6E
$GPRMC,182841.000,A,4014.8866,N,07512.7442,W,20.55,138r‚‚‚b
±4014.8908,N,07512.7492,W,19.95,138.19,100612,,,D*4D
$PMTK001,314,3*36
$PMTK001,220,3*30
$PMTK001,185,3*3C
$GPGGA,182841.000,4014.8866,N,07512.7442,W,2,12,0.83,6238.3,M,-33.9,M,0000,0000*6E
$GPRMC,182841.000,A,4014.8866,N,07512.7442,W,20.55,138r‚‚‚b
±4014.8908,N,07512.7492,W,19.95,138.19,100612,,,D*4D
$PMTK001,314,3*36
$PMTK001,220,3*30
$PMTK001,185,3*3C
$GPGGA,182841.000,4014.8866,N,07512.7442,W,2,12,0.83,6238.3,M,-33.9,M,0000,0000*6E
$GPRMC,182841.000,A,4014.8866,N,07512.7442,W,20.55,138r‚‚‚b
±4014.8908,N,07512.7492,W,19.95,138.19,100612,,,D*4D
$PMTK001,314,3*36
$PMTK001,220,3*30
$PMTK001,185,3*3C
$GPGGA,182841.000,4014.8866,N,07512.7442,W,2,12,0.83,6238.3,M,-33.9,M,0000,0000*6E
$GPRMC,182841.000,A,4014.8866,N,07512.7442,W,20.55,138r‚‚‚b
±4014.8908,N,07512.7492,W,19.95,138.19,100612,,,D*4D
$PMTK001,314,3*36
$PMTK001,220,3*30
$PMTK001,185,3*3C
$GPGGA,182841.000,4014.8866,N,07512.7442,W,2,12,0.83,6238.3,M,-33.9,M,0000,0000*6E
$GPRMC,182841.000,A,4014.8866,N,07512.7442,W,20.55,138r‚‚‚b
±4014.8908,N,07512.7492,W,19.95,138.19,100612,,,D*4D
$PMTK001,314,3*36
$PMTK001,220,3*30
$PMTK001,185,3*3C
$GPGGA,182841.000,4014.8866,N,07512.7442,W,2,12,0.83,6238.3,M,-33.9,M,0000,0000*6E
$GPRMC,182841.000,A,4014.8866,N,07512.7442,W,20.55,138r‚‚‚b
±4014.8908,N,07512.7492,W,19.95,138.19,100612,,,D*4D
$PMTK001,314,3*36
$PMTK001,220,3*30
$PMTK001,185,3*3C
$GPGGA,182841.000,4014.8866,N,07512.7442,W,2,12,0.83,6238.3,M,-33.9,M,0000,0000*6E
$GPRMC,182841.000,A,4014.8866,N,07512.7442,W,20.55,138r‚‚‚b
±4014.8908,N,07512.7492,W,19.95,138.19,100612,,,D*4D
$PMTK001,314,3*36
$PMTK001,220,3*30
$PMTK001,185,3*3C
$GPGGA,182841.000,4014.8866,N,07512.7442,W,2,12,0.83,6238.3,M,-33.9,M,0000,0000*6E
$GPRMC,182841.000,A,4014.8866,N,07512.7442,W,20.55,138r‚‚‚b
±4014.8908,N,07512.7492,W,19.95,138.19,100612,,,D*4D
$PMTK001,314,3*36
$PMTK001,220,3*30
$PMTK001,185,3*3C
$GPGGA,182841.000,4014.8866,N,07512.7442,W,2,12,0.83,6238.3,M,-33.9,M,0000,0000*6E
$GPRMC,182841.000,A,4014.8866,N,07512.7442,W,20.55,138r‚‚‚b
±4014.8908,N,07512.7492,W,19.95,138.19,100612,,,D*4D
$PMTK001,314,3*36
$PMTK001,220,3*30
$PMTK001,185,3*3C
$GPGGA,182841.000,4014.8866,N,07512.7442,W,2,12,0.83,6238.3,M,-33.9,M,0000,0000*6E
$GPRMC,182841.000,A,4014.8866,N,07512.7442,W,20.55,138r‚‚‚b
±4014.8908,N,07512.7492,W,19.95,138.19,100612,,,D*4D
$PMTK001,314,3*36
$PMTK001,220,3*30
$PMTK001,185,3*3C
$GPGGA,182841.000,4014.8866,N,07512.7442,W,2,12,0.83,6238.3,M,-33.9,M,0000,0000*6E
$GPRMC,182841.000,A,4014.8866,N,07512.7442,W,20.55,138r‚‚‚b
±4014.8908,N,07512.7492,W,19.95,138.19,100612,,,D*4D
$PMTK001,314,3*36
$PMTK001,220,3*30
$PMTK001,185,3*3C
$GPGGA,182841.000,4014.8866,N,07512.7442,W,2,12,0.83,6238.3,M,-33.9,M,0000,0000*6E
$GPRMC,182841.000,A,4014.8866,N,07512.7442,W,20.55,138r‚‚‚b
±4014.8908,N,07512.7492,W,19.95,138.19,100612,,,D*4D
$PMTK001,314,3*36
$PMTK001,220,3*30
$PMTK001,185,3*3C
$GPGGA,182841.000,4014.8866,N,07512.7442,W,2,12,0.83,6238.3,M,-33.9,M,0000,0000*6E
$GPRMC,182841.000,A,4014.8866,N,07512.7442,W,20.55,138r‚‚‚b
±4014.8908,N,07512.7492,W,19.95,138.19,100612,,,D*4D
$PMTK001,314,3*36
$PMTK001,220,3*30
$PMTK001,185,3*3C
$GPGGA,182841.000,4014.8866,N,07512.7442,W,2,12,0.83,6238.3,M,-33.9,M,0000,0000*6E
$GPRMC,182841.000,A,4014.8866,N,07512.7442,W,20.55,138r‚‚‚b
±4014.8908,N,07512.7492,W,19.95,138.19,100612,,,D*4D
$PMTK001,314,3*36
$PMTK001,220,3*30
$PMTK001,185,3*3C
$GPGGA,182841.000,4014.8866,N,07512.7442,W,2,12,0.83,6238.3,M,-33.9,M,0000,0000*6E
$GPRMC,182841.000,A,4014.8866,N,07512.7442,W,20.55,138r‚‚‚b
±4014.8908,N,07512.7492,W,19.95,138.19,100612,,,D*4D
$PMTK001,314,3*36
$PMTK001,220,3*30
$PMTK001,185,3*3C
$GPGGA,182841.000,4014.8866,N,07512.7442,W,2,12,0.83,6238.3,M,-33.9,M,0000,0000*6E
$GPRMC,182841.000,A,4014.8866,N,07512.7442,W,20.55,138r‚‚‚b
±4014.8908,N,07512.7492,W,19.95,138.19,100612,,,D*4D
$PMTK001,314,3*36
$PMTK001,220,3*30
$PMTK001,185,3*3C
$GPGGA,182841.000,4014.8866,N,07512.7442,W,2,12,0.83,6238.3,M,-33.9,M,0000,0000*6E
$GPRMC,182841.000,A,4014.8866,N,07512.7442,W,20.55,138r‚‚‚b
±4014.8908,N,07512.7492,W,19.95,138.19,100612,,,D*4D
$PMTK001,314,3*36
$PMTK001,220,3*30
$PMTK001,185,3*3C
$GPGGA,182841.000,4014.8866,N,07512.7442,W,2,12,0.83,6238.3,M,-33.9,M,0000,0000*6E
$GPRMC,182841.000,A,4014.8866,N,07512.7442,W,20.55,138r‚‚‚b
±4014.8908,N,07512.7492,W,19.95,138.19,100612,,,D*4D
$PMTK001,314,3*36
$PMTK001,220,3*30
$PMTK001,185,3*3C
$GPGGA,182841.000,4014.8866,N,07512.7442,W,2,12,0.83,6238.3,M,-33.9,M,0000,0000*6E
$GPRMC,182841.000,A,4014.8866,N,07512.7442,W,20.55,138r‚‚‚b
±4014.8908,N,07512.7492,W,19.95,138.19,100612,,,D*4D
$PMTK001,314,3*36
$PMTK001,220,3*30
$PMTK001,185,3*3C
$GPGGA,182841.000,4014.8866,N,07512.7442,W,2,12,0.83,6238.3,M,-33.9,M,0000,0000*6E
$GPRMC,182841.000,A,4014.8866,N,07512.7442,W,20.55,138r‚‚‚b
±4014.8908,N,07512.7492,W,19.95,138.19,100612,,,D*4D
$PMTK001,314,3*36
$PMTK001,220,3*30
$PMTK001,185,3*3C
$GPGGA,182841.000,4014.8866,N,07512.7442,W,2,12,0.83,6238.3,M,-33.9,M,0000,0000*6E
$GPRMC,182841.000,A,4014.8866,N,07512.7442,W,20.55,138r‚‚‚b
±4014.8908,N,07512.7492,W,19.95,138.19,100612,,,D*4D
$PMTK001,314,3*36
$PMTK001,220,3*30
$PMTK001,185,3*3C
$GPGGA,182841.000,4014.8866,N,07512.7442,W,2,12,0.83,6238.3,M,-33.9,M,0000,0000*6E
$GPRMC,182841.000,A,4014.8866,N,07512.7442,W,20.55,138r‚‚‚b
±4014.8908,N,07512.7492,W,19.95,138.19,100612,,,D*4D
$PMTK001,314,3*36
$PMTK001,220,3*30
$PMTK001,185,3*3C
$GPGGA,182841.000,4014.8866,N,07512.7442,W,2,12,0.83,6238.3,M,-33.9,M,0000,0000*6E
$GPRMC,182841.000,A,4014.8866,N,07512.7442,W,20.55,138r‚‚‚b
±4014.8908,N,07512.7492,W,19.95,138.19,100612,,,D*4D
$PMTK001,314,3*36
$PMTK001,220,3*30
$PMTK001,185,3*3C
$GPGGA,182841.000,4014.8866,N,07512.7442,W,2,12,0.83,6238.3,M,-33.9,M,0000,0000*6E
$GPRMC,182841.000,A,4014.8866,N,07512.7442,W,20.55,138r‚‚‚b
±4014.8908,N,07512.7492,W,19.95,138.19,100612,,,D*4D
$PMTK001,314,3*36
$PMTK001,220,3*30
$PMTK001,185,3*3C
$GPGGA,182841.000,4014.8866,N,07512.7442,W,2,12,0.83,6238.3,M,-33.9,M,0000,0000*6E
$GPRMC,182841.000,A,4014.8866,N,07512.7442,W,20.55,138r‚‚‚b
±4014.8908,N,07512.7492,W,19.95,138.19,100612,,,D*4D
$PMTK001,314,3*36
$PMTK001,220,3*30
$PMTK001,185,3*3C
$GPGGA,182841.000,4014.8866,N,07512.7442,W,2,12,0.83,6238.3,M,-33.9,M,0000,0000*6E
$GPRMC,182841.000,A,4014.8866,N,07512.7442,W,20.55,138r‚‚‚b
±4014.8908,N,07512.7492,W,19.95,138.19,100612,,,D*4D
$PMTK001,314,3*36
$PMTK001,220,3*30
$PMTK001,185,3*3C
$GPGGA,182841.000,4014.8866,N,07512.7442,W,2,12,0.83,6238.3,M,-33.9,M,0000,0000*6E
$GPRMC,182841.000,A,4014.8866,N,07512.7442,W,20.55,138r‚‚‚b
±4014.8908,N,07512.7492,W,19.95,138.19,100612,,,D*4D
$PMTK001,314,3*36
$PMTK001,220,3*30
$PMTK001,185,3*3C
$GPGGA,182841.000,4014.8866,N,07512.7442,W,2,12,0.83,6238.3,M,-33.9,M,0000,0000*6E
$GPRMC,182841.000,A,4014.8866,N,07512.7442,W,20.55,138r‚‚‚b
±4014.8908,N,07512.7492,W,19.95,138.19,100612,,,D*4D
$PMTK001,314,3*36
$PMTK001,220,3*30
$PMTK001,185,3*3C
$GPGGA,182841.000,4014.8866,N,07512.7442,W,2,12,0.83,6238.3,M,-33.9,M,0000,0000*6E
$GPRMC,182841.000,A,4014.8866,N,07512.7442,W,20.55,138r‚‚‚b
±4014.8908,N,07512.7492,W,19.95,138.19,100612,,,D*4D
$PMTK001,314,3*36
$PMTK001,220,3*30
$PMTK001,185,3*3C
$GPGGA,182841.000,4014.8866,N,07512.7442,W,2,12,0.83,6238.3,M,-33.9,M,0000,0000*6E
$GPRMC,182841.000,A,4014.8866,N,07512.7442,W,20.55,138r‚‚‚b
±4014.8908,N,07512.7492,W,19.95,138.19,100612,,,D*4D
$PMTK001,314,3*36
$PMTK001,220,3*30
$PMTK001,185,3*3C
$GPGGA,182841.000,4014.8866,N,07512.7442,W,2,12,0.83,6238.3,M,-33.9,M,0000,0000*6E
$GPRMC,182841.000,A,4014.8866,N,07512.7442,W,20.55,138r‚‚‚b
±4014.8908,N,07512.7492,W,19.95,138.19,100612,,,D*4D
$PMTK001,314,3*36
$PMTK001,220,3*30
$PMTK001,185,3*3C
$GPGGA,182841.000,4014.8866,N,07512.7442,W,2,12,0.83,6238.3,M,-33.9,M,0000,0000*6E
$GPRMC,182841.000,A,4014.8866,N,07512.7442,W,20.55,138r‚‚‚b
±4014.8908,N,07512.7492,W,19.95,138.19,100612,,,D*4D
$PMTK001,314,3*36
$PMTK001,220,3*30
$PMTK001,185,3*3C
$GPGGA,182841.000,4014.8866,N,07512.7442,W,2,12,0.83,6238.3,M,-33.9,M,0000,0000*6E
$GPRMC,182841.000,A,4014.8866,N,07512.7442,W,20.55,138r‚‚‚b
±4014.8908,N,07512.7492,W,19.95,138.19,100612,,,D*4D
$PMTK001,314,3*36
$PMTK001,220,3*30
$PMTK001,185,3*3C
$GPGGA,182841.000,4014.8866,N,07512.7442,W,2,12,0.83,6238.3,M,-33.9,M,0000,0000*6E
$GPRMC,182841.000,A,4014.8866,N,07512.7442,W,20.55,138r‚‚‚b
±4014.8908,N,07512.7492,W,19.95,138.19,100612,,,D*4D
$PMTK001,314,3*36
$PMTK001,220,3*30
$PMTK001,185,3*3C
$GPGGA,182841.000,4014.8866,N,07512.7442,W,2,12,0.83,6238.3,M,-33.9,M,0000,0000*6E
$GPRMC,182841.000,A,4014.8866,N,07512.7442,W,20.55,138r‚‚‚b
±4014.8908,N,07512.7492,W,19.95,138.19,100612,,,D*4D
$PMTK001,314,3*36
$PMTK001,220,3*30
$PMTK001,185,3*3C
$GPGGA,182841.000,4014.8866,N,07512.7442,W,2,12,0.83,6238.3,M,-33.9,M,0000,0000*6E
$GPRMC,182841.000,A,4014.8866,N,07512.7442,W,20.55,138r‚‚‚b
±4014.8908,N,07512.7492,W,19.95,138.19,100612,,,D*4D
$PMTK001,314,3*36
$PMTK001,220,3*30
$PMTK001,185,3*3C
$GPGGA,182841.000,4014.8866,N,07512.7442,W,2,12,0.83,6238.3,M,-33.9,M,0000,0000*6E
$GPRMC,182841.000,A,4014.8866,N,07512.7442,W,20.55,138r‚‚‚b
±4014.8908,N,07512.7492,W,19.95,138.19,100612,,,D*4D
$PMTK001,314,3*36
$PMTK001,220,3*30
$PMTK001,185,3*3C
$GPGGA,182841.000,4014.8866,N,07512.7442,W,2,12,0.83,6238.3,M,-33.9,M,0000,0000*6E
$GPRMC,182841.000,A,4014.8866,N,07512.7442,W,20.55,138