$PMTK001,314,3*36
$PMTK001,220,3*30
$PMTK001,185,3*3C
$GPGGA,183240.000,4013.6564,N,07511.5326,W,2,12,0.83,6755.9,M,-33.9,M,0000,0000*62
$GPRMC,183240.000,A,4013.6564,N,07511.5326,W,25.29,140.46,100612,,,D*4D
$GPGGA,183241.000,4013.6508,N,07511.5267,$PMTK001,314,3*36
$PMTK001,220,3*30
$PMTK001,185,3*3C
$GPGGA,183240.000,4013.6564,N,07511.5326,W,2,12,0.83,6755.9,M,-33.9,M,0000,0000*62
$GPRMC,183240.000,A,4013.6564,N,07511.5326,W,25.29,140.46,100612,,,D*4D
$GPGGA,183241.000,4013.6508,N,07511.5267,$PMTK001,314,3*36
$PMTK001,220,3*30
$PMTK001,185,3*3C
$GPGGA,183240.000,4013.6564,N,07511.5326,W,2,12,0.83,6755.9,M,-33.9,M,0000,0000*62
$GPRMC,183240.000,A,4013.6564,N,07511.5326,W,25.29,140.46,100612,,,D*4D
$GPGGA,183241.000,4013.6508,N,07511.5267,$PMTK001,314,3*36
$PMTK001,220,3*30
$PMTK001,185,3*3C
$GPGGA,183240.000,4013.6564,N,07511.5326,W,2,12,0.83,6755.9,M,-33.9,M,0000,0000*62
$GPRMC,183240.000,A,4013.6564,N,07511.5326,W,25.29,140.46,100612,,,D*4D
$GPGGA,183241.000,4013.6508,N,07511.5267,$PMTK001,314,3*36
$PMTK001,220,3*30
$PMTK001,185,3*3C
$GPGGA,183240.000,4013.6564,N,07511.5326,W,2,12,0.83,6755.9,M,-33.9,M,0000,0000*62
$GPRMC,183240.000,A,4013.6564,N,07511.5326,W,25.29,140.46,100612,,,D*4D
$GPGGA,183241.000,4013.6508,N,07511.5267,$PMTK001,314,3*36
$PMTK001,220,3*30
$PMTK001,185,3*3C
$GPGGA,183240.000,4013.6564,N,07511.5326,W,2,12,0.83,6755.9,M,-33.9,M,0000,0000*62
$GPRMC,183240.000,A,4013.6564,N,07511.5326,W,25.29,140.46,100612,,,D*4D
$GPGGA,183241.000,4013.6508,N,07511.5267,$PMTK001,314,3*36
$PMTK001,220,3*30
$PMTK001,185,3*3C
$GPGGA,183240.000,4013.6564,N,07511.5326,W,2,12,0.83,6755.9,M,-33.9,M,0000,0000*62
$GPRMC,183240.000,A,4013.6564,N,07511.5326,W,25.29,140.46,100612,,,D*4D
$GPGGA,183241.000,4013.6508,N,07511.5267,$PMTK001,314,3*36
$PMTK001,220,3*30
$PMTK001,185,3*3C
$GPGGA,183240.000,4013.6564,N,07511.5326,W,2,12,0.83,6755.9,M,-33.9,M,0000,0000*62
$GPRMC,183240.000,A,4013.6564,N,07511.5326,W,25.29,140.46,100612,,,D*4D
$GPGGA,183241.000,4013.6508,N,07511.5267,$PMTK001,314,3*36
$PMTK001,220,3*30
$PMTK001,185,3*3C
$GPGGA,183240.000,4013.6564,N,07511.5326,W,2,12,0.83,6755.9,M,-33.9,M,0000,0000*62
$GPRMC,183240.000,A,4013.6564,N,07511.5326,W,25.29,140.46,100612,,,D*4D
$GPGGA,183241.000,4013.6508,N,07511.5267,$PMTK001,314,3*36
$PMTK001,220,3*30
$PMTK001,185,3*3C
$GPGGA,183240.000,4013.6564,N,07511.5326,W,2,12,0.83,6755.9,M,-33.9,M,0000,0000*62
$GPRMC,183240.000,A,4013.6564,N,07511.5326,W,25.29,140.46,100612,,,D*4D
$GPGGA,183241.000,4013.6508,N,07511.5267,$PMTK001,314,3*36
$PMTK001,220,3*30
$PMTK001,185,3*3C
$GPGGA,183240.000,4013.6564,N,07511.5326,W,2,12,0.83,6755.9,M,-33.9,M,0000,0000*62
$GPRMC,183240.000,A,4013.6564,N,07511.5326,W,25.29,140.46,100612,,,D*4D
$GPGGA,183241.000,4013.6508,N,07511.5267,$PMTK001,314,3*36
$PMTK001,220,3*30
$PMTK001,185,3*3C
$GPGGA,183240.000,4013.6564,N,07511.5326,W,2,12,0.83,6755.9,M,-33.9,M,0000,0000*62
$GPRMC,183240.000,A,4013.6564,N,07511.5326,W,25.29,140.46,100612,,,D*4D
$GPGGA,183241.000,4013.6508,N,07511.5267,$PMTK001,314,3*36
$PMTK001,220,3*30
$PMTK001,185,3*3C
$GPGGA,183240.000,4013.6564,N,07511.5326,W,2,12,0.83,6755.9,M,-33.9,M,0000,0000*62
$GPRMC,183240.000,A,4013.6564,N,07511.5326,W,25.29,140.46,100612,,,D*4D
$GPGGA,183241.000,4013.6508,N,07511.5267,$PMTK001,314,3*36
$PMTK001,220,3*30
$PMTK001,185,3*3C
$GPGGA,183240.000,4013.6564,N,07511.5326,W,2,12,0.83,6755.9,M,-33.9,M,0000,0000*62
$GPRMC,183240.000,A,4013.6564,N,07511.5326,W,25.29,140.46,100612,,,D*4D
$GPGGA,183241.000,4013.6508,N,07511.5267,$PMTK001,314,3*36
$PMTK001,220,3*30
$PMTK001,185,3*3C
$GPGGA,183240.000,4013.6564,N,07511.5326,W,2,12,0.83,6755.9,M,-33.9,M,0000,0000*62
$GPRMC,183240.000,A,4013.6564,N,07511.5326,W,25.29,140.46,100612,,,D*4D
$GPGGA,183241.000,4013.6508,N,07511.5267,$PMTK001,314,3*36
$PMTK001,220,3*30
$PMTK001,185,3*3C
$GPGGA,183240.000,4013.6564,N,07511.5326,W,2,12,0.83,6755.9,M,-33.9,M,0000,0000*62
$GPRMC,183240.000,A,4013.6564,N,07511.5326,W,25.29,140.46,100612,,,D*4D
$GPGGA,183241.000,4013.6508,N,07511.5267,$PMTK001,314,3*36
$PMTK001,220,3*30
$PMTK001,185,3*3C
$GPGGA,183240.000,4013.6564,N,07511.5326,W,2,12,0.83,6755.9,M,-33.9,M,0000,0000*62
$GPRMC,183240.000,A,4013.6564,N,07511.5326,W,25.29,140.46,100612,,,D*4D
$GPGGA,183241.000,4013.6508,N,07511.5267,$PMTK001,314,3*36
$PMTK001,220,3*30
$PMTK001,185,3*3C
$GPGGA,183240.000,4013.6564,N,07511.5326,W,2,12,0.83,6755.9,M,-33.9,M,0000,0000*62
$GPRMC,183240.000,A,4013.6564,N,07511.5326,W,25.29,140.46,100612,,,D*4D
$GPGGA,183241.000,4013.6508,N,07511.5267,$PMTK001,314,3*36
$PMTK001,220,3*30
$PMTK001,185,3*3C
$GPGGA,183240.000,4013.6564,N,07511.5326,W,2,12,0.83,6755.9,M,-33.9,M,0000,0000*62
$GPRMC,183240.000,A,4013.6564,N,07511.5326,W,25.29,140.46,100612,,,D*4D
$GPGGA,183241.000,4013.6508,N,07511.5267,$PMTK001,314,3*36
$PMTK001,220,3*30
$PMTK001,185,3*3C
$GPGGA,183240.000,4013.6564,N,07511.5326,W,2,12,0.83,6755.9,M,-33.9,M,0000,0000*62
$GPRMC,183240.000,A,4013.6564,N,07511.5326,W,25.29,140.46,100612,,,D*4D
$GPGGA,183241.000,4013.6508,N,07511.5267,$PMTK001,314,3*36
$PMTK001,220,3*30
$PMTK001,185,3*3C
$GPGGA,183240.000,4013.6564,N,07511.5326,W,2,12,0.83,6755.9,M,-33.9,M,0000,0000*62
$GPRMC,183240.000,A,4013.6564,N,07511.5326,W,25.29,140.46,100612,,,D*4D
$GPGGA,183241.000,4013.6508,N,07511.5267,$PMTK001,314,3*36
$PMTK001,220,3*30
$PMTK001,185,3*3C
$GPGGA,183240.000,4013.6564,N,07511.5326,W,2,12,0.83,6755.9,M,-33.9,M,0000,0000*62
$GPRMC,183240.000,A,4013.6564,N,07511.5326,W,25.29,140.46,100612,,,D*4D
$GPGGA,183241.000,4013.6508,N,07511.5267,$PMTK001,314,3*36
$PMTK001,220,3*30
$PMTK001,185,3*3C
$GPGGA,183240.000,4013.6564,N,07511.5326,W,2,12,0.83,6755.9,M,-33.9,M,0000,0000*62
$GPRMC,183240.000,A,4013.6564,N,07511.5326,W,25.29,140.46,100612,,,D*4D
$GPGGA,183241.000,4013.6508,N,07511.5267,$PMTK001,314,3*36
$PMTK001,220,3*30
$PMTK001,185,3*3C
$GPGGA,183240.000,4013.6564,N,07511.5326,W,2,12,0.83,6755.9,M,-33.9,M,0000,0000*62
$GPRMC,183240.000,A,4013.6564,N,07511.5326,W,25.29,140.46,100612,,,D*4D
$GPGGA,183241.000,4013.6508,N,07511.5267,$PMTK001,314,3*36
$PMTK001,220,3*30
$PMTK001,185,3*3C
$GPGGA,183240.000,4013.6564,N,07511.5326,W,2,12,0.83,6755.9,M,-33.9,M,0000,0000*62
$GPRMC,183240.000,A,4013.6564,N,07511.5326,W,25.29,140.46,100612,,,D*4D
$GPGGA,183241.000,4013.6508,N,07511.5267,$PMTK001,314,3*36
$PMTK001,220,3*30
$PMTK001,185,3*3C
$GPGGA,183240.000,4013.6564,N,07511.5326,W,2,12,0.83,6755.9,M,-33.9,M,0000,0000*62
$GPRMC,183240.000,A,4013.6564,N,07511.5326,W,25.29,140.46,100612,,,D*4D
$GPGGA,183241.000,4013.6508,N,07511.5267,$PMTK001,314,3*36
$PMTK001,220,3*30
$PMTK001,185,3*3C
$GPGGA,183240.000,4013.6564,N,07511.5326,W,2,12,0.83,6755.9,M,-33.9,M,0000,0000*62
$GPRMC,183240.000,A,4013.6564,N,07511.5326,W,25.29,140.46,100612,,,D*4D
$GPGGA,183241.000,4013.6508,N,07511.5267,$PMTK001,314,3*36
$PMTK001,220,3*30
$PMTK001,185,3*3C
$GPGGA,183240.000,4013.6564,N,07511.5326,W,2,12,0.83,6755.9,M,-33.9,M,0000,0000*62
$GPRMC,183240.000,A,4013.6564,N,07511.5326,W,25.29,140.46,100612,,,D*4D
$GPGGA,183241.000,4013.6508,N,07511.5267,$PMTK001,314,3*36
$PMTK001,220,3*30
$PMTK001,185,3*3C
$GPGGA,183240.000,4013.6564,N,07511.5326,W,2,12,0.83,6755.9,M,-33.9,M,0000,0000*62
$GPRMC,183240.000,A,4013.6564,N,07511.5326,W,25.29,140.46,100612,,,D*4D
$GPGGA,183241.000,4013.6508,N,07511.5267,$PMTK001,314,3*36
$PMTK001,220,3*30
$PMTK001,185,3*3C
$GPGGA,183240.000,4013.6564,N,07511.5326,W,2,12,0.83,6755.9,M,-33.9,M,0000,0000*62
$GPRMC,183240.000,A,4013.6564,N,07511.5326,W,25.29,140.46,100612,,,D*4D
$GPGGA,183241.000,4013.6508,N,07511.5267,$PMTK001,314,3*36
$PMTK001,220,3*30
$PMTK001,185,3*3C
$GPGGA,183240.000,4013.6564,N,07511.5326,W,2,12,0.83,6755.9,M,-33.9,M,0000,0000*62
$GPRMC,183240.000,A,4013.6564,N,07511.5326,W,25.29,140.46,100612,,,D*4D
$GPGGA,183241.000,4013.6508,N,07511.5267,$PMTK001,314,3*36
$PMTK001,220,3*30
$PMTK001,185,3*3C
$GPGGA,183240.000,4013.6564,N,07511.5326,W,2,12,0.83,6755.9,M,-33.9,M,0000,0000*62
$GPRMC,183240.000,A,4013.6564,N,07511.5326,W,25.29,140.46,100612,,,D*4D
$GPGGA,183241.000,4013.6508,N,07511.5267,$PMTK001,314,3*36
$PMTK001,220,3*30
$PMTK001,185,3*3C
$GPGGA,183240.000,4013.6564,N,07511.5326,W,2,12,0.83,6755.9,M,-33.9,M,0000,0000*62
$GPRMC,183240.000,A,4013.6564,N,07511.5326,W,25.29,140.46,100612,,,D*4D
$GPGGA,183241.000,4013.6508,N,07511.5267,$PMTK001,314,3*36
$PMTK001,220,3*30
$PMTK001,185,3*3C
$GPGGA,183240.000,4013.6564,N,07511.5326,W,2,12,0.83,6755.9,M,-33.9,M,0000,0000*62
$GPRMC,183240.000,A,4013.6564,N,07511.5326,W,25.29,140.46,100612,,,D*4D
$GPGGA,183241.000,4013.6508,N,07511.5267,$PMTK001,314,3*36
$PMTK001,220,3*30
$PMTK001,185,3*3C
$GPGGA,183240.000,4013.6564,N,07511.5326,W,2,12,0.83,6755.9,M,-33.9,M,0000,0000*62
$GPRMC,183240.000,A,4013.6564,N,07511.5326,W,25.29,140.46,100612,,,D*4D
$GPGGA,183241.000,4013.6508,N,07511.5267,$PMTK001,314,3*36
$PMTK001,220,3*30
$PMTK001,185,3*3C
$GPGGA,183240.000,4013.6564,N,07511.5326,W,2,12,0.83,6755.9,M,-33.9,M,0000,0000*62
$GPRMC,183240.000,A,4013.6564,N,07511.5326,W,25.29,140.46,100612,,,D*4D
$GPGGA,183241.000,4013.6508,N,07511.5267,$PMTK001,314,3*36
$PMTK001,220,3*30
$PMTK001,185,3*3C
$GPGGA,183240.000,4013.6564,N,07511.5326,W,2,12,0.83,6755.9,M,-33.9,M,0000,0000*62
$GPRMC,183240.000,A,4013.6564,N,07511.5326,W,25.29,140.46,100612,,,D*4D
$GPGGA,183241.000,4013.6508,N,07511.5267,$PMTK001,314,3*36
$PMTK001,220,3*30
$PMTK001,185,3*3C
$GPGGA,183240.000,4013.6564,N,07511.5326,W,2,12,0.83,6755.9,M,-33.9,M,0000,0000*62
$GPRMC,183240.000,A,4013.6564,N,07511.5326,W,25.29,140.46,100612,,,D*4D
$GPGGA,183241.000,4013.6508,N,07511.5267,$PMTK001,314,3*36
$PMTK001,220,3*30
$PMTK001,185,3*3C
$GPGGA,183240.000,4013.6564,N,07511.5326,W,2,12,0.83,6755.9,M,-33.9,M,0000,0000*62
$GPRMC,183240.000,A,4013.6564,N,07511.5326,W,25.29,140.46,100612,,,D*4D
$GPGGA,183241.000,4013.6508,N,07511.5267,$PMTK001,314,3*36
$PMTK001,220,3*30
$PMTK001,185,3*3C
$GPGGA,183240.000,4013.6564,N,07511.5326,W,2,12,0.83,6755.9,M,-33.9,M,0000,0000*62
$GPRMC,183240.000,A,4013.6564,N,07511.5326,W,25.29,140.46,100612,,,D*4D
$GPGGA,183241.000,4013.6508,N,07511.5267,$PMTK001,314,3*36
$PMTK001,220,3*30
$PMTK001,185,3*3C
$GPGGA,183240.000,4013.6564,N,07511.5326,W,2,12,0.83,6755.9,M,-33.9,M,0000,0000*62
$GPRMC,183240.000,A,4013.6564,N,07511.5326,W,25.29,140.46,100612,,,D*4D
$GPGGA,183241.000,4013.6508,N,07511.5267,$PMTK001,314,3*36
$PMTK001,220,3*30
$PMTK001,185,3*3C
$GPGGA,183240.000,4013.6564,N,07511.5326,W,2,12,0.83,6755.9,M,-33.9,M,0000,0000*62
$GPRMC,183240.000,A,4013.6564,N,07511.5326,W,25.29,140.46,100612,,,D*4D
$GPGGA,183241.000,4013.6508,N,07511.5267,$PMTK001,314,3*36
$PMTK001,220,3*30
$PMTK001,185,3*3C
$GPGGA,183240.000,4013.6564,N,07511.5326,W,2,12,0.83,6755.9,M,-33.9,M,0000,0000*62
$GPRMC,183240.000,A,4013.6564,N,07511.5326,W,25.29,140.46,100612,,,D*4D
$GPGGA,183241.000,4013.6508,N,07511.5267,$PMTK001,314,3*36
$PMTK001,220,3*30
$PMTK001,185,3*3C
$GPGGA,183240.000,4013.6564,N,07511.5326,W,2,12,0.83,6755.9,M,-33.9,M,0000,0000*62
$GPRMC,183240.000,A,4013.6564,N,07511.5326,W,25.29,140.46,100612,,,D*4D
$GPGGA,183241.000,4013.6508,N,07511.5267,$PMTK001,314,3*36
$PMTK001,220,3*30
$PMTK001,185,3*3C
$GPGGA,183240.000,4013.6564,N,07511.5326,W,2,12,0.83,6755.9,M,-33.9,M,0000,0000*62
$GPRMC,183240.000,A,4013.6564,N,07511.5326,W,25.29,140.46,100612,,,D*4D
$GPGGA,183241.000,4013.6508,N,07511.5267,$PMTK001,314,3*36
$PMTK001,220,3*30
$PMTK001,185,3*3C
$GPGGA,183240.000,4013.6564,N,07511.5326,W,2,12,0.83,6755.9,M,-33.9,M,0000,0000*62
$GPRMC,183240.000,A,4013.6564,N,07511.5326,W,25.29,140.46,100612,,,D*4D
$GPGGA,183241.000,4013.6508,N,07511.5267,$PMTK001,314,3*36
$PMTK001,220,3*30
$PMTK001,185,3*3C
$GPGGA,183240.000,4013.6564,N,07511.5326,W,2,12,0.83,6755.9,M,-33.9,M,0000,0000*62
$GPRMC,183240.000,A,4013.6564,N,07511.5326,W,25.29,140.46,100612,,,D*4D
$GPGGA,183241.000,4013.6508,N,07511.5267,$PMTK001,314,3*36
$PMTK001,220,3*30
$PMTK001,185,3*3C
$GPGGA,183240.000,4013.6564,N,07511.5326,W,2,12,0.83,6755.9,M,-33.9,M,0000,0000*62
$GPRMC,183240.000,A,4013.6564,N,07511.5326,W,25.29,140.46,100612,,,D*4D
$GPGGA,183241.000,4013.6508,N,07511.5267,$PMTK001,314,3*36
$PMTK001,220,3*30
$PMTK001,185,3*3C
$GPGGA,183240.000,4013.6564,N,07511.5326,W,2,12,0.83,6755.9,M,-33.9,M,0000,0000*62
$GPRMC,183240.000,A,4013.6564,N,07511.5326,W,25.29,140.46,100612,,,D*4D
$GPGGA,183241.000,4013.6508,N,07511.5267,$PMTK001,314,3*36
$PMTK001,220,3*30
$PMTK001,185,3*3C
$GPGGA,183240.000,4013.6564,N,07511.5326,W,2,12,0.83,6755.9,M,-33.9,M,0000,0000*62
$GPRMC,183240.000,A,4013.6564,N,07511.5326,W,25.29,140.46,100612,,,D*4D
$GPGGA,183241.000,4013.6508,N,07511.5267,$PMTK001,314,3*36
$PMTK001,220,3*30
$PMTK001,185,3*3C
$GPGGA,183240.000,4013.6564,N,07511.5326,W,2,12,0.83,6755.9,M,-33.9,M,0000,0000*62
$GPRMC,183240.000,A,4013.6564,N,07511.5326,W,25.29,140.46,100612,,,D*4D
$GPGGA,183241.000,4013.6508,N,07511.5267,$PMTK001,314,3*36
$PMTK001,220,3*30
$PMTK001,185,3*3C
$GPGGA,183240.000,4013.6564,N,07511.5326,W,2,12,0.83,6755.9,M,-33.9,M,0000,0000*62
$GPRMC,183240.000,A,4013.6564,N,07511.5326,W,25.29,140.46,100612,,,D*4D
$GPGGA,183241.000,4013.6508,N,07511.5267,$PMTK001,314,3*36
$PMTK001,220,3*30
$PMTK001,185,3*3C
$GPGGA,183240.000,4013.6564,N,07511.5326,W,2,12,0.83,6755.9,M,-33.9,M,0000,0000*62
$GPRMC,183240.000,A,4013.6564,N,07511.5326,W,25.29,140.46,100612,,,D*4D
$GPGGA,183241.000,4013.6508,N,07511.5267,$PMTK001,314,3*36
$PMTK001,220,3*30
$PMTK001,185,3*3C
$GPGGA,183240.000,4013.6564,N,07511.5326,W,2,12,0.83,6755.9,M,-33.9,M,0000,0000*62
$GPRMC,183240.000,A,4013.6564,N,07511.5326,W,25.29,140.46,100612,,,D*4D
$GPGGA,183241.000,4013.6508,N,07511.5267,$PMTK001,314,3*36
$PMTK001,220,3*30
$PMTK001,185,3*3C
$GPGGA,183240.000,4013.6564,N,07511.5326,W,2,12,0.83,6755.9,M,-33.9,M,0000,0000*62
$GPRMC,183240.000,A,4013.6564,N,07511.5326,W,25.29,140.46,100612,,,D*4D
$GPGGA,183241.000,4013.6508,N,07511.5267,$PMTK001,314,3*36
$PMTK001,220,3*30
$PMTK001,185,3*3C
$GPGGA,183240.000,4013.6564,N,07511.5326,W,2,12,0.83,6755.9,M,-33.9,M,0000,0000*62
$GPRMC,183240.000,A,4013.6564,N,07511.5326,W,25.29,140.46,100612,,,D*4D
$GPGGA,183241.000,4013.6508,N,07511.5267,$PMTK001,314,3*36
$PMTK001,220,3*30
$PMTK001,185,3*3C
$GPGGA,183240.000,4013.6564,N,07511.5326,W,2,12,0.83,6755.9,M,-33.9,M,0000,0000*62
$GPRMC,183240.000,A,4013.6564,N,07511.5326,W,25.29,140.46,100612,,,D*4D
$GPGGA,183241.000,4013.6508,N,07511.5267,