$PMTK001,314,3*36
$PMTK001,220,3*30
$PMTK001,185,3*3C
$GPGGA,174237.000,4026.6990,N,07520.5954,W,2,10,0.81,149.2,M,-33.9,M,0000,0000*50
$GPRMC,174237.000,A,4026.6990,N,07520.5954,W,0.53,237.08,100612,,,D*7A
$GPGGA,174238.000,4026.6991,N,07520.5956,W,$PMTK001,314,3*36
$PMTK001,220,3*30
$PMTK001,185,3*3C
$GPGGA,174237.000,4026.6990,N,07520.5954,W,2,10,0.81,149.2,M,-33.9,M,0000,0000*50
$GPRMC,174237.000,A,4026.6990,N,07520.5954,W,0.53,237.08,100612,,,D*7A
$GPGGA,174238.000,4026.6991,N,07520.5956,W,$PMTK001,314,3*36
$PMTK001,220,3*30
$PMTK001,185,3*3C
$GPGGA,174237.000,4026.6990,N,07520.5954,W,2,10,0.81,149.2,M,-33.9,M,0000,0000*50
$GPRMC,174237.000,A,4026.6990,N,07520.5954,W,0.53,237.08,100612,,,D*7A
$GPGGA,174238.000,4026.6991,N,07520.5956,W,$PMTK001,314,3*36
$PMTK001,220,3*30
$PMTK001,185,3*3C
$GPGGA,174237.000,4026.6990,N,07520.5954,W,2,10,0.81,149.2,M,-33.9,M,0000,0000*50
$GPRMC,174237.000,A,4026.6990,N,07520.5954,W,0.53,237.08,100612,,,D*7A
$GPGGA,174238.000,4026.6991,N,07520.5956,W,$PMTK001,314,3*36
$PMTK001,220,3*30
$PMTK001,185,3*3C
$GPGGA,174237.000,4026.6990,N,07520.5954,W,2,10,0.81,149.2,M,-33.9,M,0000,0000*50
$GPRMC,174237.000,A,4026.6990,N,07520.5954,W,0.53,237.08,100612,,,D*7A
$GPGGA,174238.000,4026.6991,N,07520.5956,W,$PMTK001,314,3*36
$PMTK001,220,3*30
$PMTK001,185,3*3C
$GPGGA,174237.000,4026.6990,N,07520.5954,W,2,10,0.81,149.2,M,-33.9,M,0000,0000*50
$GPRMC,174237.000,A,4026.6990,N,07520.5954,W,0.53,237.08,100612,,,D*7A
$GPGGA,174238.000,4026.6991,N,07520.5956,W,$PMTK001,314,3*36
$PMTK001,220,3*30
$PMTK001,185,3*3C
$GPGGA,174237.000,4026.6990,N,07520.5954,W,2,10,0.81,149.2,M,-33.9,M,0000,0000*50
$GPRMC,174237.000,A,4026.6990,N,07520.5954,W,0.53,237.08,100612,,,D*7A
$GPGGA,174238.000,4026.6991,N,07520.5956,W,$PMTK001,314,3*36
$PMTK001,220,3*30
$PMTK001,185,3*3C
$GPGGA,174237.000,4026.6990,N,07520.5954,W,2,10,0.81,149.2,M,-33.9,M,0000,0000*50
$GPRMC,174237.000,A,4026.6990,N,07520.5954,W,0.53,237.08,100612,,,D*7A
$GPGGA,174238.000,4026.6991,N,07520.5956,W,$PMTK001,314,3*36
$PMTK001,220,3*30
$PMTK001,185,3*3C
$GPGGA,174237.000,4026.6990,N,07520.5954,W,2,10,0.81,149.2,M,-33.9,M,0000,0000*50
$GPRMC,174237.000,A,4026.6990,N,07520.5954,W,0.53,237.08,100612,,,D*7A
$GPGGA,174238.000,4026.6991,N,07520.5956,W,$PMTK001,314,3*36
$PMTK001,220,3*30
$PMTK001,185,3*3C
$GPGGA,174237.000,4026.6990,N,07520.5954,W,2,10,0.81,149.2,M,-33.9,M,0000,0000*50
$GPRMC,174237.000,A,4026.6990,N,07520.5954,W,0.53,237.08,100612,,,D*7A
$GPGGA,174238.000,4026.6991,N,07520.5956,W,$PMTK001,314,3*36
$PMTK001,220,3*30
$PMTK001,185,3*3C
$GPGGA,174237.000,4026.6990,N,07520.5954,W,2,10,0.81,149.2,M,-33.9,M,0000,0000*50
$GPRMC,174237.000,A,4026.6990,N,07520.5954,W,0.53,237.08,100612,,,D*7A
$GPGGA,174238.000,4026.6991,N,07520.5956,W,$PMTK001,314,3*36
$PMTK001,220,3*30
$PMTK001,185,3*3C
$GPGGA,174237.000,4026.6990,N,07520.5954,W,2,10,0.81,149.2,M,-33.9,M,0000,0000*50
$GPRMC,174237.000,A,4026.6990,N,07520.5954,W,0.53,237.08,100612,,,D*7A
$GPGGA,174238.000,4026.6991,N,07520.5956,W,$PMTK001,314,3*36
$PMTK001,220,3*30
$PMTK001,185,3*3C
$GPGGA,174237.000,4026.6990,N,07520.5954,W,2,10,0.81,149.2,M,-33.9,M,0000,0000*50
$GPRMC,174237.000,A,4026.6990,N,07520.5954,W,0.53,237.08,100612,,,D*7A
$GPGGA,174238.000,4026.6991,N,07520.5956,W,$PMTK001,314,3*36
$PMTK001,220,3*30
$PMTK001,185,3*3C
$GPGGA,174237.000,4026.6990,N,07520.5954,W,2,10,0.81,149.2,M,-33.9,M,0000,0000*50
$GPRMC,174237.000,A,4026.6990,N,07520.5954,W,0.53,237.08,100612,,,D*7A
$GPGGA,174238.000,4026.6991,N,07520.5956,W,$PMTK001,314,3*36
$PMTK001,220,3*30
$PMTK001,185,3*3C
$GPGGA,174237.000,4026.6990,N,07520.5954,W,2,10,0.81,149.2,M,-33.9,M,0000,0000*50
$GPRMC,174237.000,A,4026.6990,N,07520.5954,W,0.53,237.08,100612,,,D*7A
$GPGGA,174238.000,4026.6991,N,07520.5956,W,$PMTK001,314,3*36
$PMTK001,220,3*30
$PMTK001,185,3*3C
$GPGGA,174237.000,4026.6990,N,07520.5954,W,2,10,0.81,149.2,M,-33.9,M,0000,0000*50
$GPRMC,174237.000,A,4026.6990,N,07520.5954,W,0.53,237.08,100612,,,D*7A
$GPGGA,174238.000,4026.6991,N,07520.5956,W,$PMTK001,314,3*36
$PMTK001,220,3*30
$PMTK001,185,3*3C
$GPGGA,174237.000,4026.6990,N,07520.5954,W,2,10,0.81,149.2,M,-33.9,M,0000,0000*50
$GPRMC,174237.000,A,4026.6990,N,07520.5954,W,0.53,237.08,100612,,,D*7A
$GPGGA,174238.000,4026.6991,N,07520.5956,W,$PMTK001,314,3*36
$PMTK001,220,3*30
$PMTK001,185,3*3C
$GPGGA,174237.000,4026.6990,N,07520.5954,W,2,10,0.81,149.2,M,-33.9,M,0000,0000*50
$GPRMC,174237.000,A,4026.6990,N,07520.5954,W,0.53,237.08,100612,,,D*7A
$GPGGA,174238.000,4026.6991,N,07520.5956,W,$PMTK001,314,3*36
$PMTK001,220,3*30
$PMTK001,185,3*3C
$GPGGA,174237.000,4026.6990,N,07520.5954,W,2,10,0.81,149.2,M,-33.9,M,0000,0000*50
$GPRMC,174237.000,A,4026.6990,N,07520.5954,W,0.53,237.08,100612,,,D*7A
$GPGGA,174238.000,4026.6991,N,07520.5956,W,$PMTK001,314,3*36
$PMTK001,220,3*30
$PMTK001,185,3*3C
$GPGGA,174237.000,4026.6990,N,07520.5954,W,2,10,0.81,149.2,M,-33.9,M,0000,0000*50
$GPRMC,174237.000,A,4026.6990,N,07520.5954,W,0.53,237.08,100612,,,D*7A
$GPGGA,174238.000,4026.6991,N,07520.5956,W,$PMTK001,314,3*36
$PMTK001,220,3*30
$PMTK001,185,3*3C
$GPGGA,174237.000,4026.6990,N,07520.5954,W,2,10,0.81,149.2,M,-33.9,M,0000,0000*50
$GPRMC,174237.000,A,4026.6990,N,07520.5954,W,0.53,237.08,100612,,,D*7A
$GPGGA,174238.000,4026.6991,N,07520.5956,W,$PMTK001,314,3*36
$PMTK001,220,3*30
$PMTK001,185,3*3C
$GPGGA,174237.000,4026.6990,N,07520.5954,W,2,10,0.81,149.2,M,-33.9,M,0000,0000*50
$GPRMC,174237.000,A,4026.6990,N,07520.5954,W,0.53,237.08,100612,,,D*7A
$GPGGA,174238.000,4026.6991,N,07520.5956,W,$PMTK001,314,3*36
$PMTK001,220,3*30
$PMTK001,185,3*3C
$GPGGA,174237.000,4026.6990,N,07520.5954,W,2,10,0.81,149.2,M,-33.9,M,0000,0000*50
$GPRMC,174237.000,A,4026.6990,N,07520.5954,W,0.53,237.08,100612,,,D*7A
$GPGGA,174238.000,4026.6991,N,07520.5956,W,$PMTK001,314,3*36
$PMTK001,220,3*30
$PMTK001,185,3*3C
$GPGGA,174237.000,4026.6990,N,07520.5954,W,2,10,0.81,149.2,M,-33.9,M,0000,0000*50
$GPRMC,174237.000,A,4026.6990,N,07520.5954,W,0.53,237.08,100612,,,D*7A
$GPGGA,174238.000,4026.6991,N,07520.5956,W,$PMTK001,314,3*36
$PMTK001,220,3*30
$PMTK001,185,3*3C
$GPGGA,174237.000,4026.6990,N,07520.5954,W,2,10,0.81,149.2,M,-33.9,M,0000,0000*50
$GPRMC,174237.000,A,4026.6990,N,07520.5954,W,0.53,237.08,100612,,,D*7A
$GPGGA,174238.000,4026.6991,N,07520.5956,W,$PMTK001,314,3*36
$PMTK001,220,3*30
$PMTK001,185,3*3C
$GPGGA,174237.000,4026.6990,N,07520.5954,W,2,10,0.81,149.2,M,-33.9,M,0000,0000*50
$GPRMC,174237.000,A,4026.6990,N,07520.5954,W,0.53,237.08,100612,,,D*7A
$GPGGA,174238.000,4026.6991,N,07520.5956,W,$PMTK001,314,3*36
$PMTK001,220,3*30
$PMTK001,185,3*3C
$GPGGA,174237.000,4026.6990,N,07520.5954,W,2,10,0.81,149.2,M,-33.9,M,0000,0000*50
$GPRMC,174237.000,A,4026.6990,N,07520.5954,W,0.53,237.08,100612,,,D*7A
$GPGGA,174238.000,4026.6991,N,07520.5956,W,$PMTK001,314,3*36
$PMTK001,220,3*30
$PMTK001,185,3*3C
$GPGGA,174237.000,4026.6990,N,07520.5954,W,2,10,0.81,149.2,M,-33.9,M,0000,0000*50
$GPRMC,174237.000,A,4026.6990,N,07520.5954,W,0.53,237.08,100612,,,D*7A
$GPGGA,174238.000,4026.6991,N,07520.5956,W,$PMTK001,314,3*36
$PMTK001,220,3*30
$PMTK001,185,3*3C
$GPGGA,174237.000,4026.6990,N,07520.5954,W,2,10,0.81,149.2,M,-33.9,M,0000,0000*50
$GPRMC,174237.000,A,4026.6990,N,07520.5954,W,0.53,237.08,100612,,,D*7A
$GPGGA,174238.000,4026.6991,N,07520.5956,W,$PMTK001,314,3*36
$PMTK001,220,3*30
$PMTK001,185,3*3C
$GPGGA,174237.000,4026.6990,N,07520.5954,W,2,10,0.81,149.2,M,-33.9,M,0000,0000*50
$GPRMC,174237.000,A,4026.6990,N,07520.5954,W,0.53,237.08,100612,,,D*7A
$GPGGA,174238.000,4026.6991,N,07520.5956,W,$PMTK001,314,3*36
$PMTK001,220,3*30
$PMTK001,185,3*3C
$GPGGA,174237.000,4026.6990,N,07520.5954,W,2,10,0.81,149.2,M,-33.9,M,0000,0000*50
$GPRMC,174237.000,A,4026.6990,N,07520.5954,W,0.53,237.08,100612,,,D*7A
$GPGGA,174238.000,4026.6991,N,07520.5956,W,$PMTK001,314,3*36
$PMTK001,220,3*30
$PMTK001,185,3*3C
$GPGGA,174237.000,4026.6990,N,07520.5954,W,2,10,0.81,149.2,M,-33.9,M,0000,0000*50
$GPRMC,174237.000,A,4026.6990,N,07520.5954,W,0.53,237.08,100612,,,D*7A
$GPGGA,174238.000,4026.6991,N,07520.5956,W,$PMTK001,314,3*36
$PMTK001,220,3*30
$PMTK001,185,3*3C
$GPGGA,174237.000,4026.6990,N,07520.5954,W,2,10,0.81,149.2,M,-33.9,M,0000,0000*50
$GPRMC,174237.000,A,4026.6990,N,07520.5954,W,0.53,237.08,100612,,,D*7A
$GPGGA,174238.000,4026.6991,N,07520.5956,W,$PMTK001,314,3*36
$PMTK001,220,3*30
$PMTK001,185,3*3C
$GPGGA,174237.000,4026.6990,N,07520.5954,W,2,10,0.81,149.2,M,-33.9,M,0000,0000*50
$GPRMC,174237.000,A,4026.6990,N,07520.5954,W,0.53,237.08,100612,,,D*7A
$GPGGA,174238.000,4026.6991,N,07520.5956,W,$PMTK001,314,3*36
$PMTK001,220,3*30
$PMTK001,185,3*3C
$GPGGA,174237.000,4026.6990,N,07520.5954,W,2,10,0.81,149.2,M,-33.9,M,0000,0000*50
$GPRMC,174237.000,A,4026.6990,N,07520.5954,W,0.53,237.08,100612,,,D*7A
$GPGGA,174238.000,4026.6991,N,07520.5956,W,$PMTK001,314,3*36
$PMTK001,220,3*30
$PMTK001,185,3*3C
$GPGGA,174237.000,4026.6990,N,07520.5954,W,2,10,0.81,149.2,M,-33.9,M,0000,0000*50
$GPRMC,174237.000,A,4026.6990,N,07520.5954,W,0.53,237.08,100612,,,D*7A
$GPGGA,174238.000,4026.6991,N,07520.5956,W,$PMTK001,314,3*36
$PMTK001,220,3*30
$PMTK001,185,3*3C
$GPGGA,174237.000,4026.6990,N,07520.5954,W,2,10,0.81,149.2,M,-33.9,M,0000,0000*50
$GPRMC,174237.000,A,4026.6990,N,07520.5954,W,0.53,237.08,100612,,,D*7A
$GPGGA,174238.000,4026.6991,N,07520.5956,W,$PMTK001,314,3*36
$PMTK001,220,3*30
$PMTK001,185,3*3C
$GPGGA,174237.000,4026.6990,N,07520.5954,W,2,10,0.81,149.2,M,-33.9,M,0000,0000*50
$GPRMC,174237.000,A,4026.6990,N,07520.5954,W,0.53,237.08,100612,,,D*7A
$GPGGA,174238.000,4026.6991,N,07520.5956,W,$PMTK001,314,3*36
$PMTK001,220,3*30
$PMTK001,185,3*3C
$GPGGA,174237.000,4026.6990,N,07520.5954,W,2,10,0.81,149.2,M,-33.9,M,0000,0000*50
$GPRMC,174237.000,A,4026.6990,N,07520.5954,W,0.53,237.08,100612,,,D*7A
$GPGGA,174238.000,4026.6991,N,07520.5956,W,$PMTK001,314,3*36
$PMTK001,220,3*30
$PMTK001,185,3*3C
$GPGGA,174237.000,4026.6990,N,07520.5954,W,2,10,0.81,149.2,M,-33.9,M,0000,0000*50
$GPRMC,174237.000,A,4026.6990,N,07520.5954,W,0.53,237.08,100612,,,D*7A
$GPGGA,174238.000,4026.6991,N,07520.5956,W,$PMTK001,314,3*36
$PMTK001,220,3*30
$PMTK001,185,3*3C
$GPGGA,174237.000,4026.6990,N,07520.5954,W,2,10,0.81,149.2,M,-33.9,M,0000,0000*50
$GPRMC,174237.000,A,4026.6990,N,07520.5954,W,0.53,237.08,100612,,,D*7A
$GPGGA,174238.000,4026.6991,N,07520.5956,W,$PMTK001,314,3*36
$PMTK001,220,3*30
$PMTK001,185,3*3C
$GPGGA,174237.000,4026.6990,N,07520.5954,W,2,10,0.81,149.2,M,-33.9,M,0000,0000*50
$GPRMC,174237.000,A,4026.6990,N,07520.5954,W,0.53,237.08,100612,,,D*7A
$GPGGA,174238.000,4026.6991,N,07520.5956,W,$PMTK001,314,3*36
$PMTK001,220,3*30
$PMTK001,185,3*3C
$GPGGA,174237.000,4026.6990,N,07520.5954,W,2,10,0.81,149.2,M,-33.9,M,0000,0000*50
$GPRMC,174237.000,A,4026.6990,N,07520.5954,W,0.53,237.08,100612,,,D*7A
$GPGGA,174238.000,4026.6991,N,07520.5956,W,$PMTK001,314,3*36
$PMTK001,220,3*30
$PMTK001,185,3*3C
$GPGGA,174237.000,4026.6990,N,07520.5954,W,2,10,0.81,149.2,M,-33.9,M,0000,0000*50
$GPRMC,174237.000,A,4026.6990,N,07520.5954,W,0.53,237.08,100612,,,D*7A
$GPGGA,174238.000,4026.6991,N,07520.5956,W,$PMTK001,314,3*36
$PMTK001,220,3*30
$PMTK001,185,3*3C
$GPGGA,174237.000,4026.6990,N,07520.5954,W,2,10,0.81,149.2,M,-33.9,M,0000,0000*50
$GPRMC,174237.000,A,4026.6990,N,07520.5954,W,0.53,237.08,100612,,,D*7A
$GPGGA,174238.000,4026.6991,N,07520.5956,W,$PMTK001,314,3*36
$PMTK001,220,3*30
$PMTK001,185,3*3C
$GPGGA,174237.000,4026.6990,N,07520.5954,W,2,10,0.81,149.2,M,-33.9,M,0000,0000*50
$GPRMC,174237.000,A,4026.6990,N,07520.5954,W,0.53,237.08,100612,,,D*7A
$GPGGA,174238.000,4026.6991,N,07520.5956,W,$PMTK001,314,3*36
$PMTK001,220,3*30
$PMTK001,185,3*3C
$GPGGA,174237.000,4026.6990,N,07520.5954,W,2,10,0.81,149.2,M,-33.9,M,0000,0000*50
$GPRMC,174237.000,A,4026.6990,N,07520.5954,W,0.53,237.08,100612,,,D*7A
$GPGGA,174238.000,4026.6991,N,07520.5956,W,$PMTK001,314,3*36
$PMTK001,220,3*30
$PMTK001,185,3*3C
$GPGGA,174237.000,4026.6990,N,07520.5954,W,2,10,0.81,149.2,M,-33.9,M,0000,0000*50
$GPRMC,174237.000,A,4026.6990,N,07520.5954,W,0.53,237.08,100612,,,D*7A
$GPGGA,174238.000,4026.6991,N,07520.5956,W,$PMTK001,314,3*36
$PMTK001,220,3*30
$PMTK001,185,3*3C
$GPGGA,174237.000,4026.6990,N,07520.5954,W,2,10,0.81,149.2,M,-33.9,M,0000,0000*50
$GPRMC,174237.000,A,4026.6990,N,07520.5954,W,0.53,237.08,100612,,,D*7A
$GPGGA,174238.000,4026.6991,N,07520.5956,W,$PMTK001,314,3*36
$PMTK001,220,3*30
$PMTK001,185,3*3C
$GPGGA,174237.000,4026.6990,N,07520.5954,W,2,10,0.81,149.2,M,-33.9,M,0000,0000*50
$GPRMC,174237.000,A,4026.6990,N,07520.5954,W,0.53,237.08,100612,,,D*7A
$GPGGA,174238.000,4026.6991,N,07520.5956,W,$PMTK001,314,3*36
$PMTK001,220,3*30
$PMTK001,185,3*3C
$GPGGA,174237.000,4026.6990,N,07520.5954,W,2,10,0.81,149.2,M,-33.9,M,0000,0000*50
$GPRMC,174237.000,A,4026.6990,N,07520.5954,W,0.53,237.08,100612,,,D*7A
$GPGGA,174238.000,4026.6991,N,07520.5956,W,$PMTK001,314,3*36
$PMTK001,220,3*30
$PMTK001,185,3*3C
$GPGGA,174237.000,4026.6990,N,07520.5954,W,2,10,0.81,149.2,M,-33.9,M,0000,0000*50
$GPRMC,174237.000,A,4026.6990,N,07520.5954,W,0.53,237.08,100612,,,D*7A
$GPGGA,174238.000,4026.6991,N,07520.5956,W,$PMTK001,314,3*36
$PMTK001,220,3*30
$PMTK001,185,3*3C
$GPGGA,174237.000,4026.6990,N,07520.5954,W,2,10,0.81,149.2,M,-33.9,M,0000,0000*50
$GPRMC,174237.000,A,4026.6990,N,07520.5954,W,0.53,237.08,100612,,,D*7A
$GPGGA,174238.000,4026.6991,N,07520.5956,W,$PMTK001,314,3*36
$PMTK001,220,3*30
$PMTK001,185,3*3C
$GPGGA,174237.000,4026.6990,N,07520.5954,W,2,10,0.81,149.2,M,-33.9,M,0000,0000*50
$GPRMC,174237.000,A,4026.6990,N,07520.5954,W,0.53,237.08,100612,,,D*7A
$GPGGA,174238.000,4026.6991,N,07520.5956,W,$PMTK001,314,3*36
$PMTK001,220,3*30
$PMTK001,185,3*3C
$GPGGA,174237.000,4026.6990,N,07520.5954,W,2,10,0.81,149.2,M,-33.9,M,0000,0000*50
$GPRMC,174237.000,A,4026.6990,N,07520.5954,W,0.53,237.08,100612,,,D*7A
$GPGGA,174238.000,4026.6991,N,07520.5956,W,$PMTK001,314,3*36
$PMTK001,220,3*30
$PMTK001,185,3*3C
$GPGGA,174237.000,4026.6990,N,07520.5954,W,2,10,0.81,149.2,M,-33.9,M,0000,0000*50
$GPRMC,174237.000,A,4026.6990,N,07520.5954,W,0.53,237.08,100612,,,D*7A
$GPGGA,174238.000,4026.6991,N,07520.5956,W,$PMTK001,314,3*36
$PMTK001,220,3*30
$PMTK001,185,3*3C
$GPGGA,174237.000,4026.6990,N,07520.5954,W,2,10,0.81,149.2,M,-33.9,M,0000,0000*50
$GPRMC,174237.000,A,4026.6990,N,07520.5954,W,0.53,237.08,100612,,,D*7A
$GPGGA,174238.000,4026.6991,N,07520.5956,W,$PMTK001,314,3*36
$PMTK001,220,3*30
$PMTK001,185,3*3C
$GPGGA,174237.000,4026.6990,N,07520.5954,W,2,10,0.81,149.2,M,-33.9,M,0000,0000*50
$GPRMC,174237.000,A,4026.6990,N,07520.5954,W,0.53,237.08,100612,,,D*7A
$GPGGA,174238.000,4026.6991,N,07520.5956,W,