$PMTK001,314,3*36
$PMTK001,220,3*30
$PMTK001,185,3*3C
$GPGGA,182641.000,4015.4247,N,07513.3666,W,2,12,0.83,6052.4,M,-33.9,M,0000,0000*6C
$GPRMC,182641.000,A,4015.4247,N,07513.3666,W,21.08,137.29,100612,,,D*40
$GPGGA,182642.000,4015.4204,N,07513.3614,$PMTK001,314,3*36
$PMTK001,220,3*30
$PMTK001,185,3*3C
$GPGGA,182641.000,4015.4247,N,07513.3666,W,2,12,0.83,6052.4,M,-33.9,M,0000,0000*6C
$GPRMC,182641.000,A,4015.4247,N,07513.3666,W,21.08,137.29,100612,,,D*40
$GPGGA,182642.000,4015.4204,N,07513.3614,$PMTK001,314,3*36
$PMTK001,220,3*30
$PMTK001,185,3*3C
$GPGGA,182641.000,4015.4247,N,07513.3666,W,2,12,0.83,6052.4,M,-33.9,M,0000,0000*6C
$GPRMC,182641.000,A,4015.4247,N,07513.3666,W,21.08,137.29,100612,,,D*40
$GPGGA,182642.000,4015.4204,N,07513.3614,$PMTK001,314,3*36
$PMTK001,220,3*30
$PMTK001,185,3*3C
$GPGGA,182641.000,4015.4247,N,07513.3666,W,2,12,0.83,6052.4,M,-33.9,M,0000,0000*6C
$GPRMC,182641.000,A,4015.4247,N,07513.3666,W,21.08,137.29,100612,,,D*40
$GPGGA,182642.000,4015.4204,N,07513.3614,$PMTK001,314,3*36
$PMTK001,220,3*30
$PMTK001,185,3*3C
$GPGGA,182641.000,4015.4247,N,07513.3666,W,2,12,0.83,6052.4,M,-33.9,M,0000,0000*6C
$GPRMC,182641.000,A,4015.4247,N,07513.3666,W,21.08,137.29,100612,,,D*40
$GPGGA,182642.000,4015.4204,N,07513.3614,$PMTK001,314,3*36
$PMTK001,220,3*30
$PMTK001,185,3*3C
$GPGGA,182641.000,4015.4247,N,07513.3666,W,2,12,0.83,6052.4,M,-33.9,M,0000,0000*6C
$GPRMC,182641.000,A,4015.4247,N,07513.3666,W,21.08,137.29,100612,,,D*40
$GPGGA,182642.000,4015.4204,N,07513.3614,$PMTK001,314,3*36
$PMTK001,220,3*30
$PMTK001,185,3*3C
$GPGGA,182641.000,4015.4247,N,07513.3666,W,2,12,0.83,6052.4,M,-33.9,M,0000,0000*6C
$GPRMC,182641.000,A,4015.4247,N,07513.3666,W,21.08,137.29,100612,,,D*40
$GPGGA,182642.000,4015.4204,N,07513.3614,$PMTK001,314,3*36
$PMTK001,220,3*30
$PMTK001,185,3*3C
$GPGGA,182641.000,4015.4247,N,07513.3666,W,2,12,0.83,6052.4,M,-33.9,M,0000,0000*6C
$GPRMC,182641.000,A,4015.4247,N,07513.3666,W,21.08,137.29,100612,,,D*40
$GPGGA,182642.000,4015.4204,N,07513.3614,$PMTK001,314,3*36
$PMTK001,220,3*30
$PMTK001,185,3*3C
$GPGGA,182641.000,4015.4247,N,07513.3666,W,2,12,0.83,6052.4,M,-33.9,M,0000,0000*6C
$GPRMC,182641.000,A,4015.4247,N,07513.3666,W,21.08,137.29,100612,,,D*40
$GPGGA,182642.000,4015.4204,N,07513.3614,$PMTK001,314,3*36
$PMTK001,220,3*30
$PMTK001,185,3*3C
$GPGGA,182641.000,4015.4247,N,07513.3666,W,2,12,0.83,6052.4,M,-33.9,M,0000,0000*6C
$GPRMC,182641.000,A,4015.4247,N,07513.3666,W,21.08,137.29,100612,,,D*40
$GPGGA,182642.000,4015.4204,N,07513.3614,$PMTK001,314,3*36
$PMTK001,220,3*30
$PMTK001,185,3*3C
$GPGGA,182641.000,4015.4247,N,07513.3666,W,2,12,0.83,6052.4,M,-33.9,M,0000,0000*6C
$GPRMC,182641.000,A,4015.4247,N,07513.3666,W,21.08,137.29,100612,,,D*40
$GPGGA,182642.000,4015.4204,N,07513.3614,$PMTK001,314,3*36
$PMTK001,220,3*30
$PMTK001,185,3*3C
$GPGGA,182641.000,4015.4247,N,07513.3666,W,2,12,0.83,6052.4,M,-33.9,M,0000,0000*6C
$GPRMC,182641.000,A,4015.4247,N,07513.3666,W,21.08,137.29,100612,,,D*40
$GPGGA,182642.000,4015.4204,N,07513.3614,$PMTK001,314,3*36
$PMTK001,220,3*30
$PMTK001,185,3*3C
$GPGGA,182641.000,4015.4247,N,07513.3666,W,2,12,0.83,6052.4,M,-33.9,M,0000,0000*6C
$GPRMC,182641.000,A,4015.4247,N,07513.3666,W,21.08,137.29,100612,,,D*40
$GPGGA,182642.000,4015.4204,N,07513.3614,$PMTK001,314,3*36
$PMTK001,220,3*30
$PMTK001,185,3*3C
$GPGGA,182641.000,4015.4247,N,07513.3666,W,2,12,0.83,6052.4,M,-33.9,M,0000,0000*6C
$GPRMC,182641.000,A,4015.4247,N,07513.3666,W,21.08,137.29,100612,,,D*40
$GPGGA,182642.000,4015.4204,N,07513.3614,$PMTK001,314,3*36
$PMTK001,220,3*30
$PMTK001,185,3*3C
$GPGGA,182641.000,4015.4247,N,07513.3666,W,2,12,0.83,6052.4,M,-33.9,M,0000,0000*6C
$GPRMC,182641.000,A,4015.4247,N,07513.3666,W,21.08,137.29,100612,,,D*40
$GPGGA,182642.000,4015.4204,N,07513.3614,$PMTK001,314,3*36
$PMTK001,220,3*30
$PMTK001,185,3*3C
$GPGGA,182641.000,4015.4247,N,07513.3666,W,2,12,0.83,6052.4,M,-33.9,M,0000,0000*6C
$GPRMC,182641.000,A,4015.4247,N,07513.3666,W,21.08,137.29,100612,,,D*40
$GPGGA,182642.000,4015.4204,N,07513.3614,$PMTK001,314,3*36
$PMTK001,220,3*30
$PMTK001,185,3*3C
$GPGGA,182641.000,4015.4247,N,07513.3666,W,2,12,0.83,6052.4,M,-33.9,M,0000,0000*6C
$GPRMC,182641.000,A,4015.4247,N,07513.3666,W,21.08,137.29,100612,,,D*40
$GPGGA,182642.000,4015.4204,N,07513.3614,$PMTK001,314,3*36
$PMTK001,220,3*30
$PMTK001,185,3*3C
$GPGGA,182641.000,4015.4247,N,07513.3666,W,2,12,0.83,6052.4,M,-33.9,M,0000,0000*6C
$GPRMC,182641.000,A,4015.4247,N,07513.3666,W,21.08,137.29,100612,,,D*40
$GPGGA,182642.000,4015.4204,N,07513.3614,$PMTK001,314,3*36
$PMTK001,220,3*30
$PMTK001,185,3*3C
$GPGGA,182641.000,4015.4247,N,07513.3666,W,2,12,0.83,6052.4,M,-33.9,M,0000,0000*6C
$GPRMC,182641.000,A,4015.4247,N,07513.3666,W,21.08,137.29,100612,,,D*40
$GPGGA,182642.000,4015.4204,N,07513.3614,$PMTK001,314,3*36
$PMTK001,220,3*30
$PMTK001,185,3*3C
$GPGGA,182641.000,4015.4247,N,07513.3666,W,2,12,0.83,6052.4,M,-33.9,M,0000,0000*6C
$GPRMC,182641.000,A,4015.4247,N,07513.3666,W,21.08,137.29,100612,,,D*40
$GPGGA,182642.000,4015.4204,N,07513.3614,$PMTK001,314,3*36
$PMTK001,220,3*30
$PMTK001,185,3*3C
$GPGGA,182641.000,4015.4247,N,07513.3666,W,2,12,0.83,6052.4,M,-33.9,M,0000,0000*6C
$GPRMC,182641.000,A,4015.4247,N,07513.3666,W,21.08,137.29,100612,,,D*40
$GPGGA,182642.000,4015.4204,N,07513.3614,$PMTK001,314,3*36
$PMTK001,220,3*30
$PMTK001,185,3*3C
$GPGGA,182641.000,4015.4247,N,07513.3666,W,2,12,0.83,6052.4,M,-33.9,M,0000,0000*6C
$GPRMC,182641.000,A,4015.4247,N,07513.3666,W,21.08,137.29,100612,,,D*40
$GPGGA,182642.000,4015.4204,N,07513.3614,$PMTK001,314,3*36
$PMTK001,220,3*30
$PMTK001,185,3*3C
$GPGGA,182641.000,4015.4247,N,07513.3666,W,2,12,0.83,6052.4,M,-33.9,M,0000,0000*6C
$GPRMC,182641.000,A,4015.4247,N,07513.3666,W,21.08,137.29,100612,,,D*40
$GPGGA,182642.000,4015.4204,N,07513.3614,$PMTK001,314,3*36
$PMTK001,220,3*30
$PMTK001,185,3*3C
$GPGGA,182641.000,4015.4247,N,07513.3666,W,2,12,0.83,6052.4,M,-33.9,M,0000,0000*6C
$GPRMC,182641.000,A,4015.4247,N,07513.3666,W,21.08,137.29,100612,,,D*40
$GPGGA,182642.000,4015.4204,N,07513.3614,$PMTK001,314,3*36
$PMTK001,220,3*30
$PMTK001,185,3*3C
$GPGGA,182641.000,4015.4247,N,07513.3666,W,2,12,0.83,6052.4,M,-33.9,M,0000,0000*6C
$GPRMC,182641.000,A,4015.4247,N,07513.3666,W,21.08,137.29,100612,,,D*40
$GPGGA,182642.000,4015.4204,N,07513.3614,$PMTK001,314,3*36
$PMTK001,220,3*30
$PMTK001,185,3*3C
$GPGGA,182641.000,4015.4247,N,07513.3666,W,2,12,0.83,6052.4,M,-33.9,M,0000,0000*6C
$GPRMC,182641.000,A,4015.4247,N,07513.3666,W,21.08,137.29,100612,,,D*40
$GPGGA,182642.000,4015.4204,N,07513.3614,$PMTK001,314,3*36
$PMTK001,220,3*30
$PMTK001,185,3*3C
$GPGGA,182641.000,4015.4247,N,07513.3666,W,2,12,0.83,6052.4,M,-33.9,M,0000,0000*6C
$GPRMC,182641.000,A,4015.4247,N,07513.3666,W,21.08,137.29,100612,,,D*40
$GPGGA,182642.000,4015.4204,N,07513.3614,$PMTK001,314,3*36
$PMTK001,220,3*30
$PMTK001,185,3*3C
$GPGGA,182641.000,4015.4247,N,07513.3666,W,2,12,0.83,6052.4,M,-33.9,M,0000,0000*6C
$GPRMC,182641.000,A,4015.4247,N,07513.3666,W,21.08,137.29,100612,,,D*40
$GPGGA,182642.000,4015.4204,N,07513.3614,$PMTK001,314,3*36
$PMTK001,220,3*30
$PMTK001,185,3*3C
$GPGGA,182641.000,4015.4247,N,07513.3666,W,2,12,0.83,6052.4,M,-33.9,M,0000,0000*6C
$GPRMC,182641.000,A,4015.4247,N,07513.3666,W,21.08,137.29,100612,,,D*40
$GPGGA,182642.000,4015.4204,N,07513.3614,$PMTK001,314,3*36
$PMTK001,220,3*30
$PMTK001,185,3*3C
$GPGGA,182641.000,4015.4247,N,07513.3666,W,2,12,0.83,6052.4,M,-33.9,M,0000,0000*6C
$GPRMC,182641.000,A,4015.4247,N,07513.3666,W,21.08,137.29,100612,,,D*40
$GPGGA,182642.000,4015.4204,N,07513.3614,$PMTK001,314,3*36
$PMTK001,220,3*30
$PMTK001,185,3*3C
$GPGGA,182641.000,4015.4247,N,07513.3666,W,2,12,0.83,6052.4,M,-33.9,M,0000,0000*6C
$GPRMC,182641.000,A,4015.4247,N,07513.3666,W,21.08,137.29,100612,,,D*40
$GPGGA,182642.000,4015.4204,N,07513.3614,$PMTK001,314,3*36
$PMTK001,220,3*30
$PMTK001,185,3*3C
$GPGGA,182641.000,4015.4247,N,07513.3666,W,2,12,0.83,6052.4,M,-33.9,M,0000,0000*6C
$GPRMC,182641.000,A,4015.4247,N,07513.3666,W,21.08,137.29,100612,,,D*40
$GPGGA,182642.000,4015.4204,N,07513.3614,$PMTK001,314,3*36
$PMTK001,220,3*30
$PMTK001,185,3*3C
$GPGGA,182641.000,4015.4247,N,07513.3666,W,2,12,0.83,6052.4,M,-33.9,M,0000,0000*6C
$GPRMC,182641.000,A,4015.4247,N,07513.3666,W,21.08,137.29,100612,,,D*40
$GPGGA,182642.000,4015.4204,N,07513.3614,$PMTK001,314,3*36
$PMTK001,220,3*30
$PMTK001,185,3*3C
$GPGGA,182641.000,4015.4247,N,07513.3666,W,2,12,0.83,6052.4,M,-33.9,M,0000,0000*6C
$GPRMC,182641.000,A,4015.4247,N,07513.3666,W,21.08,137.29,100612,,,D*40
$GPGGA,182642.000,4015.4204,N,07513.3614,$PMTK001,314,3*36
$PMTK001,220,3*30
$PMTK001,185,3*3C
$GPGGA,182641.000,4015.4247,N,07513.3666,W,2,12,0.83,6052.4,M,-33.9,M,0000,0000*6C
$GPRMC,182641.000,A,4015.4247,N,07513.3666,W,21.08,137.29,100612,,,D*40
$GPGGA,182642.000,4015.4204,N,07513.3614,$PMTK001,314,3*36
$PMTK001,220,3*30
$PMTK001,185,3*3C
$GPGGA,182641.000,4015.4247,N,07513.3666,W,2,12,0.83,6052.4,M,-33.9,M,0000,0000*6C
$GPRMC,182641.000,A,4015.4247,N,07513.3666,W,21.08,137.29,100612,,,D*40
$GPGGA,182642.000,4015.4204,N,07513.3614,$PMTK001,314,3*36
$PMTK001,220,3*30
$PMTK001,185,3*3C
$GPGGA,182641.000,4015.4247,N,07513.3666,W,2,12,0.83,6052.4,M,-33.9,M,0000,0000*6C
$GPRMC,182641.000,A,4015.4247,N,07513.3666,W,21.08,137.29,100612,,,D*40
$GPGGA,182642.000,4015.4204,N,07513.3614,$PMTK001,314,3*36
$PMTK001,220,3*30
$PMTK001,185,3*3C
$GPGGA,182641.000,4015.4247,N,07513.3666,W,2,12,0.83,6052.4,M,-33.9,M,0000,0000*6C
$GPRMC,182641.000,A,4015.4247,N,07513.3666,W,21.08,137.29,100612,,,D*40
$GPGGA,182642.000,4015.4204,N,07513.3614,$PMTK001,314,3*36
$PMTK001,220,3*30
$PMTK001,185,3*3C
$GPGGA,182641.000,4015.4247,N,07513.3666,W,2,12,0.83,6052.4,M,-33.9,M,0000,0000*6C
$GPRMC,182641.000,A,4015.4247,N,07513.3666,W,21.08,137.29,100612,,,D*40
$GPGGA,182642.000,4015.4204,N,07513.3614,$PMTK001,314,3*36
$PMTK001,220,3*30
$PMTK001,185,3*3C
$GPGGA,182641.000,4015.4247,N,07513.3666,W,2,12,0.83,6052.4,M,-33.9,M,0000,0000*6C
$GPRMC,182641.000,A,4015.4247,N,07513.3666,W,21.08,137.29,100612,,,D*40
$GPGGA,182642.000,4015.4204,N,07513.3614,$PMTK001,314,3*36
$PMTK001,220,3*30
$PMTK001,185,3*3C
$GPGGA,182641.000,4015.4247,N,07513.3666,W,2,12,0.83,6052.4,M,-33.9,M,0000,0000*6C
$GPRMC,182641.000,A,4015.4247,N,07513.3666,W,21.08,137.29,100612,,,D*40
$GPGGA,182642.000,4015.4204,N,07513.3614,$PMTK001,314,3*36
$PMTK001,220,3*30
$PMTK001,185,3*3C
$GPGGA,182641.000,4015.4247,N,07513.3666,W,2,12,0.83,6052.4,M,-33.9,M,0000,0000*6C
$GPRMC,182641.000,A,4015.4247,N,07513.3666,W,21.08,137.29,100612,,,D*40
$GPGGA,182642.000,4015.4204,N,07513.3614,$PMTK001,314,3*36
$PMTK001,220,3*30
$PMTK001,185,3*3C
$GPGGA,182641.000,4015.4247,N,07513.3666,W,2,12,0.83,6052.4,M,-33.9,M,0000,0000*6C
$GPRMC,182641.000,A,4015.4247,N,07513.3666,W,21.08,137.29,100612,,,D*40
$GPGGA,182642.000,4015.4204,N,07513.3614,$PMTK001,314,3*36
$PMTK001,220,3*30
$PMTK001,185,3*3C
$GPGGA,182641.000,4015.4247,N,07513.3666,W,2,12,0.83,6052.4,M,-33.9,M,0000,0000*6C
$GPRMC,182641.000,A,4015.4247,N,07513.3666,W,21.08,137.29,100612,,,D*40
$GPGGA,182642.000,4015.4204,N,07513.3614,$PMTK001,314,3*36
$PMTK001,220,3*30
$PMTK001,185,3*3C
$GPGGA,182641.000,4015.4247,N,07513.3666,W,2,12,0.83,6052.4,M,-33.9,M,0000,0000*6C
$GPRMC,182641.000,A,4015.4247,N,07513.3666,W,21.08,137.29,100612,,,D*40
$GPGGA,182642.000,4015.4204,N,07513.3614,$PMTK001,314,3*36
$PMTK001,220,3*30
$PMTK001,185,3*3C
$GPGGA,182641.000,4015.4247,N,07513.3666,W,2,12,0.83,6052.4,M,-33.9,M,0000,0000*6C
$GPRMC,182641.000,A,4015.4247,N,07513.3666,W,21.08,137.29,100612,,,D*40
$GPGGA,182642.000,4015.4204,N,07513.3614,$PMTK001,314,3*36
$PMTK001,220,3*30
$PMTK001,185,3*3C
$GPGGA,182641.000,4015.4247,N,07513.3666,W,2,12,0.83,6052.4,M,-33.9,M,0000,0000*6C
$GPRMC,182641.000,A,4015.4247,N,07513.3666,W,21.08,137.29,100612,,,D*40
$GPGGA,182642.000,4015.4204,N,07513.3614,$PMTK001,314,3*36
$PMTK001,220,3*30
$PMTK001,185,3*3C
$GPGGA,182641.000,4015.4247,N,07513.3666,W,2,12,0.83,6052.4,M,-33.9,M,0000,0000*6C
$GPRMC,182641.000,A,4015.4247,N,07513.3666,W,21.08,137.29,100612,,,D*40
$GPGGA,182642.000,4015.4204,N,07513.3614,$PMTK001,314,3*36
$PMTK001,220,3*30
$PMTK001,185,3*3C
$GPGGA,182641.000,4015.4247,N,07513.3666,W,2,12,0.83,6052.4,M,-33.9,M,0000,0000*6C
$GPRMC,182641.000,A,4015.4247,N,07513.3666,W,21.08,137.29,100612,,,D*40
$GPGGA,182642.000,4015.4204,N,07513.3614,$PMTK001,314,3*36
$PMTK001,220,3*30
$PMTK001,185,3*3C
$GPGGA,182641.000,4015.4247,N,07513.3666,W,2,12,0.83,6052.4,M,-33.9,M,0000,0000*6C
$GPRMC,182641.000,A,4015.4247,N,07513.3666,W,21.08,137.29,100612,,,D*40
$GPGGA,182642.000,4015.4204,N,07513.3614,$PMTK001,314,3*36
$PMTK001,220,3*30
$PMTK001,185,3*3C
$GPGGA,182641.000,4015.4247,N,07513.3666,W,2,12,0.83,6052.4,M,-33.9,M,0000,0000*6C
$GPRMC,182641.000,A,4015.4247,N,07513.3666,W,21.08,137.29,100612,,,D*40
$GPGGA,182642.000,4015.4204,N,07513.3614,$PMTK001,314,3*36
$PMTK001,220,3*30
$PMTK001,185,3*3C
$GPGGA,182641.000,4015.4247,N,07513.3666,W,2,12,0.83,6052.4,M,-33.9,M,0000,0000*6C
$GPRMC,182641.000,A,4015.4247,N,07513.3666,W,21.08,137.29,100612,,,D*40
$GPGGA,182642.000,4015.4204,N,07513.3614,$PMTK001,314,3*36
$PMTK001,220,3*30
$PMTK001,185,3*3C
$GPGGA,182641.000,4015.4247,N,07513.3666,W,2,12,0.83,6052.4,M,-33.9,M,0000,0000*6C
$GPRMC,182641.000,A,4015.4247,N,07513.3666,W,21.08,137.29,100612,,,D*40
$GPGGA,182642.000,4015.4204,N,07513.3614,$PMTK001,314,3*36
$PMTK001,220,3*30
$PMTK001,185,3*3C
$GPGGA,182641.000,4015.4247,N,07513.3666,W,2,12,0.83,6052.4,M,-33.9,M,0000,0000*6C
$GPRMC,182641.000,A,4015.4247,N,07513.3666,W,21.08,137.29,100612,,,D*40
$GPGGA,182642.000,4015.4204,N,07513.3614,$PMTK001,314,3*36
$PMTK001,220,3*30
$PMTK001,185,3*3C
$GPGGA,182641.000,4015.4247,N,07513.3666,W,2,12,0.83,6052.4,M,-33.9,M,0000,0000*6C
$GPRMC,182641.000,A,4015.4247,N,07513.3666,W,21.08,137.29,100612,,,D*40
$GPGGA,182642.000,4015.4204,N,07513.3614,$PMTK001,314,3*36
$PMTK001,220,3*30
$PMTK001,185,3*3C
$GPGGA,182641.000,4015.4247,N,07513.3666,W,2,12,0.83,6052.4,M,-33.9,M,0000,0000*6C
$GPRMC,182641.000,A,4015.4247,N,07513.3666,W,21.08,137.29,100612,,,D*40
$GPGGA,182642.000,4015.4204,N,07513.3614,$PMTK001,314,3*36
$PMTK001,220,3*30
$PMTK001,185,3*3C
$GPGGA,182641.000,4015.4247,N,07513.3666,W,2,12,0.83,6052.4,M,-33.9,M,0000,0000*6C
$GPRMC,182641.000,A,4015.4247,N,07513.3666,W,21.08,137.29,100612,,,D*40
$GPGGA,182642.000,4015.4204,N,07513.3614,